{
  "channel": {
    "item": [
      {
        "phone": "02-2220-0114",
        "newAddress": "서울 성동구 왕십리로 222",
        "imageUrl": "http://cfile73.uf.daum.net/image/142047044AF11C84392704",
        "direction": "",
        "zipcode": "",
        "placeUrl": "http://place.map.daum.net/11211235",
        "id": "11211235",
        "title": "한양대학교 서울캠퍼스",
        "category": "교육,학문 > 학교 > 대학교",
        "distance": "",
        "address": "서울 성동구 사근동 110",
        "longitude": "127.04532955770931",
        "latitude": "37.55770114763559",
        "addressBCode": "1120010700"
      },
      {
        "phone": "031-400-5114",
        "newAddress": "경기 안산시 상록구 한양대학로 55",
        "imageUrl": "http://cfile174.uf.daum.net/image/142D1F044AF11CA014E028",
        "direction": "",
        "zipcode": "",
        "placeUrl": "http://place.map.daum.net/11318845",
        "id": "11318845",
        "title": "한양대학교 ERICA캠퍼스",
        "category": "교육,학문 > 학교 > 대학교",
        "distance": "",
        "address": "경기 안산시 상록구 사1동 1271",
        "longitude": "126.83565762007755",
        "latitude": "37.29545737470954",
        "addressBCode": "4127110300"
      },
      {
        "phone": "02-2290-8114",
        "newAddress": "서울 성동구 왕십리로 222",
        "imageUrl": "http://cfile87.uf.daum.net/image/2432A34953477BC20EE961",
        "direction": "",
        "zipcode": "",
        "placeUrl": "http://place.map.daum.net/8607610",
        "id": "8607610",
        "title": "한양대학교병원",
        "category": "의료,건강 > 병원 > 대학병원",
        "distance": "",
        "address": "서울 성동구 행당동 17",
        "longitude": "127.0442306238415",
        "latitude": "37.55963690615881",
        "addressBCode": "1120010600"
      },
      {
        "phone": "02-2290-0114",
        "newAddress": "서울 성동구 왕십리로 222",
        "imageUrl": "http://cfile75.uf.daum.net/image/171CF60F4BC4132511DBF1",
        "direction": "",
        "zipcode": "",
        "placeUrl": "http://place.map.daum.net/10930074",
        "id": "10930074",
        "title": "한양사이버대학교",
        "category": "교육,학문 > 학교 > 사이버대학",
        "distance": "",
        "address": "서울 성동구 행당동 17",
        "longitude": "127.04750675079792",
        "latitude": "37.55718492125972",
        "addressBCode": "1120010600"
      },
      {
        "phone": "02-2290-2114",
        "newAddress": "서울 성동구 왕십리로 222-1",
        "imageUrl": "http://cfile171.uf.daum.net/image/123D911A4C76235844FBD8",
        "direction": "",
        "zipcode": "",
        "placeUrl": "http://place.map.daum.net/10942308",
        "id": "10942308",
        "title": "한양여자대학교",
        "category": "교육,학문 > 학교 > 전문대학",
        "distance": "",
        "address": "서울 성동구 사근동 110",
        "longitude": "127.04941380225623",
        "latitude": "37.55895369695668",
        "addressBCode": "1120010600"
      },
      {
        "phone": "02-2290-9442",
        "newAddress": "서울 성동구 왕십리로 222-1",
        "imageUrl": "",
        "direction": "",
        "zipcode": "",
        "placeUrl": "http://place.map.daum.net/17360816",
        "id": "17360816",
        "title": "한양대학교병원 장례식장",
        "category": "가정,생활 > 장례 > 장례식장",
        "distance": "",
        "address": "서울 성동구 사근동 110",
        "longitude": "127.04336593121972",
        "latitude": "37.559637226923584",
        "addressBCode": "1120010600"
      },
      {
        "phone": "02-2294-2066",
        "newAddress": "서울 성동구 마조로5길 3",
        "imageUrl": "",
        "direction": "",
        "zipcode": "133871",
        "placeUrl": "http://place.map.daum.net/12502209",
        "id": "12502209",
        "title": "한양대황소곱창",
        "category": "음식점 > 한식 > 육류,고기 > 곱창,막창",
        "distance": "",
        "address": "서울 성동구 행당동 19-50",
        "longitude": "127.04074030425296",
        "latitude": "37.559897649226436",
        "addressBCode": "1120010700"
      },
      {
        "phone": "02-2200-3500",
        "newAddress": "서울 성동구 마조로 42",
        "imageUrl": "http://cfile173.uf.daum.net/image/01062A037897D6534DC3F9",
        "direction": "",
        "zipcode": "",
        "placeUrl": "http://place.map.daum.net/8136426",
        "id": "8136426",
        "title": "한양대학교사범대학 부속고등학교",
        "category": "교육,학문 > 학교 > 고등학교 > 자율형사립고등학교",
        "distance": "",
        "address": "서울 성동구 사근동 223",
        "longitude": "127.04233502347151",
        "latitude": "37.561918924882924",
        "addressBCode": "1120010600"
      },
      {
        "phone": "02-2220-1318",
        "newAddress": "",
        "imageUrl": "",
        "direction": "",
        "zipcode": "",
        "placeUrl": "http://place.map.daum.net/13323957",
        "id": "13323957",
        "title": "한양대학교 올림픽체육관",
        "category": "스포츠,레저 > 스포츠시설 > 체육관",
        "distance": "",
        "address": "서울 성동구 사근동 115-8",
        "longitude": "127.05000523493793",
        "latitude": "37.556524359483944",
        "addressBCode": "1120010600"
      },
      {
        "phone": "02-2290-8700",
        "newAddress": "서울 성동구 왕십리로 222",
        "imageUrl": "",
        "direction": "",
        "zipcode": "",
        "placeUrl": "http://place.map.daum.net/9588092",
        "id": "9588092",
        "title": "한양대학병원 심장내과백남심장센터",
        "category": "의료,건강 > 병원 > 내과",
        "distance": "",
        "address": "서울 성동구 행당동 17",
        "longitude": "127.04423518085689",
        "latitude": "37.559687360279696",
        "addressBCode": "1120010600"
      },
      {
        "phone": "02-2299-9999",
        "newAddress": "서울 성동구 마조로 22-2",
        "imageUrl": "http://cfile171.uf.daum.net/image/12630015C595551BD150DB",
        "direction": "",
        "zipcode": "133871",
        "placeUrl": "http://place.map.daum.net/10931903",
        "id": "10931903",
        "title": "한양대동문회관 예식부",
        "category": "가정,생활 > 결혼 > 예식장",
        "distance": "",
        "address": "서울 성동구 행당동 15-1 한양대학교 동문회관 예식부",
        "longitude": "127.04145991775847",
        "latitude": "37.559515376025026",
        "addressBCode": "1120010700"
      },
      {
        "phone": "02-6110-2091",
        "newAddress": "",
        "imageUrl": "",
        "direction": "",
        "zipcode": "",
        "placeUrl": "http://place.map.daum.net/21160585",
        "id": "21160585",
        "title": "한양대역 2호선",
        "category": "교통,수송 > 지하철,전철 > 수도권지하철2호선",
        "distance": "",
        "address": "서울 성동구 행당동",
        "longitude": "127.04363980276825",
        "latitude": "37.555715986040795",
        "addressBCode": "1120010700"
      },
      {
        "phone": "02-2294-2019",
        "newAddress": "서울 성동구 마조로 21",
        "imageUrl": "http://cfile75.uf.daum.net/image/195639394EE9929703996C",
        "direction": "",
        "zipcode": "133871",
        "placeUrl": "http://place.map.daum.net/15227565",
        "id": "15227565",
        "title": "LG유플러스 한양대직영점",
        "category": "서비스,산업 > 정보통신 > LG유플러스 > LGT대리점",
        "distance": "",
        "address": "서울 성동구 행당동 19-9 5호",
        "longitude": "127.04093943608731",
        "latitude": "37.559778648753664",
        "addressBCode": "1120010700"
      },
      {
        "phone": "02-2292-7537",
        "newAddress": "서울 성동구 마조로 22-2",
        "imageUrl": "http://cfile71.uf.daum.net/image/23760F4153421FF2267165",
        "direction": "",
        "zipcode": "133871",
        "placeUrl": "http://place.map.daum.net/9858498",
        "id": "9858498",
        "title": "신한은행 한양대학교지점",
        "category": "금융,보험 > 금융서비스 > 은행 > 신한은행",
        "distance": "",
        "address": "서울 성동구 행당동 15-1 한양대학교 동문회관",
        "longitude": "127.04141004698266",
        "latitude": "37.5593856499628",
        "addressBCode": "1120010700"
      },
      {
        "phone": "02-2290-8114",
        "newAddress": "서울 성동구 왕십리로 222",
        "imageUrl": "http://cfile172.uf.daum.net/image/123891174BC5658DAFDDDC",
        "direction": "",
        "zipcode": "",
        "placeUrl": "http://place.map.daum.net/11832779",
        "id": "11832779",
        "title": "한양대학교서울병원 류마티스병원",
        "category": "의료,건강 > 병원 > 대학병원",
        "distance": "",
        "address": "서울 성동구 행당동 17 동관 1층",
        "longitude": "127.04488270731142",
        "latitude": "37.55991777111088",
        "addressBCode": "1120010600"
      }
    ],
    "info": {
      "samename": {
        "keyword": "한양대학교",
        "selected_region": ""
      },
      "count": "15",
      "page": "1",
      "totalCount": "45"
    }
  }
}