{"itemList":[{"phone":"064-745-5008","newAddress":"제주특별자치도 제주시 서해안로 452","imageUrl":"http://cfile85.uf.daum.net/image/1867EB344DBE9F223C4199","direction":"","zipcode":"","placeUrl":"http://place.map.daum.net/13143043","id":"13143043","title":"닐모리동동","category":"음식점 \u003e 카페","distance":"","address":"제주특별자치도 제주시 용담3동 2396 오다펜션 1층","longitude":"126.4878798000755","latitude":"33.51783462894779","addressBCode":"5011011000"},{"phone":"064-751-8686","newAddress":"제주특별자치도 제주시 동한두기길 35","imageUrl":"http://cfile172.uf.daum.net/image/197ABD254B2060F10BEEEF","direction":"","zipcode":"","placeUrl":"http://place.map.daum.net/9285318","id":"9285318","title":"용연횟집","category":"음식점 \u003e 한식 \u003e 해물,생선 \u003e 회","distance":"","address":"제주특별자치도 제주시 용담1동 408","longitude":"126.5151796083341","latitude":"33.516512762387975","addressBCode":"5011010800"},{"phone":"064-745-3000","newAddress":"제주특별자치도 제주시 선덕로5길 20","imageUrl":"","direction":"","zipcode":"","placeUrl":"http://place.map.daum.net/7919123","id":"7919123","title":"삼성혈해물탕","category":"음식점 \u003e 한식 \u003e 해물,생선 \u003e 매운탕,해물탕","distance":"","address":"제주특별자치도 제주시 연동 312-27","longitude":"126.49970660705148","latitude":"33.48796458234438","addressBCode":"5011013700"},{"phone":"064-727-1112","newAddress":"제주특별자치도 제주시 삼성로 67","imageUrl":"http://cfile75.uf.daum.net/image/18196A494F6BD10B2F2636","direction":"","zipcode":"690834","placeUrl":"http://place.map.daum.net/9368523","id":"9368523","title":"자매국수","category":"음식점 \u003e 한식 \u003e 국수","distance":"","address":"제주특별자치도 제주시 일도2동 1034-10","longitude":"126.53234756085558","latitude":"33.508092992375914","addressBCode":"5011010200"},{"phone":"064-742-9899","newAddress":"제주특별자치도 제주시 어영길 10-6","imageUrl":"http://cfile174.uf.daum.net/image/2074CE464F6AE165170FD2","direction":"","zipcode":"","placeUrl":"http://place.map.daum.net/18184963","id":"18184963","title":"오로섬","category":"음식점 \u003e 한식 \u003e 해물,생선 \u003e 회","distance":"","address":"제주특별자치도 제주시 용담3동 2317","longitude":"126.49333612866985","latitude":"33.51909043902739","addressBCode":"5011011000"},{"phone":"064-742-7355","newAddress":"제주특별자치도 제주시 제원길 17","imageUrl":"http://cfile172.uf.daum.net/image/15671D1B4C60D21B2E4D99","direction":"","zipcode":"","placeUrl":"http://place.map.daum.net/8025234","id":"8025234","title":"올래국수","category":"음식점 \u003e 한식 \u003e 국수","distance":"","address":"제주특별자치도 제주시 연동 261-16 1층","longitude":"126.48947818044034","latitude":"33.48832678089529","addressBCode":"5011013700"},{"phone":"064-748-0890","newAddress":"제주특별자치도 제주시 연북로 146","imageUrl":"http://cfile174.uf.daum.net/image/182D1E594D82EFFF19EE9A","direction":"","zipcode":"","placeUrl":"http://place.map.daum.net/10678894","id":"10678894","title":"유리네","category":"음식점 \u003e 한식","distance":"","address":"제주특별자치도 제주시 연동 427-1","longitude":"126.49718805897457","latitude":"33.481383579828574","addressBCode":"5011013700"},{"phone":"064-759-1144","newAddress":"제주특별자치도 제주시 삼성로 41","imageUrl":"http://cfile140.uf.daum.net/image/2169F64E54509E900ECB1C","direction":"","zipcode":"","placeUrl":"http://place.map.daum.net/7918005","id":"7918005","title":"국수회관 본점","category":"음식점 \u003e 한식 \u003e 국수","distance":"","address":"제주특별자치도 제주시 일도2동 1045-12 1층","longitude":"126.53005059040937","latitude":"33.50694468908277","addressBCode":"5011010200"},{"phone":"064-782-0005","newAddress":"제주특별자치도 제주시 조천읍 선교로 117","imageUrl":"http://cfile4.uf.daum.net/image/1850DD4A4EF960CC034D49","direction":"","zipcode":"695967","placeUrl":"http://place.map.daum.net/11328953","id":"11328953","title":"다희연 동굴의다원","category":"음식점 \u003e 카페","distance":"","address":"제주특별자치도 제주시 조천읍 선흘리 600","longitude":"126.70697595264188","latitude":"33.486539893380225","addressBCode":"5011025930"},{"phone":"064-747-0088","newAddress":"제주특별자치도 제주시 한라대학로 11","imageUrl":"","direction":"","zipcode":"","placeUrl":"http://place.map.daum.net/10105733","id":"10105733","title":"흑돈가","category":"음식점 \u003e 한식 \u003e 육류,고기 \u003e 갈비","distance":"","address":"제주특별자치도 제주시 노형동 1509","longitude":"126.47355202878418","latitude":"33.4800051743645","addressBCode":"5011012200"},{"phone":"02-717-1922","newAddress":"서울 마포구 숭문길 26","imageUrl":"http://cfile174.uf.daum.net/image/12527B344F617001308CF1","direction":"","zipcode":"","placeUrl":"http://place.map.daum.net/8541556","id":"8541556","title":"을밀대평양냉면","category":"음식점 \u003e 한식 \u003e 냉면","distance":"","address":"서울 마포구 염리동 147-6","longitude":"126.94552867809068","latitude":"37.54747275896554","addressBCode":"1144010900"},{"phone":"02-753-7728","newAddress":"서울 중구 남대문시장4길 41-6","imageUrl":"http://cfile147.uf.daum.net/image/02062A03792A28F10CE0B5","direction":"","zipcode":"","placeUrl":"http://place.map.daum.net/7914330","id":"7914330","title":"부원면옥","category":"음식점 \u003e 한식 \u003e 냉면","distance":"","address":"서울 중구 남창동 47-10 부원상가 2층","longitude":"126.97760436584642","latitude":"37.55842131490787","addressBCode":"1114011200"},{"phone":"02-2265-0151","newAddress":"서울 중구 창경궁로 62-29","imageUrl":"http://cfile85.uf.daum.net/image/26408A3652283456221590","direction":"","zipcode":"","placeUrl":"http://place.map.daum.net/8025375","id":"8025375","title":"우래옥 을지로점","category":"음식점 \u003e 한식 \u003e 육류,고기","distance":"","address":"서울 중구 주교동 118-1","longitude":"126.9987367701819","latitude":"37.568190233616036","addressBCode":"1114015200"},{"phone":"054-772-2448","newAddress":"경북 경주시 원효로 109-2","imageUrl":"http://cfile73.uf.daum.net/image/18595F014BA06D0F0DB774","direction":"","zipcode":"","placeUrl":"http://place.map.daum.net/10035980","id":"10035980","title":"평양냉면","category":"음식점 \u003e 한식 \u003e 냉면","distance":"","address":"경북 경주시 노동동 81-1","longitude":"129.21302676564886","latitude":"35.8423469315155","addressBCode":"4713010600"},{"phone":"031-826-4231","newAddress":"경기 양주시 장흥면 호국로 515","imageUrl":"http://cfile180.uf.daum.net/image/01062A0379C5EAB2C87D25","direction":"","zipcode":"","placeUrl":"http://place.map.daum.net/15305287","id":"15305287","title":"평양면옥","category":"음식점 \u003e 한식 \u003e 냉면","distance":"","address":"경기 양주시 장흥면 교현리 115-9","longitude":"126.9716135555428","latitude":"37.71706186510873","addressBCode":"4163034021"},{"phone":"02-457-8319","newAddress":"서울 광진구 자양로 199-1","imageUrl":"http://cfile121.uf.daum.net/image/03062A03790262B1163B30","direction":"","zipcode":"","placeUrl":"http://place.map.daum.net/7939102","id":"7939102","title":"서북면옥","category":"음식점 \u003e 한식 \u003e 냉면","distance":"","address":"서울 광진구 구의동 80-47","longitude":"127.08534387836036","latitude":"37.54539660029566","addressBCode":"1121510300"},{"phone":"02-900-9900","newAddress":"서울 도봉구 노해로 327","imageUrl":"http://cfile138.uf.daum.net/image/131DA03D4FA240D7074D78","direction":"","zipcode":"","placeUrl":"http://place.map.daum.net/14701954","id":"14701954","title":"하누소 창동본점","category":"음식점 \u003e 한식 \u003e 육류,고기","distance":"","address":"서울 도봉구 창동 337-1 5층","longitude":"127.04480177082206","latitude":"37.65147639391353","addressBCode":"1132010700"},{"phone":"02-2683-2612","newAddress":"경기 광명시 목감로268번길 27-1","imageUrl":"http://cfile185.uf.daum.net/image/2241544C532A72EC1FBB29","direction":"","zipcode":"","placeUrl":"http://place.map.daum.net/17418077","id":"17418077","title":"정인면옥평양냉면","category":"음식점 \u003e 한식 \u003e 냉면","distance":"","address":"경기 광명시 광명2동 91-10","longitude":"126.85670285372589","latitude":"37.48293701015693","addressBCode":"4121010100"},{"phone":"031-908-6660","newAddress":"경기 고양시 일산동구 백마로 461","imageUrl":"http://cfile188.uf.daum.net/image/166F00504FC8501131DA49","direction":"","zipcode":"","placeUrl":"http://place.map.daum.net/12741404","id":"12741404","title":"평양냉면대동관","category":"음식점 \u003e 한식 \u003e 냉면","distance":"","address":"경기 고양시 일산동구 풍동 837","longitude":"126.79915767056467","latitude":"37.66175810325274","addressBCode":"4128510700"},{"phone":"02-2267-9500","newAddress":"서울 중구 마른내로 108","imageUrl":"http://cfile174.uf.daum.net/image/184B7B334F5D4AB808E9DE","direction":"","zipcode":"","placeUrl":"http://place.map.daum.net/20747449","id":"20747449","title":"오장동함흥냉면","category":"음식점 \u003e 한식 \u003e 냉면","distance":"","address":"서울 중구 오장동 90-10","longitude":"126.99987775834315","latitude":"37.56427991769323","addressBCode":"1114015400"},{"phone":"02-2678-2722","newAddress":"서울 영등포구 영등포로42길 6","imageUrl":"http://cfile125.uf.daum.net/image/02062A0378FC2773D7793C","direction":"","zipcode":"","placeUrl":"http://place.map.daum.net/10643743","id":"10643743","title":"함흥냉면","category":"음식점 \u003e 한식 \u003e 냉면","distance":"","address":"서울 영등포구 영등포동3가 7-32","longitude":"126.90679058226365","latitude":"37.518966099343665","addressBCode":"1156010400"},{"phone":"033-636-9999","newAddress":"강원 속초시 청초호반로 302","imageUrl":"http://cfile174.uf.daum.net/image/16147B4A4F5EB5FF0A3E37","direction":"","zipcode":"217807","placeUrl":"http://place.map.daum.net/10063571","id":"10063571","title":"양반댁함흥냉면","category":"음식점 \u003e 한식 \u003e 냉면","distance":"","address":"강원 속초시 금호동 482-329","longitude":"128.59027825946893","latitude":"38.20173535104328","addressBCode":"4221010400"},{"phone":"02-2267-6922","newAddress":"서울 종로구 창경궁로 109","imageUrl":"","direction":"","zipcode":"","placeUrl":"http://place.map.daum.net/8146505","id":"8146505","title":"함흥곰보냉면","category":"음식점 \u003e 한식 \u003e 냉면","distance":"","address":"서울 종로구 인의동 112-14 세운스퀘어 라이프관 4층 401호","longitude":"126.99702516236073","latitude":"37.57158875767688","addressBCode":"1111015700"},{"phone":"031-772-5145","newAddress":"경기 양평군 옥천면 북부길 18","imageUrl":"http://cfile171.uf.daum.net/image/116CCF3C4F62EB802E7EA9","direction":"","zipcode":"476831","placeUrl":"http://place.map.daum.net/10625125","id":"10625125","title":"옥천함흥냉면 본점","category":"음식점 \u003e 한식 \u003e 냉면","distance":"","address":"경기 양평군 옥천면 옥천리 559-2","longitude":"127.46151805517044","latitude":"37.51993922163393","addressBCode":"4183034021"},{"phone":"02-776-8430","newAddress":"서울 중구 명동10길 35-19","imageUrl":"http://cfile3.uf.daum.net/image/136F2E474F42E92F15E1B3","direction":"","zipcode":"100809","placeUrl":"http://place.map.daum.net/7871208","id":"7871208","title":"명동함흥면옥 본점","category":"음식점 \u003e 한식 \u003e 냉면","distance":"","address":"서울 중구 명동2가 26-1","longitude":"126.98568896027695","latitude":"37.56276898042759","addressBCode":"1114012700"},{"phone":"031-708-8787","newAddress":"경기 성남시 분당구 장미로100번길 14","imageUrl":"http://cfile187.uf.daum.net/image/1876233E4F546FA7285E7E","direction":"","zipcode":"","placeUrl":"http://place.map.daum.net/8099064","id":"8099064","title":"최고집함흥냉면","category":"음식점 \u003e 한식 \u003e 냉면","distance":"","address":"경기 성남시 분당구 야탑동 375-15","longitude":"127.13179423503199","latitude":"37.412188404002734","addressBCode":"4113510700"},{"phone":"051-556-2020","newAddress":"부산 동래구 충렬대로 213","imageUrl":"http://cfile74.uf.daum.net/image/191099364F66D6EC1782EC","direction":"","zipcode":"","placeUrl":"http://place.map.daum.net/8147361","id":"8147361","title":"함흥냉면전문점 동래본점","category":"음식점 \u003e 한식 \u003e 냉면","distance":"","address":"부산 동래구 명륜동 433-7","longitude":"129.08305429003474","latitude":"35.20262300423197","addressBCode":"2626010700"},{"phone":"02-334-3545","newAddress":"서울 서대문구 연희맛로 6","imageUrl":"http://cfile171.uf.daum.net/image/2044FD434F618C2129BCD8","direction":"","zipcode":"","placeUrl":"http://place.map.daum.net/8088062","id":"8088062","title":"청송함흥냉면전문점 본관","category":"음식점 \u003e 한식 \u003e 냉면","distance":"","address":"서울 서대문구 연희동 193-6","longitude":"126.92879947685383","latitude":"37.56591267685635","addressBCode":"1141011700"},{"phone":"052-249-5836","newAddress":"울산 중구 명정4길 13","imageUrl":"http://cfile172.uf.daum.net/image/18215A184BEB87D20A54E7","direction":"","zipcode":"","placeUrl":"http://place.map.daum.net/8267651","id":"8267651","title":"대일함흥냉면","category":"음식점 \u003e 한식 \u003e 냉면","distance":"","address":"울산 중구 태화동 795-6","longitude":"129.29157856906926","latitude":"35.5536813192399","addressBCode":"3111011100"},{"phone":"033-632-7828","newAddress":"강원 속초시 아바이마을길 17","imageUrl":"http://cfile171.uf.daum.net/image/122061154CC90F1E4CDCA2","direction":"","zipcode":"","placeUrl":"http://place.map.daum.net/9703855","id":"9703855","title":"단천식당","category":"음식점 \u003e 한식","distance":"","address":"강원 속초시 청호동 842","longitude":"128.59375832231603","latitude":"38.20259977517895","addressBCode":"4221010900"},{"phone":"070-7017-0336","newAddress":"서울 강북구 도봉로 342","imageUrl":"http://cfile71.uf.daum.net/image/2625343753B35744295C91","direction":"","zipcode":"","placeUrl":"http://place.map.daum.net/7862195","id":"7862195","title":"맥도날드 수유점","category":"음식점 \u003e 패스트푸드 \u003e 맥도날드","distance":"","address":"서울 강북구 번1동 418-18","longitude":"127.02605408556866","latitude":"37.63792041353573","addressBCode":"1130510200"},{"phone":"070-7017-0307","newAddress":"서울 동작구 노량진로 158","imageUrl":"http://cfile71.uf.daum.net/image/2625343753B35744295C91","direction":"","zipcode":"","placeUrl":"http://place.map.daum.net/10347172","id":"10347172","title":"맥도날드 노량진점","category":"음식점 \u003e 패스트푸드 \u003e 맥도날드","distance":"","address":"서울 동작구 노량진동 100-1","longitude":"126.94358082132135","latitude":"37.51339236897855","addressBCode":"1159010100"},{"phone":"02-790-6413","newAddress":"서울 용산구 이태원로 142-1","imageUrl":"http://cfile73.uf.daum.net/image/1828F1494D9412CA259E55","direction":"","zipcode":"","placeUrl":"http://place.map.daum.net/10346960","id":"10346960","title":"맥도날드 이태원점","category":"음식점 \u003e 패스트푸드 \u003e 맥도날드","distance":"","address":"서울 용산구 이태원동 56-21","longitude":"126.98972680913194","latitude":"37.53395185758038","addressBCode":"1117013000"},{"phone":"070-7017-6404","newAddress":"서울 중구 명동7길 8","imageUrl":"http://cfile71.uf.daum.net/image/2625343753B35744295C91","direction":"","zipcode":"","placeUrl":"http://place.map.daum.net/12674579","id":"12674579","title":"맥도날드 명동점","category":"음식점 \u003e 패스트푸드 \u003e 맥도날드","distance":"","address":"서울 중구 명동1가 48-2 1층","longitude":"126.9845387137647","latitude":"37.56418520175283","addressBCode":"1114012600"},{"phone":"070-7017-0493","newAddress":"","imageUrl":"http://cfile71.uf.daum.net/image/2625343753B35744295C91","direction":"","zipcode":"","placeUrl":"http://place.map.daum.net/7869635","id":"7869635","title":"맥도날드 청담DT점","category":"음식점 \u003e 패스트푸드 \u003e 맥도날드","distance":"","address":"서울 강남구 청담동 87-2","longitude":"127.04027715512571","latitude":"37.52368843314692","addressBCode":"1168010400"},{"phone":"070-7017-0471","newAddress":"서울 성동구 왕십리로 321","imageUrl":"http://cfile71.uf.daum.net/image/2625343753B35744295C91","direction":"","zipcode":"","placeUrl":"http://place.map.daum.net/10350112","id":"10350112","title":"맥도날드 왕십리점","category":"음식점 \u003e 패스트푸드 \u003e 맥도날드","distance":"","address":"서울 성동구 행당동 286-3","longitude":"127.03359287705176","latitude":"37.5621848269246","addressBCode":"1120010700"},{"phone":"070-7017-0636","newAddress":"서울 서대문구 신촌로 99","imageUrl":"http://cfile71.uf.daum.net/image/2625343753B35744295C91","direction":"","zipcode":"","placeUrl":"http://place.map.daum.net/8331017","id":"8331017","title":"맥도날드 신촌점","category":"음식점 \u003e 패스트푸드 \u003e 맥도날드","distance":"","address":"서울 서대문구 창천동 18-50","longitude":"126.9372338977365","latitude":"37.55563889198499","addressBCode":"1141011600"},{"phone":"070-7017-0439","newAddress":"서울 광진구 아차산로 376","imageUrl":"http://cfile71.uf.daum.net/image/2625343753B35744295C91","direction":"","zipcode":"","placeUrl":"http://place.map.daum.net/8349863","id":"8349863","title":"맥도날드 구의역점","category":"음식점 \u003e 패스트푸드 \u003e 맥도날드","distance":"","address":"서울 광진구 자양동 216-11","longitude":"127.0845009313363","latitude":"37.536444874369586","addressBCode":"1121510500"},{"phone":"070-7017-0374","newAddress":"서울 관악구 신림로 310","imageUrl":"http://cfile71.uf.daum.net/image/2625343753B35744295C91","direction":"","zipcode":"","placeUrl":"http://place.map.daum.net/7862103","id":"7862103","title":"맥도날드 신림점","category":"음식점 \u003e 패스트푸드 \u003e 맥도날드","distance":"","address":"서울 관악구 신림동 1641-22","longitude":"126.93018622911923","latitude":"37.481947299486286","addressBCode":"1162010200"},{"phone":"070-7017-1389","newAddress":"서울 서초구 강남대로 305","imageUrl":"http://cfile71.uf.daum.net/image/2625343753B35744295C91","direction":"","zipcode":"","placeUrl":"http://place.map.daum.net/12119340","id":"12119340","title":"맥도날드 서초뱅뱅점","category":"음식점 \u003e 패스트푸드 \u003e 맥도날드","distance":"","address":"서울 서초구 서초동 1338-20 현대렉시온 101호","longitude":"127.03086034596073","latitude":"37.49010180130369","addressBCode":"1165010800"},{"phone":"070-7017-0423","newAddress":"서울 양천구 목동로 221","imageUrl":"http://cfile71.uf.daum.net/image/2625343753B35744295C91","direction":"","zipcode":"","placeUrl":"http://place.map.daum.net/8331009","id":"8331009","title":"맥도날드 목동점","category":"음식점 \u003e 패스트푸드 \u003e 맥도날드","distance":"","address":"서울 양천구 신정동 899-6","longitude":"126.86373013599562","latitude":"37.52815773544145","addressBCode":"1147010100"},{"phone":"070-7017-0326","newAddress":"서울 서초구 강남대로 213","imageUrl":"http://cfile71.uf.daum.net/image/2625343753B35744295C91","direction":"","zipcode":"","placeUrl":"http://place.map.daum.net/10349441","id":"10349441","title":"맥도날드 양재점","category":"음식점 \u003e 패스트푸드 \u003e 맥도날드","distance":"","address":"서울 서초구 양재동 24","longitude":"127.03581834767229","latitude":"37.48231929547488","addressBCode":"1165010200"},{"phone":"070-7017-0475","newAddress":"서울 양천구 목동동로 71","imageUrl":"http://cfile71.uf.daum.net/image/2625343753B35744295C91","direction":"","zipcode":"","placeUrl":"http://place.map.daum.net/7861130","id":"7861130","title":"맥도날드 양천구청DT점","category":"음식점 \u003e 패스트푸드 \u003e 맥도날드","distance":"","address":"서울 양천구 신정동 323-20","longitude":"126.86297042734365","latitude":"37.51549237067228","addressBCode":"1147010100"},{"phone":"070-7017-0367","newAddress":"서울 성북구 인촌로24길 42","imageUrl":"http://cfile71.uf.daum.net/image/2625343753B35744295C91","direction":"","zipcode":"","placeUrl":"http://place.map.daum.net/7862199","id":"7862199","title":"맥도날드 안암점","category":"음식점 \u003e 패스트푸드 \u003e 맥도날드","distance":"","address":"서울 성북구 안암동5가 102-33","longitude":"127.02934588337608","latitude":"37.584379264958365","addressBCode":"1129012500"},{"phone":"02-766-1782","newAddress":"서울 종로구 대학로 130","imageUrl":"http://cfile73.uf.daum.net/image/1828F1494D9412CA259E55","direction":"","zipcode":"","placeUrl":"http://place.map.daum.net/8291988","id":"8291988","title":"맥도날드 대학로점","category":"음식점 \u003e 패스트푸드 \u003e 맥도날드","distance":"","address":"서울 종로구 동숭동 1-34","longitude":"127.0021193827381","latitude":"37.5828908487697","addressBCode":"1111016800"}]}