[{"id":12140282,"name":"제주시민속오일시장","poiType":{"category":"쇼핑","subCategory":"시장","subSubCategory":""},"address":"제주특별자치도 제주시 도두1동 1212","location":{"longitude":126.47548451697298,"latitude":33.49723984667493},"score":1.5,"businessHours":{"businessHours":"06:00 ~ 19:00","closedDaySet":["끝자리 2, 7일만 영업"]},"costPerPerson":-1,"spendingTime":{"hour":1.0,"standardDeviation":0.05},"isRestaurant":false},{"id":15365415,"name":"한라마을쇼핑센터","poiType":{"category":"쇼핑","subCategory":"기념품","subSubCategory":""},"address":"제주특별자치도 제주시 용담3동 1042-1","location":{"longitude":126.50187226621088,"latitude":33.515705311594324},"score":5.0,"businessHours":{"businessHours":"08:00 ~ 18:30","closedDaySet":[]},"costPerPerson":-1,"spendingTime":{"hour":1.0,"standardDeviation":0.05},"isRestaurant":false},{"id":8265854,"name":"동문재래시장","poiType":{"category":"쇼핑","subCategory":"시장","subSubCategory":""},"address":"제주특별자치도 제주시 이도1동 1434","location":{"longitude":126.526011881406,"latitude":33.5118051071048},"score":1.5,"businessHours":{"businessHours":"08:00 ~ 21:00","closedDaySet":[]},"costPerPerson":-1,"spendingTime":{"hour":1.0,"standardDeviation":0.05},"isRestaurant":false},{"id":7938166,"name":"서귀포매일올레시장","poiType":{"category":"쇼핑","subCategory":"시장","subSubCategory":""},"address":"제주특별자치도 서귀포시 서귀동 277-1","location":{"longitude":126.56360439226366,"latitude":33.250273993066045},"score":2.8,"businessHours":{"businessHours":"07:00 ~ 20:00","closedDaySet":[]},"costPerPerson":-1,"spendingTime":{"hour":1.0,"standardDeviation":0.05},"isRestaurant":false},{"id":17600338,"name":"세화민속오일시장","poiType":{"category":"쇼핑","subCategory":"시장","subSubCategory":""},"address":"제주특별자치도 제주시 구좌읍 세화리 1500-5","location":{"longitude":126.85746336618229,"latitude":33.52591152793723},"score":5.0,"businessHours":{"businessHours":"10:30 ~ 17:00","closedDaySet":[]},"costPerPerson":-1,"spendingTime":{"hour":1.0,"standardDeviation":0.05},"isRestaurant":false}]