[{"id":25412000,"name":"젠하이드어웨이","poiType":{"category":"숙박","subCategory":"콘도,리조트","subSubCategory":""},"address":"제주특별자치도 서귀포시 안덕면 사계리 2032-7","location":{"longitude":126.30850396136724,"latitude":33.22929437906501},"score":3.0,"businessHours":{"businessHours":"00:00 ~ 24:00","closedDaySet":[]},"costPerPerson":-1,"spendingTime":{"hour":1.0,"standardDeviation":0.05},"isRestaurant":false},{"id":16261247,"name":"해비치호텔앤리조트 제주","poiType":{"category":"숙박","subCategory":"호텔","subSubCategory":""},"address":"제주특별자치도 서귀포시 표선면 표선리 40-76","location":{"longitude":126.84464240610346,"latitude":33.32128810678434},"score":3.0,"businessHours":{"businessHours":"00:00 ~ 24:00","closedDaySet":[]},"costPerPerson":-1,"spendingTime":{"hour":1.0,"standardDeviation":0.05},"isRestaurant":false},{"id":17833992,"name":"와이리조트제주","poiType":{"category":"숙박","subCategory":"콘도,리조트","subSubCategory":""},"address":"제주특별자치도 서귀포시 안덕면 화순리 1888","location":{"longitude":126.32782345273921,"latitude":33.24266862015211},"score":4.5,"businessHours":{"businessHours":"00:00 ~ 24:00","closedDaySet":[]},"costPerPerson":-1,"spendingTime":{"hour":1.0,"standardDeviation":0.05},"isRestaurant":false},{"id":23183577,"name":"롯데시티호텔 제주","poiType":{"category":"숙박","subCategory":"호텔","subSubCategory":"특급호텔"},"address":"제주특별자치도 제주시 연동 2324-6","location":{"longitude":126.48647805024612,"latitude":33.49069360896616},"score":3.2,"businessHours":{"businessHours":"00:00 ~ 24:00","closedDaySet":[]},"costPerPerson":-1,"spendingTime":{"hour":1.0,"standardDeviation":0.05},"isRestaurant":false},{"id":1096536260,"name":"수펜션","poiType":{"category":"숙박","subCategory":"펜션","subSubCategory":""},"address":"제주특별자치도 서귀포시 안덕면 창천리 967-1","location":{"longitude":126.366947461659,"latitude":33.2414689492293},"score":5.0,"businessHours":{"businessHours":"00:00 ~ 24:00","closedDaySet":[]},"costPerPerson":-1,"spendingTime":{"hour":1.0,"standardDeviation":0.05},"isRestaurant":false},{"id":8012335,"name":"올레리조트","poiType":{"category":"숙박","subCategory":"콘도,리조트","subSubCategory":""},"address":"제주특별자치도 제주시 애월읍 신엄리 2867-4","location":{"longitude":126.355502825109,"latitude":33.475838879684815},"score":4.1,"businessHours":{"businessHours":"00:00 ~ 24:00","closedDaySet":[]},"costPerPerson":-1,"spendingTime":{"hour":1.0,"standardDeviation":0.05},"isRestaurant":false},{"id":26567639,"name":"라마다앙코르 제주서귀포호텔","poiType":{"category":"숙박","subCategory":"호텔","subSubCategory":"특급호텔"},"address":"제주특별자치도 서귀포시 서호동 1524-7","location":{"longitude":126.51926311639312,"latitude":33.25447837767813},"score":4.0,"businessHours":{"businessHours":"00:00 ~ 24:00","closedDaySet":[]},"costPerPerson":-1,"spendingTime":{"hour":1.0,"standardDeviation":0.05},"isRestaurant":false},{"id":8016361,"name":"한화리조트 제주","poiType":{"category":"숙박","subCategory":"콘도,리조트","subSubCategory":"한화리조트"},"address":"제주특별자치도 제주시 회천동 3-16","location":{"longitude":126.6374775997212,"latitude":33.449019769067334},"score":3.4,"businessHours":{"businessHours":"00:00 ~ 24:00","closedDaySet":[]},"costPerPerson":-1,"spendingTime":{"hour":1.0,"standardDeviation":0.05},"isRestaurant":false},{"id":11379388,"name":"대명리조트 제주","poiType":{"category":"숙박","subCategory":"콘도,리조트","subSubCategory":"대명리조트"},"address":"제주특별자치도 제주시 조천읍 함덕리 274","location":{"longitude":126.67172082286355,"latitude":33.541402820794296},"score":4.3,"businessHours":{"businessHours":"00:00 ~ 24:00","closedDaySet":[]},"costPerPerson":-1,"spendingTime":{"hour":1.0,"standardDeviation":0.05},"isRestaurant":false},{"id":23114698,"name":"게스트하우스도치","poiType":{"category":"숙박","subCategory":"게스트하우스","subSubCategory":""},"address":"제주특별자치도 서귀포시 남원읍 위미리 2026-1","location":{"longitude":126.66410999299113,"latitude":33.2767965537011},"score":4.7,"businessHours":{"businessHours":"00:00 ~ 24:00","closedDaySet":[]},"costPerPerson":-1,"spendingTime":{"hour":1.0,"standardDeviation":0.05},"isRestaurant":false},{"id":23966650,"name":"오션스위츠 제주호텔","poiType":{"category":"숙박","subCategory":"호텔","subSubCategory":"특급호텔"},"address":"제주특별자치도 제주시 삼도2동 1260-1","location":{"longitude":126.523092662971,"latitude":33.5181374903152},"score":4.3,"businessHours":{"businessHours":"00:00 ~ 24:00","closedDaySet":[]},"costPerPerson":-1,"spendingTime":{"hour":1.0,"standardDeviation":0.05},"isRestaurant":false},{"id":8114804,"name":"가산토방","poiType":{"category":"숙박","subCategory":"펜션","subSubCategory":""},"address":"제주특별자치도 서귀포시 토평동 3077","location":{"longitude":126.577682890179,"latitude":33.2878050838875},"score":5.0,"businessHours":{"businessHours":"00:00 ~ 24:00","closedDaySet":[]},"costPerPerson":-1,"spendingTime":{"hour":1.0,"standardDeviation":0.05},"isRestaurant":false},{"id":23773741,"name":"켄싱턴제주호텔","poiType":{"category":"숙박","subCategory":"호텔","subSubCategory":""},"address":"제주특별자치도 서귀포시 색달동 2785","location":{"longitude":126.407993006382,"latitude":33.2525410375403},"score":4.0,"businessHours":{"businessHours":"00:00 ~ 24:00","closedDaySet":[]},"costPerPerson":-1,"spendingTime":{"hour":1.0,"standardDeviation":0.05},"isRestaurant":false},{"id":17805833,"name":"하이클래스제주","poiType":{"category":"숙박","subCategory":"콘도,리조트","subSubCategory":""},"address":"제주특별자치도 제주시 애월읍 애월리 2550","location":{"longitude":126.309138841633,"latitude":33.46391859655981},"score":1.5,"businessHours":{"businessHours":"00:00 ~ 24:00","closedDaySet":[]},"costPerPerson":-1,"spendingTime":{"hour":1.0,"standardDeviation":0.05},"isRestaurant":false},{"id":7967458,"name":"제주신라호텔","poiType":{"category":"숙박","subCategory":"호텔","subSubCategory":"특급호텔"},"address":"제주특별자치도 서귀포시 색달동 3039-3","location":{"longitude":126.408018489193,"latitude":33.2474884723283},"score":4.2,"businessHours":{"businessHours":"00:00 ~ 24:00","closedDaySet":[]},"costPerPerson":-1,"spendingTime":{"hour":1.0,"standardDeviation":0.05},"isRestaurant":false},{"id":22356594,"name":"스파벨리스","poiType":{"category":"숙박","subCategory":"펜션","subSubCategory":""},"address":"제주특별자치도 제주시 조천읍 와흘리 2160-3","location":{"longitude":126.623360040549,"latitude":33.4951352176308},"score":5.0,"businessHours":{"businessHours":"00:00 ~ 24:00","closedDaySet":[]},"costPerPerson":-1,"spendingTime":{"hour":1.0,"standardDeviation":0.05},"isRestaurant":false},{"id":12501795,"name":"포도호텔","poiType":{"category":"숙박","subCategory":"호텔","subSubCategory":""},"address":"제주특별자치도 서귀포시 안덕면 상천리 산 62-3","location":{"longitude":126.387456776353,"latitude":33.3178988308951},"score":4.2,"businessHours":{"businessHours":"00:00 ~ 24:00","closedDaySet":[]},"costPerPerson":-1,"spendingTime":{"hour":1.0,"standardDeviation":0.05},"isRestaurant":false},{"id":1340230571,"name":"호텔더본 제주","poiType":{"category":"숙박","subCategory":"호텔","subSubCategory":""},"address":"제주특별자치도 서귀포시 색달동 2138","location":{"longitude":126.40647375006562,"latitude":33.25954037346316},"score":5.0,"businessHours":{"businessHours":"00:00 ~ 24:00","closedDaySet":[]},"costPerPerson":-1,"spendingTime":{"hour":1.0,"standardDeviation":0.05},"isRestaurant":false},{"id":25982374,"name":"엠스테이호텔","poiType":{"category":"숙박","subCategory":"호텔","subSubCategory":""},"address":"제주특별자치도 서귀포시 서귀동 829-5","location":{"longitude":126.56073267251739,"latitude":33.24685298272},"score":2.9,"businessHours":{"businessHours":"00:00 ~ 24:00","closedDaySet":[]},"costPerPerson":-1,"spendingTime":{"hour":1.0,"standardDeviation":0.05},"isRestaurant":false},{"id":22730174,"name":"돈내코힐리조트","poiType":{"category":"숙박","subCategory":"콘도,리조트","subSubCategory":""},"address":"제주특별자치도 서귀포시 상효동 2200","location":{"longitude":126.57810002286377,"latitude":33.30263723801775},"score":1.5,"businessHours":{"businessHours":"00:00 ~ 24:00","closedDaySet":[]},"costPerPerson":-1,"spendingTime":{"hour":1.0,"standardDeviation":0.05},"isRestaurant":false},{"id":18224608,"name":"라림부띠끄호텔","poiType":{"category":"숙박","subCategory":"호텔","subSubCategory":""},"address":"제주특별자치도 서귀포시 안덕면 창천리 907-1","location":{"longitude":126.36294341477333,"latitude":33.23682382144859},"score":4.5,"businessHours":{"businessHours":"00:00 ~ 24:00","closedDaySet":[]},"costPerPerson":-1,"spendingTime":{"hour":1.0,"standardDeviation":0.05},"isRestaurant":false},{"id":24572915,"name":"켄싱턴리조트 서귀포점","poiType":{"category":"숙박","subCategory":"콘도,리조트","subSubCategory":"켄싱턴리조트"},"address":"제주특별자치도 서귀포시 강정동 2677","location":{"longitude":126.4890659685395,"latitude":33.23377539758734},"score":1.9,"businessHours":{"businessHours":"00:00 ~ 24:00","closedDaySet":[]},"costPerPerson":-1,"spendingTime":{"hour":1.0,"standardDeviation":0.05},"isRestaurant":false},{"id":17474700,"name":"귤낭하우스","poiType":{"category":"숙박","subCategory":"펜션","subSubCategory":""},"address":"제주특별자치도 서귀포시 법환동 94-3","location":{"longitude":126.52192924069944,"latitude":33.243384276224546},"score":4.7,"businessHours":{"businessHours":"00:00 ~ 24:00","closedDaySet":[]},"costPerPerson":-1,"spendingTime":{"hour":1.0,"standardDeviation":0.05},"isRestaurant":false},{"id":27386976,"name":"호텔 리젠트마린 더 블루","poiType":{"category":"숙박","subCategory":"호텔","subSubCategory":""},"address":"제주특별자치도 제주시 건입동 1443","location":{"longitude":126.52675218504842,"latitude":33.51741876873599},"score":3.0,"businessHours":{"businessHours":"00:00 ~ 24:00","closedDaySet":[]},"costPerPerson":-1,"spendingTime":{"hour":1.0,"standardDeviation":0.05},"isRestaurant":false},{"id":19851012,"name":"협재게스트하우스 1호점","poiType":{"category":"숙박","subCategory":"게스트하우스","subSubCategory":""},"address":"제주특별자치도 제주시 한림읍 협재리 1728","location":{"longitude":126.24216431970345,"latitude":33.39555468412357},"score":5.0,"businessHours":{"businessHours":"00:00 ~ 24:00","closedDaySet":[]},"costPerPerson":-1,"spendingTime":{"hour":1.0,"standardDeviation":0.05},"isRestaurant":false},{"id":26621840,"name":"베스트웨스턴제주호텔","poiType":{"category":"숙박","subCategory":"호텔","subSubCategory":""},"address":"제주특별자치도 제주시 노형동 1295-16","location":{"longitude":126.48184671425292,"latitude":33.48782887101376},"score":4.0,"businessHours":{"businessHours":"00:00 ~ 24:00","closedDaySet":[]},"costPerPerson":-1,"spendingTime":{"hour":1.0,"standardDeviation":0.05},"isRestaurant":false},{"id":26486737,"name":"제주나인부띠끄","poiType":{"category":"숙박","subCategory":"호텔","subSubCategory":""},"address":"제주특별자치도 서귀포시 서귀동 644-1","location":{"longitude":126.56264238544225,"latitude":33.24261487225107},"score":5.0,"businessHours":{"businessHours":"00:00 ~ 24:00","closedDaySet":[]},"costPerPerson":-1,"spendingTime":{"hour":1.0,"standardDeviation":0.05},"isRestaurant":false},{"id":27334570,"name":"레드우드하우스","poiType":{"category":"숙박","subCategory":"게스트하우스","subSubCategory":""},"address":"제주특별자치도 제주시 구좌읍 종달리 1075","location":{"longitude":126.90209862295589,"latitude":33.49568327163733},"score":5.0,"businessHours":{"businessHours":"00:00 ~ 24:00","closedDaySet":[]},"costPerPerson":-1,"spendingTime":{"hour":1.0,"standardDeviation":0.05},"isRestaurant":false},{"id":8656377,"name":"대명샤인빌리조트","poiType":{"category":"숙박","subCategory":"콘도,리조트","subSubCategory":""},"address":"제주특별자치도 서귀포시 표선면 토산리 17","location":{"longitude":126.792027926523,"latitude":33.3055841291759},"score":4.0,"businessHours":{"businessHours":"00:00 ~ 24:00","closedDaySet":[]},"costPerPerson":-1,"spendingTime":{"hour":1.0,"standardDeviation":0.05},"isRestaurant":false},{"id":567379794,"name":"아이미 제주비치호텔","poiType":{"category":"숙박","subCategory":"호텔","subSubCategory":""},"address":"제주특별자치도 제주시 조천읍 함덕리 1010","location":{"longitude":126.66341882171156,"latitude":33.54329541677684},"score":4.0,"businessHours":{"businessHours":"00:00 ~ 24:00","closedDaySet":[]},"costPerPerson":-1,"spendingTime":{"hour":1.0,"standardDeviation":0.05},"isRestaurant":false},{"id":26969908,"name":"플레이스캠프제주","poiType":{"category":"숙박","subCategory":"호텔","subSubCategory":""},"address":"제주특별자치도 서귀포시 성산읍 고성리 297-1","location":{"longitude":126.91822621006078,"latitude":33.44994521808299},"score":5.0,"businessHours":{"businessHours":"00:00 ~ 24:00","closedDaySet":[]},"costPerPerson":-1,"spendingTime":{"hour":1.0,"standardDeviation":0.05},"isRestaurant":false},{"id":1220460107,"name":"히든 클리프 호텔 앤 네이쳐","poiType":{"category":"숙박","subCategory":"호텔","subSubCategory":""},"address":"제주특별자치도 서귀포시 상예동 625","location":{"longitude":126.40259558482427,"latitude":33.254775653487734},"score":5.0,"businessHours":{"businessHours":"00:00 ~ 24:00","closedDaySet":[]},"costPerPerson":-1,"spendingTime":{"hour":1.0,"standardDeviation":0.05},"isRestaurant":false},{"id":8177478,"name":"휘닉스제주 섭지코지","poiType":{"category":"숙박","subCategory":"콘도,리조트","subSubCategory":""},"address":"제주특별자치도 서귀포시 성산읍 고성리 127-2","location":{"longitude":126.928186733817,"latitude":33.4304968356285},"score":3.6,"businessHours":{"businessHours":"00:00 ~ 24:00","closedDaySet":[]},"costPerPerson":-1,"spendingTime":{"hour":1.0,"standardDeviation":0.05},"isRestaurant":false},{"id":16434989,"name":"금호리조트 제주","poiType":{"category":"숙박","subCategory":"콘도,리조트","subSubCategory":"금호리조트"},"address":"제주특별자치도 서귀포시 남원읍 남원리 2390","location":{"longitude":126.70182845980202,"latitude":33.27333712355433},"score":4.0,"businessHours":{"businessHours":"00:00 ~ 24:00","closedDaySet":[]},"costPerPerson":-1,"spendingTime":{"hour":1.0,"standardDeviation":0.05},"isRestaurant":false},{"id":8341593,"name":"라임오렌지빌","poiType":{"category":"숙박","subCategory":"펜션","subSubCategory":""},"address":"제주특별자치도 서귀포시 토평동 416","location":{"longitude":126.58727864950819,"latitude":33.246139936271334},"score":3.1,"businessHours":{"businessHours":"00:00 ~ 24:00","closedDaySet":[]},"costPerPerson":-1,"spendingTime":{"hour":1.0,"standardDeviation":0.05},"isRestaurant":false},{"id":10594509,"name":"씨에스호텔앤리조트","poiType":{"category":"숙박","subCategory":"호텔","subSubCategory":""},"address":"제주특별자치도 서귀포시 중문동 2654-2","location":{"longitude":126.41971481870141,"latitude":33.24299159622767},"score":1.5,"businessHours":{"businessHours":"00:00 ~ 24:00","closedDaySet":[]},"costPerPerson":-1,"spendingTime":{"hour":1.0,"standardDeviation":0.05},"isRestaurant":false},{"id":25741593,"name":"그라벨호텔제주","poiType":{"category":"숙박","subCategory":"호텔","subSubCategory":"특급호텔"},"address":"제주특별자치도 제주시 외도1동 401-8","location":{"longitude":126.42870139401799,"latitude":33.492405552610265},"score":4.0,"businessHours":{"businessHours":"00:00 ~ 24:00","closedDaySet":[]},"costPerPerson":-1,"spendingTime":{"hour":1.0,"standardDeviation":0.05},"isRestaurant":false},{"id":10500084,"name":"서귀포KAL호텔","poiType":{"category":"숙박","subCategory":"호텔","subSubCategory":"특급호텔"},"address":"제주특별자치도 서귀포시 토평동 486-3","location":{"longitude":126.58176154876747,"latitude":33.24650373762362},"score":3.3,"businessHours":{"businessHours":"00:00 ~ 24:00","closedDaySet":[]},"costPerPerson":-1,"spendingTime":{"hour":1.0,"standardDeviation":0.05},"isRestaurant":false},{"id":305310523,"name":"라마다제주함덕호텔","poiType":{"category":"숙박","subCategory":"호텔","subSubCategory":"특급호텔"},"address":"제주특별자치도 제주시 조천읍 함덕리 3061","location":{"longitude":126.6597283395432,"latitude":33.54319152533285},"score":3.0,"businessHours":{"businessHours":"00:00 ~ 24:00","closedDaySet":[]},"costPerPerson":-1,"spendingTime":{"hour":1.0,"standardDeviation":0.05},"isRestaurant":false},{"id":7862728,"name":"롯데호텔앤리조트 제주","poiType":{"category":"숙박","subCategory":"호텔","subSubCategory":"특급호텔"},"address":"제주특별자치도 서귀포시 색달동 2812-4","location":{"longitude":126.41060066949683,"latitude":33.24845572956872},"score":4.9,"businessHours":{"businessHours":"00:00 ~ 24:00","closedDaySet":[]},"costPerPerson":-1,"spendingTime":{"hour":1.0,"standardDeviation":0.05},"isRestaurant":false},{"id":15292731,"name":"라마다프라자제주호텔","poiType":{"category":"숙박","subCategory":"호텔","subSubCategory":"특급호텔"},"address":"제주특별자치도 제주시 삼도2동 1254","location":{"longitude":126.51787970118885,"latitude":33.51878011286861},"score":4.5,"businessHours":{"businessHours":"00:00 ~ 24:00","closedDaySet":[]},"costPerPerson":-1,"spendingTime":{"hour":1.0,"standardDeviation":0.05},"isRestaurant":false},{"id":25118864,"name":"루스톤빌라앤호텔","poiType":{"category":"숙박","subCategory":"호텔","subSubCategory":"특급호텔"},"address":"제주특별자치도 제주시 애월읍 고내리 77","location":{"longitude":126.35228275413448,"latitude":33.47195607893957},"score":1.5,"businessHours":{"businessHours":"00:00 ~ 24:00","closedDaySet":[]},"costPerPerson":-1,"spendingTime":{"hour":1.0,"standardDeviation":0.05},"isRestaurant":false},{"id":8067669,"name":"메종글래드제주","poiType":{"category":"숙박","subCategory":"호텔","subSubCategory":"특급호텔"},"address":"제주특별자치도 제주시 연동 263-15","location":{"longitude":126.48852429342276,"latitude":33.485278140251786},"score":3.4,"businessHours":{"businessHours":"00:00 ~ 24:00","closedDaySet":[]},"costPerPerson":-1,"spendingTime":{"hour":1.0,"standardDeviation":0.05},"isRestaurant":false},{"id":24119779,"name":"백패커스홈","poiType":{"category":"숙박","subCategory":"게스트하우스","subSubCategory":""},"address":"제주특별자치도 서귀포시 서귀동 315-2","location":{"longitude":126.55899229765785,"latitude":33.24726155358264},"score":4.0,"businessHours":{"businessHours":"00:00 ~ 24:00","closedDaySet":[]},"costPerPerson":-1,"spendingTime":{"hour":1.0,"standardDeviation":0.05},"isRestaurant":false},{"id":8338148,"name":"미도호스텔","poiType":{"category":"숙박","subCategory":"게스트하우스","subSubCategory":""},"address":"제주특별자치도 서귀포시 서귀동 258-2","location":{"longitude":126.566365397028,"latitude":33.2500636528517},"score":4.9,"businessHours":{"businessHours":"00:00 ~ 24:00","closedDaySet":[]},"costPerPerson":-1,"spendingTime":{"hour":1.0,"standardDeviation":0.05},"isRestaurant":false},{"id":740192410,"name":"유탑유블레스호텔 제주","poiType":{"category":"숙박","subCategory":"호텔","subSubCategory":""},"address":"제주특별자치도 제주시 조천읍 함덕리 1269-9","location":{"longitude":126.6662776096031,"latitude":33.542412416295},"score":4.4,"businessHours":{"businessHours":"00:00 ~ 24:00","closedDaySet":[]},"costPerPerson":-1,"spendingTime":{"hour":1.0,"standardDeviation":0.05},"isRestaurant":false},{"id":8326403,"name":"봄그리고가을리조트","poiType":{"category":"숙박","subCategory":"콘도,리조트","subSubCategory":""},"address":"제주특별자치도 서귀포시 성산읍 시흥리 205","location":{"longitude":126.91048410311181,"latitude":33.4746390944326},"score":4.2,"businessHours":{"businessHours":"00:00 ~ 24:00","closedDaySet":[]},"costPerPerson":-1,"spendingTime":{"hour":1.0,"standardDeviation":0.05},"isRestaurant":false},{"id":613255397,"name":"자연in 펜션글램핑","poiType":{"category":"숙박","subCategory":"펜션","subSubCategory":""},"address":"제주특별자치도 제주시 아라1동 2082-1","location":{"longitude":126.5399441224219,"latitude":33.46871783482164},"score":5.0,"businessHours":{"businessHours":"00:00 ~ 24:00","closedDaySet":[]},"costPerPerson":-1,"spendingTime":{"hour":1.0,"standardDeviation":0.05},"isRestaurant":false},{"id":26942433,"name":"아리게스트하우스","poiType":{"category":"숙박","subCategory":"게스트하우스","subSubCategory":""},"address":"제주특별자치도 서귀포시 안덕면 사계리 230","location":{"longitude":126.308481723936,"latitude":33.2357803986175},"score":3.0,"businessHours":{"businessHours":"00:00 ~ 24:00","closedDaySet":[]},"costPerPerson":-1,"spendingTime":{"hour":1.0,"standardDeviation":0.05},"isRestaurant":false},{"id":396315142,"name":"호텔휘슬락","poiType":{"category":"숙박","subCategory":"호텔","subSubCategory":""},"address":"제주특별자치도 제주시 건입동 1443-2","location":{"longitude":126.52751016367932,"latitude":33.51737839424505},"score":5.0,"businessHours":{"businessHours":"00:00 ~ 24:00","closedDaySet":[]},"costPerPerson":-1,"spendingTime":{"hour":1.0,"standardDeviation":0.05},"isRestaurant":false},{"id":16260352,"name":"다인리조트","poiType":{"category":"숙박","subCategory":"콘도,리조트","subSubCategory":""},"address":"제주특별자치도 제주시 애월읍 고내리 79-8","location":{"longitude":126.3511455084947,"latitude":33.47154260410787},"score":5.0,"businessHours":{"businessHours":"00:00 ~ 24:00","closedDaySet":[]},"costPerPerson":-1,"spendingTime":{"hour":1.0,"standardDeviation":0.05},"isRestaurant":false},{"id":242983136,"name":"밸류호텔 서귀포JS","poiType":{"category":"숙박","subCategory":"호텔","subSubCategory":""},"address":"제주특별자치도 서귀포시 법환동 745-5","location":{"longitude":126.51031743103302,"latitude":33.25142835100994},"score":3.0,"businessHours":{"businessHours":"00:00 ~ 24:00","closedDaySet":[]},"costPerPerson":-1,"spendingTime":{"hour":1.0,"standardDeviation":0.05},"isRestaurant":false},{"id":8130258,"name":"하얏트리젠시 제주","poiType":{"category":"숙박","subCategory":"호텔","subSubCategory":"특급호텔"},"address":"제주특별자치도 서귀포시 색달동 3039-1","location":{"longitude":126.40596933451172,"latitude":33.244668489419894},"score":4.1,"businessHours":{"businessHours":"00:00 ~ 24:00","closedDaySet":[]},"costPerPerson":-1,"spendingTime":{"hour":1.0,"standardDeviation":0.05},"isRestaurant":false},{"id":1986689241,"name":"브라운스위트제주 호텔앤리조트","poiType":{"category":"숙박","subCategory":"호텔","subSubCategory":""},"address":"제주특별자치도 서귀포시 성산읍 고성리 1201","location":{"longitude":126.91448729439219,"latitude":33.45202609114078},"score":2.5,"businessHours":{"businessHours":"00:00 ~ 24:00","closedDaySet":[]},"costPerPerson":-1,"spendingTime":{"hour":1.0,"standardDeviation":0.05},"isRestaurant":false},{"id":8679392,"name":"화이트하우스","poiType":{"category":"숙박","subCategory":"호텔","subSubCategory":""},"address":"제주특별자치도 제주시 용담3동 2572-4","location":{"longitude":126.48451142988606,"latitude":33.51236315116381},"score":3.9,"businessHours":{"businessHours":"00:00 ~ 24:00","closedDaySet":[]},"costPerPerson":-1,"spendingTime":{"hour":1.0,"standardDeviation":0.05},"isRestaurant":false},{"id":25636374,"name":"파크선샤인제주","poiType":{"category":"숙박","subCategory":"호텔","subSubCategory":""},"address":"제주특별자치도 서귀포시 서홍동 637","location":{"longitude":126.55331180694796,"latitude":33.24343996320289},"score":4.8,"businessHours":{"businessHours":"00:00 ~ 24:00","closedDaySet":[]},"costPerPerson":-1,"spendingTime":{"hour":1.0,"standardDeviation":0.05},"isRestaurant":false},{"id":1550926766,"name":"데이즈호텔 제주서귀포 오션","poiType":{"category":"숙박","subCategory":"호텔","subSubCategory":""},"address":"제주특별자치도 서귀포시 서귀동 255-1","location":{"longitude":126.56744146777525,"latitude":33.24942276208038},"score":5.0,"businessHours":{"businessHours":"00:00 ~ 24:00","closedDaySet":[]},"costPerPerson":-1,"spendingTime":{"hour":1.0,"standardDeviation":0.05},"isRestaurant":false}]