[{"id":10808261,"name":"제주국제공항","poiType":{"category":"교통,수송","subCategory":"교통시설","subSubCategory":"공항"},"address":"제주특별자치도 제주시 용담2동 2002","location":{"longitude":126.49276955813733,"latitude":33.5070779758458},"score":3.9,"businessHours":{"businessHours":"00:00 ~ 24:00","closedDaySet":[]},"costPerPerson":-1,"spendingTime":{"hour":1.0,"standardDeviation":0.05},"isRestaurant":false},{"id":8064057,"name":"제주시외버스터미널","poiType":{"category":"교통,수송","subCategory":"교통시설","subSubCategory":"고속,시외버스터미널"},"address":"제주특별자치도 제주시 오라1동 2441-1","location":{"longitude":126.51488204900022,"latitude":33.499726874290836},"score":1.8,"businessHours":{"businessHours":"00:00 ~ 24:00","closedDaySet":[]},"costPerPerson":-1,"spendingTime":{"hour":1.0,"standardDeviation":0.05},"isRestaurant":false},{"id":26197981,"name":"서귀포항 여객선터미널","poiType":{"category":"교통,수송","subCategory":"교통시설","subSubCategory":"여객선터미널"},"address":"제주특별자치도 서귀포시 서귀동 758-4","location":{"longitude":126.56662043517927,"latitude":33.238394793629794},"score":0.5,"businessHours":{"businessHours":"00:00 ~ 24:00","closedDaySet":[]},"costPerPerson":-1,"spendingTime":{"hour":1.0,"standardDeviation":0.05},"isRestaurant":false},{"id":7938158,"name":"서귀포시외버스터미널","poiType":{"category":"교통,수송","subCategory":"교통시설","subSubCategory":"고속,시외버스터미널"},"address":"제주특별자치도 서귀포시 법환동 843","location":{"longitude":126.5082281401535,"latitude":33.248942423073295},"score":5.0,"businessHours":{"businessHours":"00:00 ~ 24:00","closedDaySet":[]},"costPerPerson":-1,"spendingTime":{"hour":1.0,"standardDeviation":0.05},"isRestaurant":false},{"id":12435114,"name":"성산포항 종합여객터미널","poiType":{"category":"교통,수송","subCategory":"교통시설","subSubCategory":"여객선터미널"},"address":"제주특별자치도 서귀포시 성산읍 성산리 347-9","location":{"longitude":126.93463605526526,"latitude":33.47288009176923},"score":0.5,"businessHours":{"businessHours":"00:00 ~ 24:00","closedDaySet":[]},"costPerPerson":-1,"spendingTime":{"hour":1.0,"standardDeviation":0.05},"isRestaurant":false},{"id":18376658,"name":"제주항연안여객터미널","poiType":{"category":"교통,수송","subCategory":"교통시설","subSubCategory":"여객선터미널"},"address":"제주특별자치도 제주시 건입동 918-30","location":{"longitude":126.53500267546443,"latitude":33.51959227136837},"score":0.5,"businessHours":{"businessHours":"00:00 ~ 24:00","closedDaySet":[]},"costPerPerson":-1,"spendingTime":{"hour":1.0,"standardDeviation":0.05},"isRestaurant":false},{"id":24019637,"name":"대정버스터미널","poiType":{"category":"교통,수송","subCategory":"교통시설","subSubCategory":"고속,시외버스터미널"},"address":"제주특별자치도 서귀포시 대정읍 하모리 1417-7","location":{"longitude":126.25276631022749,"latitude":33.22568602664814},"score":0.5,"businessHours":{"businessHours":"00:00 ~ 24:00","closedDaySet":[]},"costPerPerson":-1,"spendingTime":{"hour":1.0,"standardDeviation":0.05},"isRestaurant":false},{"id":26927416,"name":"제주항국제여객터미널","poiType":{"category":"교통,수송","subCategory":"교통시설","subSubCategory":"여객선터미널"},"address":"제주특별자치도 제주시 건입동 908-1","location":{"longitude":126.54361808897369,"latitude":33.525315216069586},"score":0.5,"businessHours":{"businessHours":"00:00 ~ 24:00","closedDaySet":[]},"costPerPerson":-1,"spendingTime":{"hour":1.0,"standardDeviation":0.05},"isRestaurant":false}]