[{"id":20193558,"name":"슬로우트립 게스트하우스","poiType":{"category":"숙박","subCategory":"게스트하우스","subSubCategory":""},"address":"제주특별자치도 서귀포시 성산읍 오조리 741","location":{"latitude":33.46152190069928,"longitude":126.91461551182454},"score":4.0,"businessHours":{"businessHours":"00:00 ~ 24:00","closedDaySet":[]},"costPerPerson":-1,"spendingTime":{"hour":1.0,"standardDeviation":0.05},"isRestaurant":false},{"id":25039188,"name":"해바라기 게스트하우스","poiType":{"category":"숙박","subCategory":"게스트하우스","subSubCategory":""},"address":"제주특별자치도 서귀포시 성산읍 성산리 236-3","location":{"latitude":33.465024639966984,"longitude":126.93340283633785},"score":3.0,"businessHours":{"businessHours":"00:00 ~ 24:00","closedDaySet":[]},"costPerPerson":-1,"spendingTime":{"hour":1.0,"standardDeviation":0.05},"isRestaurant":false},{"id":26644835,"name":"우도봉펜션","poiType":{"category":"숙박","subCategory":"펜션","subSubCategory":""},"address":"제주특별자치도 제주시 우도면 연평리 235","location":{"latitude":33.49999198467355,"longitude":126.96747258779706},"score":4.3,"businessHours":{"businessHours":"00:00 ~ 24:00","closedDaySet":[]},"costPerPerson":-1,"spendingTime":{"hour":1.0,"standardDeviation":0.05},"isRestaurant":false},{"id":17633552,"name":"올레요리조트","poiType":{"category":"숙박","subCategory":"콘도,리조트","subSubCategory":""},"address":"제주특별자치도 서귀포시 강정동 2498-3","location":{"latitude":33.23477146748904,"longitude":126.49274658707546},"score":3.7,"businessHours":{"businessHours":"00:00 ~ 24:00","closedDaySet":[]},"costPerPerson":-1,"spendingTime":{"hour":1.0,"standardDeviation":0.05},"isRestaurant":false},{"id":14565585,"name":"메모리펜션","poiType":{"category":"숙박","subCategory":"펜션","subSubCategory":""},"address":"제주특별자치도 서귀포시 강정동 3380-1","location":{"latitude":33.25744177122059,"longitude":126.49095831654708},"score":5.0,"businessHours":{"businessHours":"00:00 ~ 24:00","closedDaySet":[]},"costPerPerson":-1,"spendingTime":{"hour":1.0,"standardDeviation":0.05},"isRestaurant":false},{"id":356410604,"name":"게스트하우스 8PM 함덕점","poiType":{"category":"숙박","subCategory":"게스트하우스","subSubCategory":""},"address":"제주특별자치도 제주시 조천읍 신촌리 776-1","location":{"latitude":33.52479154228124,"longitude":126.62477702752483},"score":5.0,"businessHours":{"businessHours":"00:00 ~ 24:00","closedDaySet":[]},"costPerPerson":-1,"spendingTime":{"hour":1.0,"standardDeviation":0.05},"isRestaurant":false},{"id":27296120,"name":"고궁펜션형게스트하우스","poiType":{"category":"숙박","subCategory":"게스트하우스","subSubCategory":""},"address":"제주특별자치도 서귀포시 성산읍 성산리 228-10","location":{"latitude":33.46419582014986,"longitude":126.9346125897805},"score":5.0,"businessHours":{"businessHours":"00:00 ~ 24:00","closedDaySet":[]},"costPerPerson":-1,"spendingTime":{"hour":1.0,"standardDeviation":0.05},"isRestaurant":false},{"id":25412000,"name":"젠하이드어웨이","poiType":{"category":"숙박","subCategory":"콘도,리조트","subSubCategory":""},"address":"제주특별자치도 서귀포시 안덕면 사계리 2032-7","location":{"latitude":33.22929437906501,"longitude":126.30850396136724},"score":3.0,"businessHours":{"businessHours":"00:00 ~ 24:00","closedDaySet":[]},"costPerPerson":-1,"spendingTime":{"hour":1.0,"standardDeviation":0.05},"isRestaurant":false},{"id":27079097,"name":"느영나영게스트하우스","poiType":{"category":"숙박","subCategory":"게스트하우스","subSubCategory":""},"address":"제주특별자치도 서귀포시 남원읍 신흥리 168-8","location":{"latitude":33.3007496994456,"longitude":126.766699879038},"score":4.3,"businessHours":{"businessHours":"00:00 ~ 24:00","closedDaySet":[]},"costPerPerson":-1,"spendingTime":{"hour":1.0,"standardDeviation":0.05},"isRestaurant":false},{"id":25973153,"name":"탑팰리스관광호텔","poiType":{"category":"숙박","subCategory":"호텔","subSubCategory":""},"address":"제주특별자치도 제주시 일도1동 1279-5","location":{"latitude":33.51532197705386,"longitude":126.52448180281522},"score":5.0,"businessHours":{"businessHours":"00:00 ~ 24:00","closedDaySet":[]},"costPerPerson":-1,"spendingTime":{"hour":1.0,"standardDeviation":0.05},"isRestaurant":false},{"id":110306981,"name":"디오션힐","poiType":{"category":"숙박","subCategory":"펜션","subSubCategory":""},"address":"제주특별자치도 서귀포시 안덕면 사계리 204","location":{"latitude":33.23673337552614,"longitude":126.3089517030663},"score":4.7,"businessHours":{"businessHours":"00:00 ~ 24:00","closedDaySet":[]},"costPerPerson":-1,"spendingTime":{"hour":1.0,"standardDeviation":0.05},"isRestaurant":false},{"id":26829276,"name":"시바게스트하우스","poiType":{"category":"숙박","subCategory":"게스트하우스","subSubCategory":""},"address":"제주특별자치도 제주시 조천읍 신흥리 547","location":{"latitude":33.54875325120725,"longitude":126.64841773752619},"score":3.0,"businessHours":{"businessHours":"00:00 ~ 24:00","closedDaySet":[]},"costPerPerson":-1,"spendingTime":{"hour":1.0,"standardDeviation":0.05},"isRestaurant":false},{"id":16261247,"name":"해비치호텔앤리조트 제주","poiType":{"category":"숙박","subCategory":"호텔","subSubCategory":""},"address":"제주특별자치도 서귀포시 표선면 표선리 40-76","location":{"latitude":33.32128810678434,"longitude":126.84464240610346},"score":3.0,"businessHours":{"businessHours":"00:00 ~ 24:00","closedDaySet":[]},"costPerPerson":-1,"spendingTime":{"hour":1.0,"standardDeviation":0.05},"isRestaurant":false},{"id":11104419,"name":"제주엘루이호텔","poiType":{"category":"숙박","subCategory":"여관,모텔","subSubCategory":""},"address":"제주특별자치도 제주시 삼도1동 552-16","location":{"latitude":33.5002126249163,"longitude":126.521835028954},"score":3.0,"businessHours":{"businessHours":"00:00 ~ 24:00","closedDaySet":[]},"costPerPerson":-1,"spendingTime":{"hour":1.0,"standardDeviation":0.05},"isRestaurant":false},{"id":25575890,"name":"일레인호텔","poiType":{"category":"숙박","subCategory":"호텔","subSubCategory":""},"address":"제주특별자치도 서귀포시 회수동 659","location":{"latitude":33.25461033366558,"longitude":126.43903129822385},"score":5.0,"businessHours":{"businessHours":"00:00 ~ 24:00","closedDaySet":[]},"costPerPerson":-1,"spendingTime":{"hour":1.0,"standardDeviation":0.05},"isRestaurant":false},{"id":25039079,"name":"인제주게스트하우스","poiType":{"category":"숙박","subCategory":"게스트하우스","subSubCategory":""},"address":"제주특별자치도 제주시 한림읍 동명리 2210","location":{"latitude":33.39615347712592,"longitude":126.26432236240453},"score":5.0,"businessHours":{"businessHours":"00:00 ~ 24:00","closedDaySet":[]},"costPerPerson":-1,"spendingTime":{"hour":1.0,"standardDeviation":0.05},"isRestaurant":false},{"id":8511483,"name":"제주카사블랑카","poiType":{"category":"숙박","subCategory":"펜션","subSubCategory":""},"address":"제주특별자치도 서귀포시 호근동 2083-4","location":{"latitude":33.2705104757892,"longitude":126.528148336506},"score":5.0,"businessHours":{"businessHours":"00:00 ~ 24:00","closedDaySet":[]},"costPerPerson":-1,"spendingTime":{"hour":1.0,"standardDeviation":0.05},"isRestaurant":false},{"id":21275087,"name":"길라임펜션","poiType":{"category":"숙박","subCategory":"펜션","subSubCategory":""},"address":"제주특별자치도 제주시 도두1동 1702-5","location":{"latitude":33.50682164582888,"longitude":126.47203861207264},"score":5.0,"businessHours":{"businessHours":"00:00 ~ 24:00","closedDaySet":[]},"costPerPerson":-1,"spendingTime":{"hour":1.0,"standardDeviation":0.05},"isRestaurant":false},{"id":24797618,"name":"아모렉스","poiType":{"category":"숙박","subCategory":"콘도,리조트","subSubCategory":""},"address":"제주특별자치도 제주시 도두1동 1742","location":{"latitude":33.50746402837073,"longitude":126.47045909395683},"score":3.0,"businessHours":{"businessHours":"00:00 ~ 24:00","closedDaySet":[]},"costPerPerson":-1,"spendingTime":{"hour":1.0,"standardDeviation":0.05},"isRestaurant":false},{"id":27287804,"name":"제주공항마씸게스트하우스","poiType":{"category":"숙박","subCategory":"게스트하우스","subSubCategory":""},"address":"제주특별자치도 제주시 용담2동 616-98","location":{"latitude":33.51076770622828,"longitude":126.50894810326375},"score":5.0,"businessHours":{"businessHours":"00:00 ~ 24:00","closedDaySet":[]},"costPerPerson":-1,"spendingTime":{"hour":1.0,"standardDeviation":0.05},"isRestaurant":false},{"id":12341327,"name":"블라제펜션","poiType":{"category":"숙박","subCategory":"펜션","subSubCategory":""},"address":"제주특별자치도 서귀포시 표선면 가시리 3171","location":{"latitude":33.379011597862394,"longitude":126.74694074879132},"score":5.0,"businessHours":{"businessHours":"00:00 ~ 24:00","closedDaySet":[]},"costPerPerson":-1,"spendingTime":{"hour":1.0,"standardDeviation":0.05},"isRestaurant":false},{"id":26100027,"name":"늘푸른하우스","poiType":{"category":"숙박","subCategory":"펜션","subSubCategory":""},"address":"제주특별자치도 제주시 한림읍 협재리 910-1","location":{"latitude":33.3768409380467,"longitude":126.249901467264},"score":5.0,"businessHours":{"businessHours":"00:00 ~ 24:00","closedDaySet":[]},"costPerPerson":-1,"spendingTime":{"hour":1.0,"standardDeviation":0.05},"isRestaurant":false},{"id":19083739,"name":"웨스티하우스","poiType":{"category":"숙박","subCategory":"펜션","subSubCategory":""},"address":"제주특별자치도 서귀포시 안덕면 감산리 210-5","location":{"latitude":33.260923775779354,"longitude":126.35626462694319},"score":5.0,"businessHours":{"businessHours":"00:00 ~ 24:00","closedDaySet":[]},"costPerPerson":-1,"spendingTime":{"hour":1.0,"standardDeviation":0.05},"isRestaurant":false},{"id":1379697341,"name":"몽쉘게스트하우스","poiType":{"category":"숙박","subCategory":"게스트하우스","subSubCategory":""},"address":"제주특별자치도 제주시 아라1동 358-6","location":{"latitude":33.4597191264454,"longitude":126.558496284978},"score":5.0,"businessHours":{"businessHours":"00:00 ~ 24:00","closedDaySet":[]},"costPerPerson":-1,"spendingTime":{"hour":1.0,"standardDeviation":0.05},"isRestaurant":false},{"id":704047348,"name":"하워드존슨제주호텔","poiType":{"category":"숙박","subCategory":"호텔","subSubCategory":""},"address":"제주특별자치도 제주시 연동 281-22","location":{"latitude":33.49004734267913,"longitude":126.4924128989423},"score":3.0,"businessHours":{"businessHours":"00:00 ~ 24:00","closedDaySet":[]},"costPerPerson":-1,"spendingTime":{"hour":1.0,"standardDeviation":0.05},"isRestaurant":false},{"id":27197787,"name":"해든빌레펜션","poiType":{"category":"숙박","subCategory":"펜션","subSubCategory":""},"address":"제주특별자치도 서귀포시 남원읍 위미리 2505-1","location":{"latitude":33.291976925247575,"longitude":126.66168111590602},"score":5.0,"businessHours":{"businessHours":"00:00 ~ 24:00","closedDaySet":[]},"costPerPerson":-1,"spendingTime":{"hour":1.0,"standardDeviation":0.05},"isRestaurant":false},{"id":2118430527,"name":"코델리아에스호텔","poiType":{"category":"숙박","subCategory":"호텔","subSubCategory":""},"address":"제주특별자치도 서귀포시 성산읍 오조리 990-1","location":{"latitude":33.45493722108532,"longitude":126.91049175281121},"score":3.0,"businessHours":{"businessHours":"00:00 ~ 24:00","closedDaySet":[]},"costPerPerson":-1,"spendingTime":{"hour":1.0,"standardDeviation":0.05},"isRestaurant":false},{"id":26919010,"name":"디 아넥스","poiType":{"category":"숙박","subCategory":"호텔","subSubCategory":""},"address":"제주특별자치도 서귀포시 안덕면 상천리 380-7","location":{"latitude":33.303068452329185,"longitude":126.39269689812846},"score":3.0,"businessHours":{"businessHours":"00:00 ~ 24:00","closedDaySet":[]},"costPerPerson":-1,"spendingTime":{"hour":1.0,"standardDeviation":0.05},"isRestaurant":false},{"id":12665289,"name":"난드르통나무집","poiType":{"category":"숙박","subCategory":"펜션","subSubCategory":""},"address":"제주특별자치도 서귀포시 안덕면 창천리 901-5","location":{"latitude":33.237099906679305,"longitude":126.36380743797996},"score":5.0,"businessHours":{"businessHours":"00:00 ~ 24:00","closedDaySet":[]},"costPerPerson":-1,"spendingTime":{"hour":1.0,"standardDeviation":0.05},"isRestaurant":false},{"id":25161774,"name":"건축학개론펜션","poiType":{"category":"숙박","subCategory":"펜션","subSubCategory":""},"address":"제주특별자치도 서귀포시 성산읍 신풍리 188","location":{"latitude":33.35840695443458,"longitude":126.86039127997034},"score":5.0,"businessHours":{"businessHours":"00:00 ~ 24:00","closedDaySet":[]},"costPerPerson":-1,"spendingTime":{"hour":1.0,"standardDeviation":0.05},"isRestaurant":false},{"id":17833992,"name":"와이리조트제주","poiType":{"category":"숙박","subCategory":"콘도,리조트","subSubCategory":""},"address":"제주특별자치도 서귀포시 안덕면 화순리 1888","location":{"latitude":33.24266862015211,"longitude":126.32782345273921},"score":4.5,"businessHours":{"businessHours":"00:00 ~ 24:00","closedDaySet":[]},"costPerPerson":-1,"spendingTime":{"hour":1.0,"standardDeviation":0.05},"isRestaurant":false},{"id":719625115,"name":"랜딩관 제주신화월드 호텔앤리조트","poiType":{"category":"숙박","subCategory":"콘도,리조트","subSubCategory":""},"address":"제주특별자치도 서귀포시 안덕면 서광리 산 24","location":{"latitude":33.3057740616938,"longitude":126.317571987105},"score":5.0,"businessHours":{"businessHours":"00:00 ~ 24:00","closedDaySet":[]},"costPerPerson":-1,"spendingTime":{"hour":1.0,"standardDeviation":0.05},"isRestaurant":false},{"id":26505425,"name":"산방산애 리조트펜션","poiType":{"category":"숙박","subCategory":"펜션","subSubCategory":""},"address":"제주특별자치도 서귀포시 안덕면 사계리 516-1","location":{"latitude":33.24343628930786,"longitude":126.30352540922601},"score":3.7,"businessHours":{"businessHours":"00:00 ~ 24:00","closedDaySet":[]},"costPerPerson":-1,"spendingTime":{"hour":1.0,"standardDeviation":0.05},"isRestaurant":false},{"id":8622554,"name":"메이저호텔","poiType":{"category":"숙박","subCategory":"호텔","subSubCategory":""},"address":"제주특별자치도 제주시 연동 278-8","location":{"latitude":33.48303457967721,"longitude":126.49104659159076},"score":5.0,"businessHours":{"businessHours":"00:00 ~ 24:00","closedDaySet":[]},"costPerPerson":-1,"spendingTime":{"hour":1.0,"standardDeviation":0.05},"isRestaurant":false},{"id":26517493,"name":"베니키아 호텔 제주","poiType":{"category":"숙박","subCategory":"호텔","subSubCategory":"특급호텔"},"address":"제주특별자치도 제주시 애월읍 신엄리 2735-1","location":{"latitude":33.47722206654047,"longitude":126.36284278369583},"score":4.0,"businessHours":{"businessHours":"00:00 ~ 24:00","closedDaySet":[]},"costPerPerson":-1,"spendingTime":{"hour":1.0,"standardDeviation":0.05},"isRestaurant":false},{"id":7856594,"name":"제주로얄호텔","poiType":{"category":"숙박","subCategory":"호텔","subSubCategory":""},"address":"제주특별자치도 제주시 연동 272-34","location":{"latitude":33.48855858997572,"longitude":126.49169853365927},"score":2.6,"businessHours":{"businessHours":"00:00 ~ 24:00","closedDaySet":[]},"costPerPerson":-1,"spendingTime":{"hour":1.0,"standardDeviation":0.05},"isRestaurant":false},{"id":9834750,"name":"보물섬","poiType":{"category":"숙박","subCategory":"펜션","subSubCategory":""},"address":"제주특별자치도 서귀포시 성산읍 성산리 252-1","location":{"latitude":33.46641216094398,"longitude":126.93168916741557},"score":3.0,"businessHours":{"businessHours":"00:00 ~ 24:00","closedDaySet":[]},"costPerPerson":-1,"spendingTime":{"hour":1.0,"standardDeviation":0.05},"isRestaurant":false},{"id":18567288,"name":"탐라지오호텔","poiType":{"category":"숙박","subCategory":"호텔","subSubCategory":""},"address":"제주특별자치도 제주시 연동 274-7","location":{"latitude":33.4850189956827,"longitude":126.490173292471},"score":4.8,"businessHours":{"businessHours":"00:00 ~ 24:00","closedDaySet":[]},"costPerPerson":-1,"spendingTime":{"hour":1.0,"standardDeviation":0.05},"isRestaurant":false},{"id":23183577,"name":"롯데시티호텔 제주","poiType":{"category":"숙박","subCategory":"호텔","subSubCategory":"특급호텔"},"address":"제주특별자치도 제주시 연동 2324-6","location":{"latitude":33.49069360896616,"longitude":126.48647805024612},"score":3.2,"businessHours":{"businessHours":"00:00 ~ 24:00","closedDaySet":[]},"costPerPerson":-1,"spendingTime":{"hour":1.0,"standardDeviation":0.05},"isRestaurant":false},{"id":1303223319,"name":"더베스트제주성산","poiType":{"category":"숙박","subCategory":"호텔","subSubCategory":""},"address":"제주특별자치도 서귀포시 성산읍 고성리 298-5","location":{"latitude":33.4497735496239,"longitude":126.917002402152},"score":1.5,"businessHours":{"businessHours":"00:00 ~ 24:00","closedDaySet":[]},"costPerPerson":-1,"spendingTime":{"hour":1.0,"standardDeviation":0.05},"isRestaurant":false},{"id":8061381,"name":"일성제주비치리조트","poiType":{"category":"숙박","subCategory":"콘도,리조트","subSubCategory":"일성콘도미니엄"},"address":"제주특별자치도 제주시 한림읍 금능리 1625","location":{"latitude":33.38580297949651,"longitude":126.22120191035917},"score":2.5,"businessHours":{"businessHours":"00:00 ~ 24:00","closedDaySet":[]},"costPerPerson":-1,"spendingTime":{"hour":1.0,"standardDeviation":0.05},"isRestaurant":false},{"id":26525716,"name":"호텔아로하","poiType":{"category":"숙박","subCategory":"호텔","subSubCategory":""},"address":"제주특별자치도 서귀포시 성산읍 성산리 381-2","location":{"latitude":33.46652001836299,"longitude":126.93109526913042},"score":3.0,"businessHours":{"businessHours":"00:00 ~ 24:00","closedDaySet":[]},"costPerPerson":-1,"spendingTime":{"hour":1.0,"standardDeviation":0.05},"isRestaurant":false},{"id":17944729,"name":"하늘아래 게스트하우스","poiType":{"category":"숙박","subCategory":"게스트하우스","subSubCategory":""},"address":"제주특별자치도 서귀포시 표선면 세화리 1424-3","location":{"latitude":33.315123515115,"longitude":126.800922820428},"score":5.0,"businessHours":{"businessHours":"00:00 ~ 24:00","closedDaySet":[]},"costPerPerson":-1,"spendingTime":{"hour":1.0,"standardDeviation":0.05},"isRestaurant":false},{"id":1096536260,"name":"수펜션","poiType":{"category":"숙박","subCategory":"펜션","subSubCategory":""},"address":"제주특별자치도 서귀포시 안덕면 창천리 967-1","location":{"latitude":33.2414689492293,"longitude":126.366947461659},"score":5.0,"businessHours":{"businessHours":"00:00 ~ 24:00","closedDaySet":[]},"costPerPerson":-1,"spendingTime":{"hour":1.0,"standardDeviation":0.05},"isRestaurant":false},{"id":17113263,"name":"유로리조트","poiType":{"category":"숙박","subCategory":"콘도,리조트","subSubCategory":""},"address":"제주특별자치도 서귀포시 토평동 659-3","location":{"latitude":33.24835144675645,"longitude":126.5853324306778},"score":3.0,"businessHours":{"businessHours":"00:00 ~ 24:00","closedDaySet":[]},"costPerPerson":-1,"spendingTime":{"hour":1.0,"standardDeviation":0.05},"isRestaurant":false},{"id":12820732,"name":"드림시아","poiType":{"category":"숙박","subCategory":"펜션","subSubCategory":""},"address":"제주특별자치도 제주시 조천읍 북촌리 365-1","location":{"latitude":33.551876744576795,"longitude":126.70345517361324},"score":5.0,"businessHours":{"businessHours":"00:00 ~ 24:00","closedDaySet":[]},"costPerPerson":-1,"spendingTime":{"hour":1.0,"standardDeviation":0.05},"isRestaurant":false},{"id":20177076,"name":"꿈꾸는노마드","poiType":{"category":"숙박","subCategory":"펜션","subSubCategory":""},"address":"제주특별자치도 서귀포시 강정동 1026-1","location":{"latitude":33.24168432749765,"longitude":126.4996551021641},"score":5.0,"businessHours":{"businessHours":"00:00 ~ 24:00","closedDaySet":[]},"costPerPerson":-1,"spendingTime":{"hour":1.0,"standardDeviation":0.05},"isRestaurant":false},{"id":27385892,"name":"제주클레르드륀펜션","poiType":{"category":"숙박","subCategory":"펜션","subSubCategory":""},"address":"제주특별자치도 제주시 애월읍 고내리 565-1","location":{"latitude":33.4659494243235,"longitude":126.34027955691289},"score":5.0,"businessHours":{"businessHours":"00:00 ~ 24:00","closedDaySet":[]},"costPerPerson":-1,"spendingTime":{"hour":1.0,"standardDeviation":0.05},"isRestaurant":false},{"id":13644052,"name":"제주양떼목장펜션","poiType":{"category":"숙박","subCategory":"펜션","subSubCategory":""},"address":"제주특별자치도 제주시 애월읍 납읍리 114","location":{"latitude":33.4113590480313,"longitude":126.365214619245},"score":5.0,"businessHours":{"businessHours":"00:00 ~ 24:00","closedDaySet":[]},"costPerPerson":-1,"spendingTime":{"hour":1.0,"standardDeviation":0.05},"isRestaurant":false},{"id":18370763,"name":"현게스트하우스","poiType":{"category":"숙박","subCategory":"게스트하우스","subSubCategory":""},"address":"제주특별자치도 서귀포시 법환동 183","location":{"latitude":33.235178437933456,"longitude":126.51331365699093},"score":4.0,"businessHours":{"businessHours":"00:00 ~ 24:00","closedDaySet":[]},"costPerPerson":-1,"spendingTime":{"hour":1.0,"standardDeviation":0.05},"isRestaurant":false},{"id":26506103,"name":"달콤한아침","poiType":{"category":"숙박","subCategory":"게스트하우스","subSubCategory":""},"address":"제주특별자치도 제주시 구좌읍 월정리 104-5","location":{"latitude":33.55217791303194,"longitude":126.79897516752673},"score":5.0,"businessHours":{"businessHours":"00:00 ~ 24:00","closedDaySet":[]},"costPerPerson":-1,"spendingTime":{"hour":1.0,"standardDeviation":0.05},"isRestaurant":false},{"id":27280262,"name":"탐라스테이호텔","poiType":{"category":"숙박","subCategory":"호텔","subSubCategory":""},"address":"제주특별자치도 제주시 애월읍 하귀2리 2739-2","location":{"latitude":33.48696853139003,"longitude":126.39119420286399},"score":5.0,"businessHours":{"businessHours":"00:00 ~ 24:00","closedDaySet":[]},"costPerPerson":-1,"spendingTime":{"hour":1.0,"standardDeviation":0.05},"isRestaurant":false},{"id":26882923,"name":"제주 엘리시움펜션","poiType":{"category":"숙박","subCategory":"펜션","subSubCategory":""},"address":"제주특별자치도 서귀포시 성산읍 삼달리 105-15","location":{"latitude":33.37147439328077,"longitude":126.86142758824434},"score":5.0,"businessHours":{"businessHours":"00:00 ~ 24:00","closedDaySet":[]},"costPerPerson":-1,"spendingTime":{"hour":1.0,"standardDeviation":0.05},"isRestaurant":false},{"id":1111445519,"name":"깡통텔리조트","poiType":{"category":"숙박","subCategory":"야영,캠핑장","subSubCategory":"오토캠핑장"},"address":"제주특별자치도 제주시 애월읍 광령리 4155","location":{"latitude":33.4464633966982,"longitude":126.425086950776},"score":4.7,"businessHours":{"businessHours":"00:00 ~ 24:00","closedDaySet":[]},"costPerPerson":-1,"spendingTime":{"hour":1.0,"standardDeviation":0.05},"isRestaurant":false},{"id":14103210,"name":"스토리하우스","poiType":{"category":"숙박","subCategory":"펜션","subSubCategory":""},"address":"제주특별자치도 제주시 이호1동 320-1","location":{"latitude":33.502165324444654,"longitude":126.46270859075136},"score":5.0,"businessHours":{"businessHours":"00:00 ~ 24:00","closedDaySet":[]},"costPerPerson":-1,"spendingTime":{"hour":1.0,"standardDeviation":0.05},"isRestaurant":false},{"id":15217314,"name":"셋째날","poiType":{"category":"숙박","subCategory":"펜션","subSubCategory":""},"address":"제주특별자치도 서귀포시 상효동 549-2","location":{"latitude":33.279044755747755,"longitude":126.60131842295597},"score":4.6,"businessHours":{"businessHours":"00:00 ~ 24:00","closedDaySet":[]},"costPerPerson":-1,"spendingTime":{"hour":1.0,"standardDeviation":0.05},"isRestaurant":false},{"id":8012335,"name":"올레리조트","poiType":{"category":"숙박","subCategory":"콘도,리조트","subSubCategory":""},"address":"제주특별자치도 제주시 애월읍 신엄리 2867-4","location":{"latitude":33.475838879684815,"longitude":126.355502825109},"score":4.1,"businessHours":{"businessHours":"00:00 ~ 24:00","closedDaySet":[]},"costPerPerson":-1,"spendingTime":{"hour":1.0,"standardDeviation":0.05},"isRestaurant":false},{"id":19575539,"name":"오션그랜드","poiType":{"category":"숙박","subCategory":"호텔","subSubCategory":""},"address":"제주특별자치도 제주시 조천읍 함덕리 1252-55","location":{"latitude":33.54252481852167,"longitude":126.66517034888716},"score":2.3,"businessHours":{"businessHours":"00:00 ~ 24:00","closedDaySet":[]},"costPerPerson":-1,"spendingTime":{"hour":1.0,"standardDeviation":0.05},"isRestaurant":false},{"id":23679793,"name":"베이힐풀앤빌라","poiType":{"category":"숙박","subCategory":"콘도,리조트","subSubCategory":""},"address":"제주특별자치도 서귀포시 하예동 1888","location":{"latitude":33.23812881197131,"longitude":126.37203654010926},"score":4.0,"businessHours":{"businessHours":"00:00 ~ 24:00","closedDaySet":[]},"costPerPerson":-1,"spendingTime":{"hour":1.0,"standardDeviation":0.05},"isRestaurant":false},{"id":24924966,"name":"콤마앤리조트","poiType":{"category":"숙박","subCategory":"콘도,리조트","subSubCategory":""},"address":"제주특별자치도 서귀포시 안덕면 사계리 2266-1","location":{"latitude":33.23016824151314,"longitude":126.29969143042725},"score":1.5,"businessHours":{"businessHours":"00:00 ~ 24:00","closedDaySet":[]},"costPerPerson":-1,"spendingTime":{"hour":1.0,"standardDeviation":0.05},"isRestaurant":false},{"id":577536050,"name":"또랑게스트하우스민박","poiType":{"category":"숙박","subCategory":"민박","subSubCategory":""},"address":"제주특별자치도 제주시 아라1동 1955-3","location":{"latitude":33.45514242471697,"longitude":126.54946403748366},"score":4.9,"businessHours":{"businessHours":"00:00 ~ 24:00","closedDaySet":[]},"costPerPerson":-1,"spendingTime":{"hour":1.0,"standardDeviation":0.05},"isRestaurant":false},{"id":1588174019,"name":"애월럭스하우스","poiType":{"category":"숙박","subCategory":"펜션","subSubCategory":""},"address":"제주특별자치도 제주시 애월읍 구엄리 725","location":{"latitude":33.47865579993131,"longitude":126.3817159512585},"score":3.7,"businessHours":{"businessHours":"00:00 ~ 24:00","closedDaySet":[]},"costPerPerson":-1,"spendingTime":{"hour":1.0,"standardDeviation":0.05},"isRestaurant":false},{"id":26821547,"name":"나디아펜션","poiType":{"category":"숙박","subCategory":"펜션","subSubCategory":""},"address":"제주특별자치도 제주시 애월읍 애월리 1229-3","location":{"latitude":33.458055911352346,"longitude":126.32239824377507},"score":5.0,"businessHours":{"businessHours":"00:00 ~ 24:00","closedDaySet":[]},"costPerPerson":-1,"spendingTime":{"hour":1.0,"standardDeviation":0.05},"isRestaurant":false},{"id":26854361,"name":"베니키아 중문 호텔","poiType":{"category":"숙박","subCategory":"호텔","subSubCategory":"특급호텔"},"address":"제주특별자치도 서귀포시 중문동 2115-1","location":{"latitude":33.25189409922922,"longitude":126.42240295384433},"score":4.8,"businessHours":{"businessHours":"00:00 ~ 24:00","closedDaySet":[]},"costPerPerson":-1,"spendingTime":{"hour":1.0,"standardDeviation":0.05},"isRestaurant":false},{"id":26567639,"name":"라마다앙코르 제주서귀포호텔","poiType":{"category":"숙박","subCategory":"호텔","subSubCategory":"특급호텔"},"address":"제주특별자치도 서귀포시 서호동 1524-7","location":{"latitude":33.25447837767813,"longitude":126.51926311639312},"score":4.0,"businessHours":{"businessHours":"00:00 ~ 24:00","closedDaySet":[]},"costPerPerson":-1,"spendingTime":{"hour":1.0,"standardDeviation":0.05},"isRestaurant":false},{"id":20615989,"name":"오랑제리펜션","poiType":{"category":"숙박","subCategory":"펜션","subSubCategory":""},"address":"제주특별자치도 서귀포시 법환동 680-1","location":{"latitude":33.2446971432738,"longitude":126.5145269156338},"score":3.0,"businessHours":{"businessHours":"00:00 ~ 24:00","closedDaySet":[]},"costPerPerson":-1,"spendingTime":{"hour":1.0,"standardDeviation":0.05},"isRestaurant":false},{"id":26522587,"name":"룸엣155","poiType":{"category":"숙박","subCategory":"펜션","subSubCategory":""},"address":"제주특별자치도 서귀포시 남원읍 신흥리 155","location":{"latitude":33.30065035303426,"longitude":126.76796963887864},"score":3.0,"businessHours":{"businessHours":"00:00 ~ 24:00","closedDaySet":[]},"costPerPerson":-1,"spendingTime":{"hour":1.0,"standardDeviation":0.05},"isRestaurant":false},{"id":8016361,"name":"한화리조트 제주","poiType":{"category":"숙박","subCategory":"콘도,리조트","subSubCategory":"한화리조트"},"address":"제주특별자치도 제주시 회천동 3-16","location":{"latitude":33.449019769067334,"longitude":126.6374775997212},"score":3.4,"businessHours":{"businessHours":"00:00 ~ 24:00","closedDaySet":[]},"costPerPerson":-1,"spendingTime":{"hour":1.0,"standardDeviation":0.05},"isRestaurant":false},{"id":11379388,"name":"대명리조트 제주","poiType":{"category":"숙박","subCategory":"콘도,리조트","subSubCategory":"대명리조트"},"address":"제주특별자치도 제주시 조천읍 함덕리 274","location":{"latitude":33.541402820794296,"longitude":126.67172082286355},"score":4.3,"businessHours":{"businessHours":"00:00 ~ 24:00","closedDaySet":[]},"costPerPerson":-1,"spendingTime":{"hour":1.0,"standardDeviation":0.05},"isRestaurant":false},{"id":17781592,"name":"스카이워커","poiType":{"category":"숙박","subCategory":"게스트하우스","subSubCategory":""},"address":"제주특별자치도 제주시 일도1동 1348-2","location":{"latitude":33.51406514467599,"longitude":126.52588360839789},"score":4.3,"businessHours":{"businessHours":"00:00 ~ 24:00","closedDaySet":[]},"costPerPerson":-1,"spendingTime":{"hour":1.0,"standardDeviation":0.05},"isRestaurant":false},{"id":26788803,"name":"바당정원","poiType":{"category":"숙박","subCategory":"펜션","subSubCategory":""},"address":"제주특별자치도 제주시 한경면 판포리 1793","location":{"latitude":33.36624141153378,"longitude":126.20686259005186},"score":5.0,"businessHours":{"businessHours":"00:00 ~ 24:00","closedDaySet":[]},"costPerPerson":-1,"spendingTime":{"hour":1.0,"standardDeviation":0.05},"isRestaurant":false},{"id":23114698,"name":"게스트하우스도치","poiType":{"category":"숙박","subCategory":"게스트하우스","subSubCategory":""},"address":"제주특별자치도 서귀포시 남원읍 위미리 2026-1","location":{"latitude":33.2767965537011,"longitude":126.66410999299113},"score":4.7,"businessHours":{"businessHours":"00:00 ~ 24:00","closedDaySet":[]},"costPerPerson":-1,"spendingTime":{"hour":1.0,"standardDeviation":0.05},"isRestaurant":false},{"id":1171150626,"name":"예스준 게스트하우스","poiType":{"category":"숙박","subCategory":"게스트하우스","subSubCategory":""},"address":"제주특별자치도 제주시 애월읍 하귀1리 623-8","location":{"latitude":33.48313857521188,"longitude":126.41205533739904},"score":5.0,"businessHours":{"businessHours":"00:00 ~ 24:00","closedDaySet":[]},"costPerPerson":-1,"spendingTime":{"hour":1.0,"standardDeviation":0.05},"isRestaurant":false},{"id":17605497,"name":"소담펜션","poiType":{"category":"숙박","subCategory":"펜션","subSubCategory":""},"address":"제주특별자치도 서귀포시 법환동 1528-1","location":{"latitude":33.2313999286774,"longitude":126.50810775204536},"score":4.3,"businessHours":{"businessHours":"00:00 ~ 24:00","closedDaySet":[]},"costPerPerson":-1,"spendingTime":{"hour":1.0,"standardDeviation":0.05},"isRestaurant":false},{"id":11219488,"name":"파인빌","poiType":{"category":"숙박","subCategory":"펜션","subSubCategory":""},"address":"제주특별자치도 서귀포시 보목동 1464","location":{"latitude":33.24441456434946,"longitude":126.59119252946519},"score":5.0,"businessHours":{"businessHours":"00:00 ~ 24:00","closedDaySet":[]},"costPerPerson":-1,"spendingTime":{"hour":1.0,"standardDeviation":0.05},"isRestaurant":false},{"id":27489052,"name":"메종드제주","poiType":{"category":"숙박","subCategory":"펜션","subSubCategory":""},"address":"제주특별자치도 제주시 한경면 두모리 2637-4","location":{"latitude":33.356510386203645,"longitude":126.1828168398562},"score":5.0,"businessHours":{"businessHours":"00:00 ~ 24:00","closedDaySet":[]},"costPerPerson":-1,"spendingTime":{"hour":1.0,"standardDeviation":0.05},"isRestaurant":false},{"id":2064886161,"name":"호텔창고펜션","poiType":{"category":"숙박","subCategory":"펜션","subSubCategory":""},"address":"제주특별자치도 서귀포시 남원읍 하례리 31-4","location":{"latitude":33.26185768190886,"longitude":126.63824691862251},"score":5.0,"businessHours":{"businessHours":"00:00 ~ 24:00","closedDaySet":[]},"costPerPerson":-1,"spendingTime":{"hour":1.0,"standardDeviation":0.05},"isRestaurant":false},{"id":878003934,"name":"제주 해호텔","poiType":{"category":"숙박","subCategory":"호텔","subSubCategory":""},"address":"제주특별자치도 제주시 용담3동 1161","location":{"latitude":33.51959480767614,"longitude":126.4952236771266},"score":5.0,"businessHours":{"businessHours":"00:00 ~ 24:00","closedDaySet":[]},"costPerPerson":-1,"spendingTime":{"hour":1.0,"standardDeviation":0.05},"isRestaurant":false},{"id":21021645,"name":"자인빌리지펜션","poiType":{"category":"숙박","subCategory":"펜션","subSubCategory":""},"address":"제주특별자치도 서귀포시 상효동 112-3","location":{"latitude":33.27484114592127,"longitude":126.60974001026145},"score":5.0,"businessHours":{"businessHours":"00:00 ~ 24:00","closedDaySet":[]},"costPerPerson":-1,"spendingTime":{"hour":1.0,"standardDeviation":0.05},"isRestaurant":false},{"id":23966650,"name":"오션스위츠 제주호텔","poiType":{"category":"숙박","subCategory":"호텔","subSubCategory":"특급호텔"},"address":"제주특별자치도 제주시 삼도2동 1260-1","location":{"latitude":33.5181374903152,"longitude":126.523092662971},"score":4.3,"businessHours":{"businessHours":"00:00 ~ 24:00","closedDaySet":[]},"costPerPerson":-1,"spendingTime":{"hour":1.0,"standardDeviation":0.05},"isRestaurant":false},{"id":8319639,"name":"외돌개나라게스트하우스","poiType":{"category":"숙박","subCategory":"게스트하우스","subSubCategory":""},"address":"제주특별자치도 서귀포시 서홍동 744-13","location":{"latitude":33.24202272427461,"longitude":126.5533447878278},"score":5.0,"businessHours":{"businessHours":"00:00 ~ 24:00","closedDaySet":[]},"costPerPerson":-1,"spendingTime":{"hour":1.0,"standardDeviation":0.05},"isRestaurant":false},{"id":8114804,"name":"가산토방","poiType":{"category":"숙박","subCategory":"펜션","subSubCategory":""},"address":"제주특별자치도 서귀포시 토평동 3077","location":{"latitude":33.2878050838875,"longitude":126.577682890179},"score":5.0,"businessHours":{"businessHours":"00:00 ~ 24:00","closedDaySet":[]},"costPerPerson":-1,"spendingTime":{"hour":1.0,"standardDeviation":0.05},"isRestaurant":false},{"id":26342223,"name":"연이네다락방","poiType":{"category":"숙박","subCategory":"게스트하우스","subSubCategory":""},"address":"제주특별자치도 제주시 구좌읍 동복리 1477-1","location":{"latitude":33.5525757234469,"longitude":126.71230842973475},"score":5.0,"businessHours":{"businessHours":"00:00 ~ 24:00","closedDaySet":[]},"costPerPerson":-1,"spendingTime":{"hour":1.0,"standardDeviation":0.05},"isRestaurant":false},{"id":2013358824,"name":"그랜드메르호텔제주","poiType":{"category":"숙박","subCategory":"호텔","subSubCategory":""},"address":"제주특별자치도 서귀포시 하예동 460-1","location":{"latitude":33.2396393971937,"longitude":126.386161956644},"score":3.5,"businessHours":{"businessHours":"00:00 ~ 24:00","closedDaySet":[]},"costPerPerson":-1,"spendingTime":{"hour":1.0,"standardDeviation":0.05},"isRestaurant":false},{"id":1867856948,"name":"제주까망게스트하우스","poiType":{"category":"숙박","subCategory":"게스트하우스","subSubCategory":""},"address":"제주특별자치도 제주시 한경면 신창리 1155-1","location":{"latitude":33.33979744764935,"longitude":126.1788227291774},"score":4.0,"businessHours":{"businessHours":"00:00 ~ 24:00","closedDaySet":[]},"costPerPerson":-1,"spendingTime":{"hour":1.0,"standardDeviation":0.05},"isRestaurant":false},{"id":12592048,"name":"올레해오름펜션","poiType":{"category":"숙박","subCategory":"펜션","subSubCategory":""},"address":"제주특별자치도 제주시 애월읍 광령리 2812-2","location":{"latitude":33.4322615378299,"longitude":126.432935726213},"score":5.0,"businessHours":{"businessHours":"00:00 ~ 24:00","closedDaySet":[]},"costPerPerson":-1,"spendingTime":{"hour":1.0,"standardDeviation":0.05},"isRestaurant":false},{"id":1562467866,"name":"피노호텔","poiType":{"category":"숙박","subCategory":"호텔","subSubCategory":""},"address":"제주특별자치도 서귀포시 서귀동 697-1","location":{"latitude":33.241394615971856,"longitude":126.56330942890412},"score":5.0,"businessHours":{"businessHours":"00:00 ~ 24:00","closedDaySet":[]},"costPerPerson":-1,"spendingTime":{"hour":1.0,"standardDeviation":0.05},"isRestaurant":false},{"id":19333664,"name":"레몬트리게스트하우스","poiType":{"category":"숙박","subCategory":"게스트하우스","subSubCategory":""},"address":"제주특별자치도 서귀포시 대정읍 하모리 770-2","location":{"latitude":33.2195705564628,"longitude":126.251366516994},"score":5.0,"businessHours":{"businessHours":"00:00 ~ 24:00","closedDaySet":[]},"costPerPerson":-1,"spendingTime":{"hour":1.0,"standardDeviation":0.05},"isRestaurant":false},{"id":27349601,"name":"골든튤립제주성산호텔","poiType":{"category":"숙박","subCategory":"호텔","subSubCategory":"특급호텔"},"address":"제주특별자치도 서귀포시 성산읍 고성리 329-3","location":{"latitude":33.448056740857396,"longitude":126.91640567414359},"score":4.0,"businessHours":{"businessHours":"00:00 ~ 24:00","closedDaySet":[]},"costPerPerson":-1,"spendingTime":{"hour":1.0,"standardDeviation":0.05},"isRestaurant":false},{"id":7963449,"name":"숲속의궁전","poiType":{"category":"숙박","subCategory":"펜션","subSubCategory":""},"address":"제주특별자치도 서귀포시 강정동 1275-1","location":{"latitude":33.2543086363356,"longitude":126.497410918488},"score":5.0,"businessHours":{"businessHours":"00:00 ~ 24:00","closedDaySet":[]},"costPerPerson":-1,"spendingTime":{"hour":1.0,"standardDeviation":0.05},"isRestaurant":false},{"id":23773741,"name":"켄싱턴제주호텔","poiType":{"category":"숙박","subCategory":"호텔","subSubCategory":""},"address":"제주특별자치도 서귀포시 색달동 2785","location":{"latitude":33.2525410375403,"longitude":126.407993006382},"score":4.0,"businessHours":{"businessHours":"00:00 ~ 24:00","closedDaySet":[]},"costPerPerson":-1,"spendingTime":{"hour":1.0,"standardDeviation":0.05},"isRestaurant":false},{"id":17805833,"name":"하이클래스제주","poiType":{"category":"숙박","subCategory":"콘도,리조트","subSubCategory":""},"address":"제주특별자치도 제주시 애월읍 애월리 2550","location":{"latitude":33.46391859655981,"longitude":126.309138841633},"score":1.5,"businessHours":{"businessHours":"00:00 ~ 24:00","closedDaySet":[]},"costPerPerson":-1,"spendingTime":{"hour":1.0,"standardDeviation":0.05},"isRestaurant":false},{"id":20505075,"name":"돔베리조트","poiType":{"category":"숙박","subCategory":"콘도,리조트","subSubCategory":""},"address":"제주특별자치도 서귀포시 호근동 1591","location":{"latitude":33.241508366644794,"longitude":126.53123996430536},"score":2.0,"businessHours":{"businessHours":"00:00 ~ 24:00","closedDaySet":[]},"costPerPerson":-1,"spendingTime":{"hour":1.0,"standardDeviation":0.05},"isRestaurant":false},{"id":24945197,"name":"비롯하우스","poiType":{"category":"숙박","subCategory":"게스트하우스","subSubCategory":""},"address":"제주특별자치도 제주시 조천읍 신촌리 2017","location":{"latitude":33.53766069233813,"longitude":126.62178422295102},"score":5.0,"businessHours":{"businessHours":"00:00 ~ 24:00","closedDaySet":[]},"costPerPerson":-1,"spendingTime":{"hour":1.0,"standardDeviation":0.05},"isRestaurant":false},{"id":21795417,"name":"더베이제주리조트","poiType":{"category":"숙박","subCategory":"콘도,리조트","subSubCategory":""},"address":"제주특별자치도 서귀포시 보목동 1252-1","location":{"latitude":33.2411642119489,"longitude":126.593495423706},"score":5.0,"businessHours":{"businessHours":"00:00 ~ 24:00","closedDaySet":[]},"costPerPerson":-1,"spendingTime":{"hour":1.0,"standardDeviation":0.05},"isRestaurant":false},{"id":19501553,"name":"펠리체리조트","poiType":{"category":"숙박","subCategory":"펜션","subSubCategory":""},"address":"제주특별자치도 서귀포시 호근동 479","location":{"latitude":33.244334859883395,"longitude":126.53480437220753},"score":5.0,"businessHours":{"businessHours":"00:00 ~ 24:00","closedDaySet":[]},"costPerPerson":-1,"spendingTime":{"hour":1.0,"standardDeviation":0.05},"isRestaurant":false},{"id":17945141,"name":"메가리조트","poiType":{"category":"숙박","subCategory":"콘도,리조트","subSubCategory":""},"address":"제주특별자치도 제주시 한경면 판포리 2872","location":{"latitude":33.364995350388135,"longitude":126.19927967430507},"score":5.0,"businessHours":{"businessHours":"00:00 ~ 24:00","closedDaySet":[]},"costPerPerson":-1,"spendingTime":{"hour":1.0,"standardDeviation":0.05},"isRestaurant":false},{"id":22237685,"name":"아인피플호텔","poiType":{"category":"숙박","subCategory":"호텔","subSubCategory":""},"address":"제주특별자치도 제주시 내도동 239-1","location":{"latitude":33.48941676136608,"longitude":126.44231751297602},"score":1.5,"businessHours":{"businessHours":"00:00 ~ 24:00","closedDaySet":[]},"costPerPerson":-1,"spendingTime":{"hour":1.0,"standardDeviation":0.05},"isRestaurant":false},{"id":1065946291,"name":"메리어트관 제주신화월드 호텔앤리조트","poiType":{"category":"숙박","subCategory":"콘도,리조트","subSubCategory":""},"address":"제주특별자치도 서귀포시 안덕면 서광리 산 24","location":{"latitude":33.307477339918336,"longitude":126.31768005460512},"score":5.0,"businessHours":{"businessHours":"00:00 ~ 24:00","closedDaySet":[]},"costPerPerson":-1,"spendingTime":{"hour":1.0,"standardDeviation":0.05},"isRestaurant":false},{"id":10367959,"name":"디셈버호텔","poiType":{"category":"숙박","subCategory":"호텔","subSubCategory":""},"address":"제주특별자치도 제주시 연동 260-58","location":{"latitude":33.49032085919816,"longitude":126.48964806974536},"score":5.0,"businessHours":{"businessHours":"00:00 ~ 24:00","closedDaySet":[]},"costPerPerson":-1,"spendingTime":{"hour":1.0,"standardDeviation":0.05},"isRestaurant":false},{"id":24973813,"name":"제주무이","poiType":{"category":"숙박","subCategory":"펜션","subSubCategory":""},"address":"제주특별자치도 제주시 애월읍 수산리 965-1","location":{"latitude":33.46908744706315,"longitude":126.38809226898907},"score":5.0,"businessHours":{"businessHours":"00:00 ~ 24:00","closedDaySet":[]},"costPerPerson":-1,"spendingTime":{"hour":1.0,"standardDeviation":0.05},"isRestaurant":false},{"id":20374053,"name":"빠담빠담게스트하우스","poiType":{"category":"숙박","subCategory":"민박","subSubCategory":""},"address":"제주특별자치도 서귀포시 표선면 표선리 2093","location":{"latitude":33.32963706627672,"longitude":126.81821418665052},"score":4.8,"businessHours":{"businessHours":"00:00 ~ 24:00","closedDaySet":[]},"costPerPerson":-1,"spendingTime":{"hour":1.0,"standardDeviation":0.05},"isRestaurant":false},{"id":7967458,"name":"제주신라호텔","poiType":{"category":"숙박","subCategory":"호텔","subSubCategory":"특급호텔"},"address":"제주특별자치도 서귀포시 색달동 3039-3","location":{"latitude":33.2474884723283,"longitude":126.408018489193},"score":4.2,"businessHours":{"businessHours":"00:00 ~ 24:00","closedDaySet":[]},"costPerPerson":-1,"spendingTime":{"hour":1.0,"standardDeviation":0.05},"isRestaurant":false},{"id":19030662,"name":"초콜릿펜션","poiType":{"category":"숙박","subCategory":"펜션","subSubCategory":""},"address":"제주특별자치도 제주시 이호1동 292-1","location":{"latitude":33.49941514643055,"longitude":126.46387493519822},"score":5.0,"businessHours":{"businessHours":"00:00 ~ 24:00","closedDaySet":[]},"costPerPerson":-1,"spendingTime":{"hour":1.0,"standardDeviation":0.05},"isRestaurant":false},{"id":17646208,"name":"부띠끄풀빌라 루온토","poiType":{"category":"숙박","subCategory":"펜션","subSubCategory":""},"address":"제주특별자치도 제주시 한경면 판포리 1684","location":{"latitude":33.3656988646863,"longitude":126.20324013462209},"score":5.0,"businessHours":{"businessHours":"00:00 ~ 24:00","closedDaySet":[]},"costPerPerson":-1,"spendingTime":{"hour":1.0,"standardDeviation":0.05},"isRestaurant":false},{"id":20497040,"name":"올레풍차펜션","poiType":{"category":"숙박","subCategory":"펜션","subSubCategory":""},"address":"제주특별자치도 서귀포시 안덕면 창천리 890-4","location":{"latitude":33.2379191004363,"longitude":126.366028879694},"score":3.7,"businessHours":{"businessHours":"00:00 ~ 24:00","closedDaySet":[]},"costPerPerson":-1,"spendingTime":{"hour":1.0,"standardDeviation":0.05},"isRestaurant":false},{"id":1832754827,"name":"욜로랄라 게스트하우스","poiType":{"category":"숙박","subCategory":"게스트하우스","subSubCategory":""},"address":"제주특별자치도 제주시 구좌읍 월정리 569-1","location":{"latitude":33.55596113300475,"longitude":126.79469770753548},"score":5.0,"businessHours":{"businessHours":"00:00 ~ 24:00","closedDaySet":[]},"costPerPerson":-1,"spendingTime":{"hour":1.0,"standardDeviation":0.05},"isRestaurant":false},{"id":22536873,"name":"킴스캐빈게스트하우스","poiType":{"category":"숙박","subCategory":"게스트하우스","subSubCategory":""},"address":"제주특별자치도 서귀포시 성산읍 시흥리 1834-1","location":{"latitude":33.47450392180078,"longitude":126.88664783095408},"score":4.0,"businessHours":{"businessHours":"00:00 ~ 24:00","closedDaySet":[]},"costPerPerson":-1,"spendingTime":{"hour":1.0,"standardDeviation":0.05},"isRestaurant":false},{"id":27316725,"name":"제주 풍경호텔","poiType":{"category":"숙박","subCategory":"호텔","subSubCategory":""},"address":"제주특별자치도 서귀포시 서홍동 586","location":{"latitude":33.24482551668349,"longitude":126.55349358836315},"score":4.0,"businessHours":{"businessHours":"00:00 ~ 24:00","closedDaySet":[]},"costPerPerson":-1,"spendingTime":{"hour":1.0,"standardDeviation":0.05},"isRestaurant":false},{"id":22356594,"name":"스파벨리스","poiType":{"category":"숙박","subCategory":"펜션","subSubCategory":""},"address":"제주특별자치도 제주시 조천읍 와흘리 2160-3","location":{"latitude":33.4951352176308,"longitude":126.623360040549},"score":5.0,"businessHours":{"businessHours":"00:00 ~ 24:00","closedDaySet":[]},"costPerPerson":-1,"spendingTime":{"hour":1.0,"standardDeviation":0.05},"isRestaurant":false},{"id":27124277,"name":"해변풍경펜션","poiType":{"category":"숙박","subCategory":"펜션","subSubCategory":""},"address":"제주특별자치도 제주시 도두2동 1621","location":{"latitude":33.507392129165645,"longitude":126.47558671109729},"score":5.0,"businessHours":{"businessHours":"00:00 ~ 24:00","closedDaySet":[]},"costPerPerson":-1,"spendingTime":{"hour":1.0,"standardDeviation":0.05},"isRestaurant":false},{"id":27116088,"name":"씨스테이호텔","poiType":{"category":"숙박","subCategory":"호텔","subSubCategory":""},"address":"제주특별자치도 제주시 애월읍 고내리 1105-1","location":{"latitude":33.46758343803334,"longitude":126.33899348655609},"score":4.0,"businessHours":{"businessHours":"00:00 ~ 24:00","closedDaySet":[]},"costPerPerson":-1,"spendingTime":{"hour":1.0,"standardDeviation":0.05},"isRestaurant":false},{"id":9642791,"name":"해와바다 게스트하우스","poiType":{"category":"숙박","subCategory":"게스트하우스","subSubCategory":""},"address":"제주특별자치도 서귀포시 성산읍 오조리 11","location":{"latitude":33.46913178076938,"longitude":126.92043865061385},"score":5.0,"businessHours":{"businessHours":"00:00 ~ 24:00","closedDaySet":[]},"costPerPerson":-1,"spendingTime":{"hour":1.0,"standardDeviation":0.05},"isRestaurant":false},{"id":26489389,"name":"베터플레이스","poiType":{"category":"숙박","subCategory":"게스트하우스","subSubCategory":""},"address":"제주특별자치도 서귀포시 보목동 1310-7","location":{"latitude":33.243115536107666,"longitude":126.59759791613854},"score":5.0,"businessHours":{"businessHours":"00:00 ~ 24:00","closedDaySet":[]},"costPerPerson":-1,"spendingTime":{"hour":1.0,"standardDeviation":0.05},"isRestaurant":false},{"id":25633362,"name":"수앤수가족호텔","poiType":{"category":"숙박","subCategory":"호텔","subSubCategory":""},"address":"제주특별자치도 제주시 애월읍 신엄리 2946-4","location":{"latitude":33.47454584861134,"longitude":126.35859356290763},"score":3.3,"businessHours":{"businessHours":"00:00 ~ 24:00","closedDaySet":[]},"costPerPerson":-1,"spendingTime":{"hour":1.0,"standardDeviation":0.05},"isRestaurant":false},{"id":12501795,"name":"포도호텔","poiType":{"category":"숙박","subCategory":"호텔","subSubCategory":""},"address":"제주특별자치도 서귀포시 안덕면 상천리 산 62-3","location":{"latitude":33.3178988308951,"longitude":126.387456776353},"score":4.2,"businessHours":{"businessHours":"00:00 ~ 24:00","closedDaySet":[]},"costPerPerson":-1,"spendingTime":{"hour":1.0,"standardDeviation":0.05},"isRestaurant":false},{"id":27497860,"name":"말짜하우스","poiType":{"category":"숙박","subCategory":"게스트하우스","subSubCategory":""},"address":"제주특별자치도 서귀포시 법환동 163","location":{"latitude":33.23530727057653,"longitude":126.51397813385202},"score":5.0,"businessHours":{"businessHours":"00:00 ~ 24:00","closedDaySet":[]},"costPerPerson":-1,"spendingTime":{"hour":1.0,"standardDeviation":0.05},"isRestaurant":false},{"id":23950662,"name":"중문비치호텔","poiType":{"category":"숙박","subCategory":"호텔","subSubCategory":""},"address":"제주특별자치도 서귀포시 색달동 2534-1","location":{"latitude":33.25743716442472,"longitude":126.4131630225516},"score":3.0,"businessHours":{"businessHours":"00:00 ~ 24:00","closedDaySet":[]},"costPerPerson":-1,"spendingTime":{"hour":1.0,"standardDeviation":0.05},"isRestaurant":false},{"id":8066130,"name":"제주KAL호텔","poiType":{"category":"숙박","subCategory":"호텔","subSubCategory":"특급호텔"},"address":"제주특별자치도 제주시 이도1동 1691-7","location":{"latitude":33.50586615098448,"longitude":126.52636323845464},"score":4.5,"businessHours":{"businessHours":"00:00 ~ 24:00","closedDaySet":[]},"costPerPerson":-1,"spendingTime":{"hour":1.0,"standardDeviation":0.05},"isRestaurant":false},{"id":26314108,"name":"스쿠버스토리 \u0026게스트하우스","poiType":{"category":"숙박","subCategory":"게스트하우스","subSubCategory":""},"address":"제주특별자치도 서귀포시 동홍동 192-39","location":{"latitude":33.251837127460334,"longitude":126.57626326801935},"score":5.0,"businessHours":{"businessHours":"00:00 ~ 24:00","closedDaySet":[]},"costPerPerson":-1,"spendingTime":{"hour":1.0,"standardDeviation":0.05},"isRestaurant":false},{"id":1340230571,"name":"호텔더본 제주","poiType":{"category":"숙박","subCategory":"호텔","subSubCategory":""},"address":"제주특별자치도 서귀포시 색달동 2138","location":{"latitude":33.25954037346316,"longitude":126.40647375006562},"score":5.0,"businessHours":{"businessHours":"00:00 ~ 24:00","closedDaySet":[]},"costPerPerson":-1,"spendingTime":{"hour":1.0,"standardDeviation":0.05},"isRestaurant":false},{"id":21419345,"name":"땡큐베리펜션","poiType":{"category":"숙박","subCategory":"펜션","subSubCategory":""},"address":"제주특별자치도 서귀포시 서귀동 756-5","location":{"latitude":33.24111475078915,"longitude":126.56577435271709},"score":5.0,"businessHours":{"businessHours":"00:00 ~ 24:00","closedDaySet":[]},"costPerPerson":-1,"spendingTime":{"hour":1.0,"standardDeviation":0.05},"isRestaurant":false},{"id":25982374,"name":"엠스테이호텔","poiType":{"category":"숙박","subCategory":"호텔","subSubCategory":""},"address":"제주특별자치도 서귀포시 서귀동 829-5","location":{"latitude":33.24685298272,"longitude":126.56073267251739},"score":2.9,"businessHours":{"businessHours":"00:00 ~ 24:00","closedDaySet":[]},"costPerPerson":-1,"spendingTime":{"hour":1.0,"standardDeviation":0.05},"isRestaurant":false},{"id":21677315,"name":"제주라포즈펜션","poiType":{"category":"숙박","subCategory":"펜션","subSubCategory":""},"address":"제주특별자치도 서귀포시 하원동 155-1","location":{"latitude":33.26302105742161,"longitude":126.46609568055766},"score":4.5,"businessHours":{"businessHours":"00:00 ~ 24:00","closedDaySet":[]},"costPerPerson":-1,"spendingTime":{"hour":1.0,"standardDeviation":0.05},"isRestaurant":false},{"id":25626064,"name":"제주도독채펜션 마레카","poiType":{"category":"숙박","subCategory":"펜션","subSubCategory":""},"address":"제주특별자치도 제주시 한림읍 금능리 1682-5","location":{"latitude":33.388184609204,"longitude":126.224934398339},"score":5.0,"businessHours":{"businessHours":"00:00 ~ 24:00","closedDaySet":[]},"costPerPerson":-1,"spendingTime":{"hour":1.0,"standardDeviation":0.05},"isRestaurant":false},{"id":18773327,"name":"로긴","poiType":{"category":"숙박","subCategory":"콘도,리조트","subSubCategory":""},"address":"제주특별자치도 제주시 용담3동 2389","location":{"latitude":33.51696043754291,"longitude":126.48866034478637},"score":5.0,"businessHours":{"businessHours":"00:00 ~ 24:00","closedDaySet":[]},"costPerPerson":-1,"spendingTime":{"hour":1.0,"standardDeviation":0.05},"isRestaurant":false},{"id":23536893,"name":"라마다앙코르이스트호텔","poiType":{"category":"숙박","subCategory":"호텔","subSubCategory":"특급호텔"},"address":"제주특별자치도 서귀포시 서호동 1522-2","location":{"latitude":33.25436609778956,"longitude":126.52007072251192},"score":4.0,"businessHours":{"businessHours":"00:00 ~ 24:00","closedDaySet":[]},"costPerPerson":-1,"spendingTime":{"hour":1.0,"standardDeviation":0.05},"isRestaurant":false},{"id":8164322,"name":"호텔로베로","poiType":{"category":"숙박","subCategory":"호텔","subSubCategory":""},"address":"제주특별자치도 제주시 삼도2동 57-2","location":{"latitude":33.51282049262552,"longitude":126.52202002559727},"score":3.0,"businessHours":{"businessHours":"00:00 ~ 24:00","closedDaySet":[]},"costPerPerson":-1,"spendingTime":{"hour":1.0,"standardDeviation":0.05},"isRestaurant":false},{"id":22730174,"name":"돈내코힐리조트","poiType":{"category":"숙박","subCategory":"콘도,리조트","subSubCategory":""},"address":"제주특별자치도 서귀포시 상효동 2200","location":{"latitude":33.30263723801775,"longitude":126.57810002286377},"score":1.5,"businessHours":{"businessHours":"00:00 ~ 24:00","closedDaySet":[]},"costPerPerson":-1,"spendingTime":{"hour":1.0,"standardDeviation":0.05},"isRestaurant":false},{"id":22013350,"name":"산방산온천게스트하우스","poiType":{"category":"숙박","subCategory":"게스트하우스","subSubCategory":""},"address":"제주특별자치도 서귀포시 안덕면 사계리 981","location":{"latitude":33.24870397795032,"longitude":126.29944463382512},"score":3.4,"businessHours":{"businessHours":"00:00 ~ 24:00","closedDaySet":[]},"costPerPerson":-1,"spendingTime":{"hour":1.0,"standardDeviation":0.05},"isRestaurant":false},{"id":24892873,"name":"노란잠수함게스트하우스","poiType":{"category":"숙박","subCategory":"게스트하우스","subSubCategory":""},"address":"제주특별자치도 서귀포시 남원읍 신례리 273-5","location":{"latitude":33.26874238215638,"longitude":126.64443073170374},"score":5.0,"businessHours":{"businessHours":"00:00 ~ 24:00","closedDaySet":[]},"costPerPerson":-1,"spendingTime":{"hour":1.0,"standardDeviation":0.05},"isRestaurant":false},{"id":26842343,"name":"제이뷰호텔","poiType":{"category":"숙박","subCategory":"호텔","subSubCategory":""},"address":"제주특별자치도 서귀포시 색달동 1622-2","location":{"latitude":33.26460804055197,"longitude":126.41648065234469},"score":4.7,"businessHours":{"businessHours":"00:00 ~ 24:00","closedDaySet":[]},"costPerPerson":-1,"spendingTime":{"hour":1.0,"standardDeviation":0.05},"isRestaurant":false},{"id":426339752,"name":"미소게스트하우스","poiType":{"category":"숙박","subCategory":"게스트하우스","subSubCategory":""},"address":"제주특별자치도 제주시 일도1동 1416-1","location":{"latitude":33.513339499119965,"longitude":126.52380814485815},"score":5.0,"businessHours":{"businessHours":"00:00 ~ 24:00","closedDaySet":[]},"costPerPerson":-1,"spendingTime":{"hour":1.0,"standardDeviation":0.05},"isRestaurant":false},{"id":17319327,"name":"바산올레펜션","poiType":{"category":"숙박","subCategory":"펜션","subSubCategory":""},"address":"제주특별자치도 서귀포시 안덕면 창천리 844-15","location":{"latitude":33.2365954569415,"longitude":126.363896923415},"score":5.0,"businessHours":{"businessHours":"00:00 ~ 24:00","closedDaySet":[]},"costPerPerson":-1,"spendingTime":{"hour":1.0,"standardDeviation":0.05},"isRestaurant":false},{"id":8709139,"name":"길섶나그네휴양펜션","poiType":{"category":"숙박","subCategory":"펜션","subSubCategory":""},"address":"제주특별자치도 제주시 조천읍 와산리 1303-6","location":{"latitude":33.46768186065169,"longitude":126.67879462366955},"score":5.0,"businessHours":{"businessHours":"00:00 ~ 24:00","closedDaySet":[]},"costPerPerson":-1,"spendingTime":{"hour":1.0,"standardDeviation":0.05},"isRestaurant":false},{"id":1617458355,"name":"제주 블랙샌즈 호텔","poiType":{"category":"숙박","subCategory":"호텔","subSubCategory":""},"address":"제주특별자치도 제주시 삼양2동 2140-1","location":{"latitude":33.521920417917215,"longitude":126.5873386048498},"score":5.0,"businessHours":{"businessHours":"00:00 ~ 24:00","closedDaySet":[]},"costPerPerson":-1,"spendingTime":{"hour":1.0,"standardDeviation":0.05},"isRestaurant":false},{"id":1226251698,"name":"호텔메이저2","poiType":{"category":"숙박","subCategory":"호텔","subSubCategory":""},"address":"제주특별자치도 제주시 연동 273-54","location":{"latitude":33.4865464345381,"longitude":126.491524384186},"score":5.0,"businessHours":{"businessHours":"00:00 ~ 24:00","closedDaySet":[]},"costPerPerson":-1,"spendingTime":{"hour":1.0,"standardDeviation":0.05},"isRestaurant":false},{"id":8324245,"name":"드가비치펜션","poiType":{"category":"숙박","subCategory":"펜션","subSubCategory":""},"address":"제주특별자치도 제주시 애월읍 곽지리 1613","location":{"latitude":33.449145755606594,"longitude":126.30567694911959},"score":5.0,"businessHours":{"businessHours":"00:00 ~ 24:00","closedDaySet":[]},"costPerPerson":-1,"spendingTime":{"hour":1.0,"standardDeviation":0.05},"isRestaurant":false},{"id":24728979,"name":"조유암펜션","poiType":{"category":"숙박","subCategory":"펜션","subSubCategory":""},"address":"제주특별자치도 서귀포시 안덕면 창천리 818-2","location":{"latitude":33.2333574128454,"longitude":126.367546639095},"score":5.0,"businessHours":{"businessHours":"00:00 ~ 24:00","closedDaySet":[]},"costPerPerson":-1,"spendingTime":{"hour":1.0,"standardDeviation":0.05},"isRestaurant":false},{"id":25969998,"name":"씨엘블루호텔","poiType":{"category":"숙박","subCategory":"호텔","subSubCategory":""},"address":"제주특별자치도 제주시 용담3동 2555","location":{"latitude":33.51155734429636,"longitude":126.48499409169997},"score":4.4,"businessHours":{"businessHours":"00:00 ~ 24:00","closedDaySet":[]},"costPerPerson":-1,"spendingTime":{"hour":1.0,"standardDeviation":0.05},"isRestaurant":false},{"id":21763471,"name":"볕들이펜션","poiType":{"category":"숙박","subCategory":"펜션","subSubCategory":""},"address":"제주특별자치도 서귀포시 성산읍 성산리 125-2","location":{"latitude":33.46272110291556,"longitude":126.93519029496808},"score":5.0,"businessHours":{"businessHours":"00:00 ~ 24:00","closedDaySet":[]},"costPerPerson":-1,"spendingTime":{"hour":1.0,"standardDeviation":0.05},"isRestaurant":false},{"id":18224608,"name":"라림부띠끄호텔","poiType":{"category":"숙박","subCategory":"호텔","subSubCategory":""},"address":"제주특별자치도 서귀포시 안덕면 창천리 907-1","location":{"latitude":33.23682382144859,"longitude":126.36294341477333},"score":4.5,"businessHours":{"businessHours":"00:00 ~ 24:00","closedDaySet":[]},"costPerPerson":-1,"spendingTime":{"hour":1.0,"standardDeviation":0.05},"isRestaurant":false},{"id":14103556,"name":"그림같은풍경","poiType":{"category":"숙박","subCategory":"펜션","subSubCategory":""},"address":"제주특별자치도 서귀포시 대정읍 신도리 2413","location":{"latitude":33.26863795696405,"longitude":126.1790267987719},"score":5.0,"businessHours":{"businessHours":"00:00 ~ 24:00","closedDaySet":[]},"costPerPerson":-1,"spendingTime":{"hour":1.0,"standardDeviation":0.05},"isRestaurant":false},{"id":24511555,"name":"마린포트리조트","poiType":{"category":"숙박","subCategory":"콘도,리조트","subSubCategory":""},"address":"제주특별자치도 서귀포시 강정동 2483-3","location":{"latitude":33.23544714619789,"longitude":126.49482408516937},"score":4.5,"businessHours":{"businessHours":"00:00 ~ 24:00","closedDaySet":[]},"costPerPerson":-1,"spendingTime":{"hour":1.0,"standardDeviation":0.05},"isRestaurant":false},{"id":17519644,"name":"노을담은뜨락","poiType":{"category":"숙박","subCategory":"펜션","subSubCategory":""},"address":"제주특별자치도 서귀포시 대정읍 무릉리 3878-9","location":{"latitude":33.2562699105969,"longitude":126.190379041545},"score":5.0,"businessHours":{"businessHours":"00:00 ~ 24:00","closedDaySet":[]},"costPerPerson":-1,"spendingTime":{"hour":1.0,"standardDeviation":0.05},"isRestaurant":false},{"id":17892356,"name":"뷰티풀하우스","poiType":{"category":"숙박","subCategory":"펜션","subSubCategory":""},"address":"제주특별자치도 서귀포시 대포동 1266-1","location":{"latitude":33.2431325819837,"longitude":126.44655943792},"score":5.0,"businessHours":{"businessHours":"00:00 ~ 24:00","closedDaySet":[]},"costPerPerson":-1,"spendingTime":{"hour":1.0,"standardDeviation":0.05},"isRestaurant":false},{"id":24572915,"name":"켄싱턴리조트 서귀포점","poiType":{"category":"숙박","subCategory":"콘도,리조트","subSubCategory":"켄싱턴리조트"},"address":"제주특별자치도 서귀포시 강정동 2677","location":{"latitude":33.23377539758734,"longitude":126.4890659685395},"score":1.9,"businessHours":{"businessHours":"00:00 ~ 24:00","closedDaySet":[]},"costPerPerson":-1,"spendingTime":{"hour":1.0,"standardDeviation":0.05},"isRestaurant":false},{"id":12658053,"name":"솔바람풍경소리","poiType":{"category":"숙박","subCategory":"펜션","subSubCategory":""},"address":"제주특별자치도 서귀포시 남원읍 태흥리 1936-6","location":{"latitude":33.29047036710086,"longitude":126.7246113413597},"score":4.2,"businessHours":{"businessHours":"00:00 ~ 24:00","closedDaySet":[]},"costPerPerson":-1,"spendingTime":{"hour":1.0,"standardDeviation":0.05},"isRestaurant":false},{"id":26891476,"name":"해든호텔","poiType":{"category":"숙박","subCategory":"호텔","subSubCategory":""},"address":"제주특별자치도 제주시 도두1동 1750","location":{"latitude":33.5065575573232,"longitude":126.46987419987},"score":2.8,"businessHours":{"businessHours":"00:00 ~ 24:00","closedDaySet":[]},"costPerPerson":-1,"spendingTime":{"hour":1.0,"standardDeviation":0.05},"isRestaurant":false},{"id":21750786,"name":"레브호텔","poiType":{"category":"숙박","subCategory":"호텔","subSubCategory":""},"address":"제주특별자치도 제주시 연동 292-17","location":{"latitude":33.489077137900836,"longitude":126.49414879588184},"score":4.5,"businessHours":{"businessHours":"00:00 ~ 24:00","closedDaySet":[]},"costPerPerson":-1,"spendingTime":{"hour":1.0,"standardDeviation":0.05},"isRestaurant":false},{"id":26772683,"name":"한라궁호텔","poiType":{"category":"숙박","subCategory":"호텔","subSubCategory":""},"address":"제주특별자치도 서귀포시 토평동 581-1","location":{"latitude":33.248460981350384,"longitude":126.57824545029197},"score":2.5,"businessHours":{"businessHours":"00:00 ~ 24:00","closedDaySet":[]},"costPerPerson":-1,"spendingTime":{"hour":1.0,"standardDeviation":0.05},"isRestaurant":false},{"id":26600651,"name":"달이봉봉","poiType":{"category":"숙박","subCategory":"펜션","subSubCategory":""},"address":"제주특별자치도 서귀포시 토평동 631-1","location":{"latitude":33.247904547897846,"longitude":126.58542468401605},"score":5.0,"businessHours":{"businessHours":"00:00 ~ 24:00","closedDaySet":[]},"costPerPerson":-1,"spendingTime":{"hour":1.0,"standardDeviation":0.05},"isRestaurant":false},{"id":27317440,"name":"제주 나폴리 리조트","poiType":{"category":"숙박","subCategory":"펜션","subSubCategory":""},"address":"제주특별자치도 서귀포시 대포동 2065","location":{"latitude":33.24017379031493,"longitude":126.43668600264732},"score":5.0,"businessHours":{"businessHours":"00:00 ~ 24:00","closedDaySet":[]},"costPerPerson":-1,"spendingTime":{"hour":1.0,"standardDeviation":0.05},"isRestaurant":false},{"id":26625018,"name":"수하리839","poiType":{"category":"숙박","subCategory":"게스트하우스","subSubCategory":""},"address":"제주특별자치도 서귀포시 성산읍 온평리 839","location":{"latitude":33.407763992201986,"longitude":126.8999153871722},"score":5.0,"businessHours":{"businessHours":"00:00 ~ 24:00","closedDaySet":[]},"costPerPerson":-1,"spendingTime":{"hour":1.0,"standardDeviation":0.05},"isRestaurant":false},{"id":23610578,"name":"씨앤힐스파펜션","poiType":{"category":"숙박","subCategory":"펜션","subSubCategory":""},"address":"제주특별자치도 제주시 애월읍 고내리 76-1","location":{"latitude":33.472941378661325,"longitude":126.35243032351438},"score":5.0,"businessHours":{"businessHours":"00:00 ~ 24:00","closedDaySet":[]},"costPerPerson":-1,"spendingTime":{"hour":1.0,"standardDeviation":0.05},"isRestaurant":false},{"id":1486097641,"name":"동행 게스트하우스","poiType":{"category":"숙박","subCategory":"게스트하우스","subSubCategory":""},"address":"제주특별자치도 제주시 한림읍 귀덕리 4167","location":{"latitude":33.4407077357332,"longitude":126.27684198052619},"score":5.0,"businessHours":{"businessHours":"00:00 ~ 24:00","closedDaySet":[]},"costPerPerson":-1,"spendingTime":{"hour":1.0,"standardDeviation":0.05},"isRestaurant":false},{"id":24962244,"name":"와락게스트하우스","poiType":{"category":"숙박","subCategory":"게스트하우스","subSubCategory":""},"address":"제주특별자치도 제주시 구좌읍 평대리 3346-10","location":{"latitude":33.52755288925031,"longitude":126.8547780088947},"score":4.7,"businessHours":{"businessHours":"00:00 ~ 24:00","closedDaySet":[]},"costPerPerson":-1,"spendingTime":{"hour":1.0,"standardDeviation":0.05},"isRestaurant":false},{"id":24577208,"name":"아빌로스","poiType":{"category":"숙박","subCategory":"호텔","subSubCategory":""},"address":"제주특별자치도 제주시 도련1동 1938-5","location":{"latitude":33.51649076811165,"longitude":126.58029928640923},"score":5.0,"businessHours":{"businessHours":"00:00 ~ 24:00","closedDaySet":[]},"costPerPerson":-1,"spendingTime":{"hour":1.0,"standardDeviation":0.05},"isRestaurant":false},{"id":978980828,"name":"소곤닥하우스","poiType":{"category":"숙박","subCategory":"펜션","subSubCategory":""},"address":"제주특별자치도 제주시 조천읍 함덕리 1240-1","location":{"latitude":33.54284797526547,"longitude":126.6633258149358},"score":3.2,"businessHours":{"businessHours":"00:00 ~ 24:00","closedDaySet":[]},"costPerPerson":-1,"spendingTime":{"hour":1.0,"standardDeviation":0.05},"isRestaurant":false},{"id":17474700,"name":"귤낭하우스","poiType":{"category":"숙박","subCategory":"펜션","subSubCategory":""},"address":"제주특별자치도 서귀포시 법환동 94-3","location":{"latitude":33.243384276224546,"longitude":126.52192924069944},"score":4.7,"businessHours":{"businessHours":"00:00 ~ 24:00","closedDaySet":[]},"costPerPerson":-1,"spendingTime":{"hour":1.0,"standardDeviation":0.05},"isRestaurant":false},{"id":17462416,"name":"제주야자원","poiType":{"category":"숙박","subCategory":"펜션","subSubCategory":""},"address":"제주특별자치도 서귀포시 표선면 하천리 1385-4","location":{"latitude":33.3608025476217,"longitude":126.824458059085},"score":5.0,"businessHours":{"businessHours":"00:00 ~ 24:00","closedDaySet":[]},"costPerPerson":-1,"spendingTime":{"hour":1.0,"standardDeviation":0.05},"isRestaurant":false},{"id":15775034,"name":"지중해리조트","poiType":{"category":"숙박","subCategory":"콘도,리조트","subSubCategory":""},"address":"제주특별자치도 서귀포시 남원읍 태흥리 1148","location":{"latitude":33.282951307022884,"longitude":126.74679179679308},"score":3.5,"businessHours":{"businessHours":"00:00 ~ 24:00","closedDaySet":[]},"costPerPerson":-1,"spendingTime":{"hour":1.0,"standardDeviation":0.05},"isRestaurant":false},{"id":1431810248,"name":"성산일출봉 기차펜션","poiType":{"category":"숙박","subCategory":"펜션","subSubCategory":""},"address":"제주특별자치도 서귀포시 성산읍 난산리 2958-5","location":{"latitude":33.409184720625944,"longitude":126.82549529480147},"score":5.0,"businessHours":{"businessHours":"00:00 ~ 24:00","closedDaySet":[]},"costPerPerson":-1,"spendingTime":{"hour":1.0,"standardDeviation":0.05},"isRestaurant":false},{"id":22676688,"name":"제주R호텔","poiType":{"category":"숙박","subCategory":"여관,모텔","subSubCategory":""},"address":"제주특별자치도 제주시 삼도1동 565-19","location":{"latitude":33.499396138318055,"longitude":126.5179143028279},"score":5.0,"businessHours":{"businessHours":"00:00 ~ 24:00","closedDaySet":[]},"costPerPerson":-1,"spendingTime":{"hour":1.0,"standardDeviation":0.05},"isRestaurant":false},{"id":25449502,"name":"무명화가의집","poiType":{"category":"숙박","subCategory":"게스트하우스","subSubCategory":""},"address":"제주특별자치도 서귀포시 성산읍 시흥리 139","location":{"latitude":33.471551544110135,"longitude":126.90509967824988},"score":5.0,"businessHours":{"businessHours":"00:00 ~ 24:00","closedDaySet":[]},"costPerPerson":-1,"spendingTime":{"hour":1.0,"standardDeviation":0.05},"isRestaurant":false},{"id":1660831497,"name":"더스테이 센추리호텔","poiType":{"category":"숙박","subCategory":"호텔","subSubCategory":""},"address":"제주특별자치도 제주시 애월읍 하귀1리 544-2","location":{"latitude":33.48488384373503,"longitude":126.40898781865289},"score":5.0,"businessHours":{"businessHours":"00:00 ~ 24:00","closedDaySet":[]},"costPerPerson":-1,"spendingTime":{"hour":1.0,"standardDeviation":0.05},"isRestaurant":false},{"id":10409257,"name":"바다스케치","poiType":{"category":"숙박","subCategory":"콘도,리조트","subSubCategory":""},"address":"제주특별자치도 서귀포시 안덕면 사계리 150","location":{"latitude":33.23490574748475,"longitude":126.30975144821417},"score":5.0,"businessHours":{"businessHours":"00:00 ~ 24:00","closedDaySet":[]},"costPerPerson":-1,"spendingTime":{"hour":1.0,"standardDeviation":0.05},"isRestaurant":false},{"id":27386976,"name":"호텔 리젠트마린 더 블루","poiType":{"category":"숙박","subCategory":"호텔","subSubCategory":""},"address":"제주특별자치도 제주시 건입동 1443","location":{"latitude":33.51741876873599,"longitude":126.52675218504842},"score":3.0,"businessHours":{"businessHours":"00:00 ~ 24:00","closedDaySet":[]},"costPerPerson":-1,"spendingTime":{"hour":1.0,"standardDeviation":0.05},"isRestaurant":false},{"id":9876778,"name":"베니스호텔","poiType":{"category":"숙박","subCategory":"여관,모텔","subSubCategory":""},"address":"제주특별자치도 제주시 노형동 930-15","location":{"latitude":33.4856434824929,"longitude":126.483347980611},"score":3.7,"businessHours":{"businessHours":"00:00 ~ 24:00","closedDaySet":[]},"costPerPerson":-1,"spendingTime":{"hour":1.0,"standardDeviation":0.05},"isRestaurant":false},{"id":19182768,"name":"중문통나무펜션\u0026리조트","poiType":{"category":"숙박","subCategory":"펜션","subSubCategory":""},"address":"제주특별자치도 서귀포시 대포동 342-2","location":{"latitude":33.26350318966331,"longitude":126.45096446178803},"score":5.0,"businessHours":{"businessHours":"00:00 ~ 24:00","closedDaySet":[]},"costPerPerson":-1,"spendingTime":{"hour":1.0,"standardDeviation":0.05},"isRestaurant":false},{"id":638202822,"name":"제주담스파빌","poiType":{"category":"숙박","subCategory":"콘도,리조트","subSubCategory":""},"address":"제주특별자치도 제주시 한림읍 금능리 1803-2","location":{"latitude":33.38560510757517,"longitude":126.22530476911552},"score":5.0,"businessHours":{"businessHours":"00:00 ~ 24:00","closedDaySet":[]},"costPerPerson":-1,"spendingTime":{"hour":1.0,"standardDeviation":0.05},"isRestaurant":false},{"id":332752393,"name":"롱아일랜드 게스트하우스","poiType":{"category":"숙박","subCategory":"게스트하우스","subSubCategory":""},"address":"제주특별자치도 서귀포시 성산읍 성산리 299-1","location":{"latitude":33.46611462064936,"longitude":126.93495535626354},"score":5.0,"businessHours":{"businessHours":"00:00 ~ 24:00","closedDaySet":[]},"costPerPerson":-1,"spendingTime":{"hour":1.0,"standardDeviation":0.05},"isRestaurant":false},{"id":27481988,"name":"팜스빌리지","poiType":{"category":"숙박","subCategory":"펜션","subSubCategory":""},"address":"제주특별자치도 제주시 한림읍 귀덕리 3116","location":{"latitude":33.4425207134903,"longitude":126.284859967086},"score":4.7,"businessHours":{"businessHours":"00:00 ~ 24:00","closedDaySet":[]},"costPerPerson":-1,"spendingTime":{"hour":1.0,"standardDeviation":0.05},"isRestaurant":false},{"id":20752155,"name":"제주마실게스트하우스","poiType":{"category":"숙박","subCategory":"게스트하우스","subSubCategory":""},"address":"제주특별자치도 제주시 오라1동 2444-34","location":{"latitude":33.498881401069504,"longitude":126.51356098419438},"score":3.8,"businessHours":{"businessHours":"00:00 ~ 24:00","closedDaySet":[]},"costPerPerson":-1,"spendingTime":{"hour":1.0,"standardDeviation":0.05},"isRestaurant":false},{"id":962174783,"name":"더썸펜션","poiType":{"category":"숙박","subCategory":"펜션","subSubCategory":""},"address":"제주특별자치도 서귀포시 성산읍 고성리 1652-1","location":{"latitude":33.44335386374872,"longitude":126.90656790506127},"score":5.0,"businessHours":{"businessHours":"00:00 ~ 24:00","closedDaySet":[]},"costPerPerson":-1,"spendingTime":{"hour":1.0,"standardDeviation":0.05},"isRestaurant":false},{"id":19851012,"name":"협재게스트하우스 1호점","poiType":{"category":"숙박","subCategory":"게스트하우스","subSubCategory":""},"address":"제주특별자치도 제주시 한림읍 협재리 1728","location":{"latitude":33.39555468412357,"longitude":126.24216431970345},"score":5.0,"businessHours":{"businessHours":"00:00 ~ 24:00","closedDaySet":[]},"costPerPerson":-1,"spendingTime":{"hour":1.0,"standardDeviation":0.05},"isRestaurant":false},{"id":8103510,"name":"켄싱턴리조트 제주한림점","poiType":{"category":"숙박","subCategory":"콘도,리조트","subSubCategory":"켄싱턴리조트"},"address":"제주특별자치도 제주시 한림읍 귀덕리 3861","location":{"latitude":33.4357850949871,"longitude":126.27437521456727},"score":1.7,"businessHours":{"businessHours":"00:00 ~ 24:00","closedDaySet":[]},"costPerPerson":-1,"spendingTime":{"hour":1.0,"standardDeviation":0.05},"isRestaurant":false},{"id":339493383,"name":"베베앙팡","poiType":{"category":"숙박","subCategory":"펜션","subSubCategory":""},"address":"제주특별자치도 서귀포시 안덕면 덕수리 2724-5","location":{"latitude":33.26225128951982,"longitude":126.30163725529161},"score":5.0,"businessHours":{"businessHours":"00:00 ~ 24:00","closedDaySet":[]},"costPerPerson":-1,"spendingTime":{"hour":1.0,"standardDeviation":0.05},"isRestaurant":false},{"id":10532454,"name":"스카이모텔","poiType":{"category":"숙박","subCategory":"여관,모텔","subSubCategory":""},"address":"제주특별자치도 제주시 연동 274-55","location":{"latitude":33.485388044679944,"longitude":126.49156216464146},"score":5.0,"businessHours":{"businessHours":"00:00 ~ 24:00","closedDaySet":[]},"costPerPerson":-1,"spendingTime":{"hour":1.0,"standardDeviation":0.05},"isRestaurant":false},{"id":20838133,"name":"제주 올레프로방스","poiType":{"category":"숙박","subCategory":"펜션","subSubCategory":""},"address":"제주특별자치도 제주시 애월읍 광령리 2807-27","location":{"latitude":33.42972100599145,"longitude":126.43443380949002},"score":5.0,"businessHours":{"businessHours":"00:00 ~ 24:00","closedDaySet":[]},"costPerPerson":-1,"spendingTime":{"hour":1.0,"standardDeviation":0.05},"isRestaurant":false},{"id":24528674,"name":"오렌지게스트하우스","poiType":{"category":"숙박","subCategory":"게스트하우스","subSubCategory":""},"address":"제주특별자치도 서귀포시 대정읍 동일리 3024-7","location":{"latitude":33.2263143375497,"longitude":126.24514436484696},"score":5.0,"businessHours":{"businessHours":"00:00 ~ 24:00","closedDaySet":[]},"costPerPerson":-1,"spendingTime":{"hour":1.0,"standardDeviation":0.05},"isRestaurant":false},{"id":26621840,"name":"베스트웨스턴제주호텔","poiType":{"category":"숙박","subCategory":"호텔","subSubCategory":""},"address":"제주특별자치도 제주시 노형동 1295-16","location":{"latitude":33.48782887101376,"longitude":126.48184671425292},"score":4.0,"businessHours":{"businessHours":"00:00 ~ 24:00","closedDaySet":[]},"costPerPerson":-1,"spendingTime":{"hour":1.0,"standardDeviation":0.05},"isRestaurant":false},{"id":25982865,"name":"라마다제주서귀포호텔","poiType":{"category":"숙박","subCategory":"호텔","subSubCategory":""},"address":"제주특별자치도 서귀포시 강정동 173-3","location":{"latitude":33.25250303940325,"longitude":126.50757286702749},"score":5.0,"businessHours":{"businessHours":"00:00 ~ 24:00","closedDaySet":[]},"costPerPerson":-1,"spendingTime":{"hour":1.0,"standardDeviation":0.05},"isRestaurant":false},{"id":12236502,"name":"담앤루","poiType":{"category":"숙박","subCategory":"콘도,리조트","subSubCategory":""},"address":"제주특별자치도 서귀포시 대포동 1174","location":{"latitude":33.24588451197612,"longitude":126.45154703482484},"score":4.7,"businessHours":{"businessHours":"00:00 ~ 24:00","closedDaySet":[]},"costPerPerson":-1,"spendingTime":{"hour":1.0,"standardDeviation":0.05},"isRestaurant":false},{"id":26486737,"name":"제주나인부띠끄","poiType":{"category":"숙박","subCategory":"호텔","subSubCategory":""},"address":"제주특별자치도 서귀포시 서귀동 644-1","location":{"latitude":33.24261487225107,"longitude":126.56264238544225},"score":5.0,"businessHours":{"businessHours":"00:00 ~ 24:00","closedDaySet":[]},"costPerPerson":-1,"spendingTime":{"hour":1.0,"standardDeviation":0.05},"isRestaurant":false},{"id":13727381,"name":"타시텔레","poiType":{"category":"숙박","subCategory":"펜션","subSubCategory":""},"address":"제주특별자치도 서귀포시 표선면 가시리 1776","location":{"latitude":33.3580913469622,"longitude":126.77403082328567},"score":5.0,"businessHours":{"businessHours":"00:00 ~ 24:00","closedDaySet":[]},"costPerPerson":-1,"spendingTime":{"hour":1.0,"standardDeviation":0.05},"isRestaurant":false},{"id":27334570,"name":"레드우드하우스","poiType":{"category":"숙박","subCategory":"게스트하우스","subSubCategory":""},"address":"제주특별자치도 제주시 구좌읍 종달리 1075","location":{"latitude":33.49568327163733,"longitude":126.90209862295589},"score":5.0,"businessHours":{"businessHours":"00:00 ~ 24:00","closedDaySet":[]},"costPerPerson":-1,"spendingTime":{"hour":1.0,"standardDeviation":0.05},"isRestaurant":false},{"id":26777549,"name":"엠버호텔 센트럴","poiType":{"category":"숙박","subCategory":"호텔","subSubCategory":""},"address":"제주특별자치도 제주시 노형동 928-1","location":{"latitude":33.485834355329544,"longitude":126.48265914183946},"score":5.0,"businessHours":{"businessHours":"00:00 ~ 24:00","closedDaySet":[]},"costPerPerson":-1,"spendingTime":{"hour":1.0,"standardDeviation":0.05},"isRestaurant":false},{"id":25118439,"name":"엠버하우스","poiType":{"category":"숙박","subCategory":"펜션","subSubCategory":""},"address":"제주특별자치도 제주시 애월읍 고내리 79-4","location":{"latitude":33.47215134964532,"longitude":126.35100756454003},"score":4.9,"businessHours":{"businessHours":"00:00 ~ 24:00","closedDaySet":[]},"costPerPerson":-1,"spendingTime":{"hour":1.0,"standardDeviation":0.05},"isRestaurant":false},{"id":2010956166,"name":"파우제인제주","poiType":{"category":"숙박","subCategory":"호텔","subSubCategory":""},"address":"제주특별자치도 서귀포시 토평동 3083-6","location":{"latitude":33.288558055135915,"longitude":126.57825388467795},"score":5.0,"businessHours":{"businessHours":"00:00 ~ 24:00","closedDaySet":[]},"costPerPerson":-1,"spendingTime":{"hour":1.0,"standardDeviation":0.05},"isRestaurant":false},{"id":14583349,"name":"블루펄리조트","poiType":{"category":"숙박","subCategory":"펜션","subSubCategory":""},"address":"제주특별자치도 서귀포시 호근동 1616-1","location":{"latitude":33.24134137665764,"longitude":126.53190609698362},"score":4.0,"businessHours":{"businessHours":"00:00 ~ 24:00","closedDaySet":[]},"costPerPerson":-1,"spendingTime":{"hour":1.0,"standardDeviation":0.05},"isRestaurant":false},{"id":26105596,"name":"아덴힐리조트앤골프클럽","poiType":{"category":"숙박","subCategory":"콘도,리조트","subSubCategory":""},"address":"제주특별자치도 제주시 한림읍 금악리 6-1","location":{"latitude":33.34738884919033,"longitude":126.36696756709372},"score":5.0,"businessHours":{"businessHours":"00:00 ~ 24:00","closedDaySet":[]},"costPerPerson":-1,"spendingTime":{"hour":1.0,"standardDeviation":0.05},"isRestaurant":false},{"id":8656377,"name":"대명샤인빌리조트","poiType":{"category":"숙박","subCategory":"콘도,리조트","subSubCategory":""},"address":"제주특별자치도 서귀포시 표선면 토산리 17","location":{"latitude":33.3055841291759,"longitude":126.792027926523},"score":4.0,"businessHours":{"businessHours":"00:00 ~ 24:00","closedDaySet":[]},"costPerPerson":-1,"spendingTime":{"hour":1.0,"standardDeviation":0.05},"isRestaurant":false},{"id":567379794,"name":"아이미 제주비치호텔","poiType":{"category":"숙박","subCategory":"호텔","subSubCategory":""},"address":"제주특별자치도 제주시 조천읍 함덕리 1010","location":{"latitude":33.54329541677684,"longitude":126.66341882171156},"score":4.0,"businessHours":{"businessHours":"00:00 ~ 24:00","closedDaySet":[]},"costPerPerson":-1,"spendingTime":{"hour":1.0,"standardDeviation":0.05},"isRestaurant":false},{"id":26457857,"name":"바이더힐펜션","poiType":{"category":"숙박","subCategory":"펜션","subSubCategory":""},"address":"제주특별자치도 제주시 애월읍 유수암리 2049-1","location":{"latitude":33.444358836445566,"longitude":126.40362373758592},"score":5.0,"businessHours":{"businessHours":"00:00 ~ 24:00","closedDaySet":[]},"costPerPerson":-1,"spendingTime":{"hour":1.0,"standardDeviation":0.05},"isRestaurant":false},{"id":13080037,"name":"성산게스트하우스","poiType":{"category":"숙박","subCategory":"게스트하우스","subSubCategory":""},"address":"제주특별자치도 서귀포시 성산읍 성산리 224-2","location":{"latitude":33.46429690865886,"longitude":126.9348147474582},"score":3.9,"businessHours":{"businessHours":"00:00 ~ 24:00","closedDaySet":[]},"costPerPerson":-1,"spendingTime":{"hour":1.0,"standardDeviation":0.05},"isRestaurant":false},{"id":26810174,"name":"천지연호텔","poiType":{"category":"숙박","subCategory":"호텔","subSubCategory":""},"address":"제주특별자치도 서귀포시 서귀동 654-5","location":{"latitude":33.2418630667744,"longitude":126.562431576842},"score":1.5,"businessHours":{"businessHours":"00:00 ~ 24:00","closedDaySet":[]},"costPerPerson":-1,"spendingTime":{"hour":1.0,"standardDeviation":0.05},"isRestaurant":false},{"id":26969908,"name":"플레이스캠프제주","poiType":{"category":"숙박","subCategory":"호텔","subSubCategory":""},"address":"제주특별자치도 서귀포시 성산읍 고성리 297-1","location":{"latitude":33.44994521808299,"longitude":126.91822621006078},"score":5.0,"businessHours":{"businessHours":"00:00 ~ 24:00","closedDaySet":[]},"costPerPerson":-1,"spendingTime":{"hour":1.0,"standardDeviation":0.05},"isRestaurant":false},{"id":1220460107,"name":"히든 클리프 호텔 앤 네이쳐","poiType":{"category":"숙박","subCategory":"호텔","subSubCategory":""},"address":"제주특별자치도 서귀포시 상예동 625","location":{"latitude":33.254775653487734,"longitude":126.40259558482427},"score":5.0,"businessHours":{"businessHours":"00:00 ~ 24:00","closedDaySet":[]},"costPerPerson":-1,"spendingTime":{"hour":1.0,"standardDeviation":0.05},"isRestaurant":false},{"id":44397660,"name":"제주 한담 해넘이호텔","poiType":{"category":"숙박","subCategory":"여관,모텔","subSubCategory":""},"address":"제주특별자치도 제주시 애월읍 애월리 2467","location":{"latitude":33.4600889698518,"longitude":126.311292660658},"score":5.0,"businessHours":{"businessHours":"00:00 ~ 24:00","closedDaySet":[]},"costPerPerson":-1,"spendingTime":{"hour":1.0,"standardDeviation":0.05},"isRestaurant":false},{"id":8476231,"name":"월령코지펜션","poiType":{"category":"숙박","subCategory":"펜션","subSubCategory":""},"address":"제주특별자치도 제주시 한림읍 월령리 344","location":{"latitude":33.380486803767106,"longitude":126.21541620590818},"score":5.0,"businessHours":{"businessHours":"00:00 ~ 24:00","closedDaySet":[]},"costPerPerson":-1,"spendingTime":{"hour":1.0,"standardDeviation":0.05},"isRestaurant":false},{"id":23717453,"name":"게스트하우스풍경","poiType":{"category":"숙박","subCategory":"게스트하우스","subSubCategory":""},"address":"제주특별자치도 제주시 애월읍 신엄리 955","location":{"latitude":33.47761978209777,"longitude":126.3700825392975},"score":3.7,"businessHours":{"businessHours":"00:00 ~ 24:00","closedDaySet":[]},"costPerPerson":-1,"spendingTime":{"hour":1.0,"standardDeviation":0.05},"isRestaurant":false},{"id":8177478,"name":"휘닉스제주 섭지코지","poiType":{"category":"숙박","subCategory":"콘도,리조트","subSubCategory":""},"address":"제주특별자치도 서귀포시 성산읍 고성리 127-2","location":{"latitude":33.4304968356285,"longitude":126.928186733817},"score":3.6,"businessHours":{"businessHours":"00:00 ~ 24:00","closedDaySet":[]},"costPerPerson":-1,"spendingTime":{"hour":1.0,"standardDeviation":0.05},"isRestaurant":false},{"id":20375051,"name":"이야기별방","poiType":{"category":"숙박","subCategory":"민박","subSubCategory":""},"address":"제주특별자치도 제주시 구좌읍 종달리 1407","location":{"latitude":33.50987023497554,"longitude":126.90134194565019},"score":1.5,"businessHours":{"businessHours":"00:00 ~ 24:00","closedDaySet":[]},"costPerPerson":-1,"spendingTime":{"hour":1.0,"standardDeviation":0.05},"isRestaurant":false},{"id":27600482,"name":"산티아고게스트하우스 함덕점","poiType":{"category":"숙박","subCategory":"게스트하우스","subSubCategory":""},"address":"제주특별자치도 제주시 조천읍 신촌리 2043","location":{"latitude":33.5388666832518,"longitude":126.622352236235},"score":5.0,"businessHours":{"businessHours":"00:00 ~ 24:00","closedDaySet":[]},"costPerPerson":-1,"spendingTime":{"hour":1.0,"standardDeviation":0.05},"isRestaurant":false},{"id":17810952,"name":"제주숲게스트하우스","poiType":{"category":"숙박","subCategory":"게스트하우스","subSubCategory":""},"address":"제주특별자치도 서귀포시 남원읍 수망리 335-7","location":{"latitude":33.3286839800893,"longitude":126.710963904725},"score":4.7,"businessHours":{"businessHours":"00:00 ~ 24:00","closedDaySet":[]},"costPerPerson":-1,"spendingTime":{"hour":1.0,"standardDeviation":0.05},"isRestaurant":false},{"id":18294299,"name":"후스토리 게스트하우스","poiType":{"category":"숙박","subCategory":"게스트하우스","subSubCategory":""},"address":"제주특별자치도 서귀포시 색달동 2534-7","location":{"latitude":33.25704370646366,"longitude":126.41308839216791},"score":5.0,"businessHours":{"businessHours":"00:00 ~ 24:00","closedDaySet":[]},"costPerPerson":-1,"spendingTime":{"hour":1.0,"standardDeviation":0.05},"isRestaurant":false},{"id":21902819,"name":"제주스테이비우다","poiType":{"category":"숙박","subCategory":"","subSubCategory":""},"address":"제주특별자치도 서귀포시 색달동 1534","location":{"latitude":33.265581633295035,"longitude":126.40958816569656},"score":5.0,"businessHours":{"businessHours":"00:00 ~ 24:00","closedDaySet":[]},"costPerPerson":-1,"spendingTime":{"hour":1.0,"standardDeviation":0.05},"isRestaurant":false},{"id":17344051,"name":"루마인펜션","poiType":{"category":"숙박","subCategory":"펜션","subSubCategory":""},"address":"제주특별자치도 제주시 구좌읍 종달리 624","location":{"latitude":33.4842504349785,"longitude":126.901367973105},"score":2.2,"businessHours":{"businessHours":"00:00 ~ 24:00","closedDaySet":[]},"costPerPerson":-1,"spendingTime":{"hour":1.0,"standardDeviation":0.05},"isRestaurant":false},{"id":1138529378,"name":"제주힐링타운호텔","poiType":{"category":"숙박","subCategory":"호텔","subSubCategory":""},"address":"제주특별자치도 서귀포시 토평동 2983","location":{"latitude":33.28585889240909,"longitude":126.56324202425685},"score":3.0,"businessHours":{"businessHours":"00:00 ~ 24:00","closedDaySet":[]},"costPerPerson":-1,"spendingTime":{"hour":1.0,"standardDeviation":0.05},"isRestaurant":false},{"id":2063256946,"name":"소낭게스트하우스 1호점","poiType":{"category":"숙박","subCategory":"게스트하우스","subSubCategory":""},"address":"제주특별자치도 제주시 구좌읍 월정리 891-7","location":{"latitude":33.5520239111156,"longitude":126.79096411754148},"score":5.0,"businessHours":{"businessHours":"00:00 ~ 24:00","closedDaySet":[]},"costPerPerson":-1,"spendingTime":{"hour":1.0,"standardDeviation":0.05},"isRestaurant":false},{"id":25654998,"name":"예그린하우스","poiType":{"category":"숙박","subCategory":"호텔","subSubCategory":""},"address":"제주특별자치도 서귀포시 중문동 2049-1","location":{"latitude":33.25052641991574,"longitude":126.42455382118425},"score":5.0,"businessHours":{"businessHours":"00:00 ~ 24:00","closedDaySet":[]},"costPerPerson":-1,"spendingTime":{"hour":1.0,"standardDeviation":0.05},"isRestaurant":false},{"id":8218345,"name":"다이버하우스","poiType":{"category":"숙박","subCategory":"펜션","subSubCategory":""},"address":"제주특별자치도 서귀포시 안덕면 화순리 2020","location":{"latitude":33.24152715115107,"longitude":126.32482793821951},"score":3.0,"businessHours":{"businessHours":"00:00 ~ 24:00","closedDaySet":[]},"costPerPerson":-1,"spendingTime":{"hour":1.0,"standardDeviation":0.05},"isRestaurant":false},{"id":23971319,"name":"아침의향기펜션","poiType":{"category":"숙박","subCategory":"펜션","subSubCategory":""},"address":"제주특별자치도 서귀포시 색달동 1609-1","location":{"latitude":33.26561570705735,"longitude":126.41449485488161},"score":5.0,"businessHours":{"businessHours":"00:00 ~ 24:00","closedDaySet":[]},"costPerPerson":-1,"spendingTime":{"hour":1.0,"standardDeviation":0.05},"isRestaurant":false},{"id":26838524,"name":"브리즈베이호텔","poiType":{"category":"숙박","subCategory":"호텔","subSubCategory":""},"address":"제주특별자치도 서귀포시 성산읍 성산리 382-6","location":{"latitude":33.46663269619958,"longitude":126.93086138889434},"score":5.0,"businessHours":{"businessHours":"00:00 ~ 24:00","closedDaySet":[]},"costPerPerson":-1,"spendingTime":{"hour":1.0,"standardDeviation":0.05},"isRestaurant":false},{"id":27547149,"name":"성산여유펜션","poiType":{"category":"숙박","subCategory":"펜션","subSubCategory":""},"address":"제주특별자치도 서귀포시 성산읍 오조리 641","location":{"latitude":33.466463666172324,"longitude":126.91092293398691},"score":5.0,"businessHours":{"businessHours":"00:00 ~ 24:00","closedDaySet":[]},"costPerPerson":-1,"spendingTime":{"hour":1.0,"standardDeviation":0.05},"isRestaurant":false},{"id":25626089,"name":"중문훼미리리조트","poiType":{"category":"숙박","subCategory":"콘도,리조트","subSubCategory":""},"address":"제주특별자치도 서귀포시 상예동 2729-1","location":{"latitude":33.266067563635104,"longitude":126.3834446007335},"score":4.0,"businessHours":{"businessHours":"00:00 ~ 24:00","closedDaySet":[]},"costPerPerson":-1,"spendingTime":{"hour":1.0,"standardDeviation":0.05},"isRestaurant":false},{"id":8619771,"name":"위호텔","poiType":{"category":"숙박","subCategory":"호텔","subSubCategory":""},"address":"제주특별자치도 서귀포시 회수동 30","location":{"latitude":33.2861974015548,"longitude":126.444080619289},"score":4.0,"businessHours":{"businessHours":"00:00 ~ 24:00","closedDaySet":[]},"costPerPerson":-1,"spendingTime":{"hour":1.0,"standardDeviation":0.05},"isRestaurant":false},{"id":1596778646,"name":"바다와자전거","poiType":{"category":"숙박","subCategory":"게스트하우스","subSubCategory":""},"address":"제주특별자치도 제주시 애월읍 고내리 1123-1","location":{"latitude":33.466677223481035,"longitude":126.33812689482221},"score":5.0,"businessHours":{"businessHours":"00:00 ~ 24:00","closedDaySet":[]},"costPerPerson":-1,"spendingTime":{"hour":1.0,"standardDeviation":0.05},"isRestaurant":false},{"id":22251181,"name":"제주엔펜션","poiType":{"category":"숙박","subCategory":"펜션","subSubCategory":""},"address":"제주특별자치도 서귀포시 대정읍 신도리 2419","location":{"latitude":33.269596566894144,"longitude":126.17783291170193},"score":5.0,"businessHours":{"businessHours":"00:00 ~ 24:00","closedDaySet":[]},"costPerPerson":-1,"spendingTime":{"hour":1.0,"standardDeviation":0.05},"isRestaurant":false},{"id":16434989,"name":"금호리조트 제주","poiType":{"category":"숙박","subCategory":"콘도,리조트","subSubCategory":"금호리조트"},"address":"제주특별자치도 서귀포시 남원읍 남원리 2390","location":{"latitude":33.27333712355433,"longitude":126.70182845980202},"score":4.0,"businessHours":{"businessHours":"00:00 ~ 24:00","closedDaySet":[]},"costPerPerson":-1,"spendingTime":{"hour":1.0,"standardDeviation":0.05},"isRestaurant":false},{"id":18368144,"name":"해마지펜션","poiType":{"category":"숙박","subCategory":"펜션","subSubCategory":""},"address":"제주특별자치도 서귀포시 성산읍 신천리 105-1","location":{"latitude":33.354498662782696,"longitude":126.86139459099724},"score":5.0,"businessHours":{"businessHours":"00:00 ~ 24:00","closedDaySet":[]},"costPerPerson":-1,"spendingTime":{"hour":1.0,"standardDeviation":0.05},"isRestaurant":false},{"id":18319025,"name":"해성파크텔","poiType":{"category":"숙박","subCategory":"유스호스텔","subSubCategory":""},"address":"제주특별자치도 서귀포시 중문동 2165-2","location":{"latitude":33.25216999532672,"longitude":126.42124219661241},"score":5.0,"businessHours":{"businessHours":"00:00 ~ 24:00","closedDaySet":[]},"costPerPerson":-1,"spendingTime":{"hour":1.0,"standardDeviation":0.05},"isRestaurant":false},{"id":26539564,"name":"보우힐펜션","poiType":{"category":"숙박","subCategory":"펜션","subSubCategory":""},"address":"제주특별자치도 서귀포시 대포동 1813","location":{"latitude":33.24017458718747,"longitude":126.43132556401932},"score":5.0,"businessHours":{"businessHours":"00:00 ~ 24:00","closedDaySet":[]},"costPerPerson":-1,"spendingTime":{"hour":1.0,"standardDeviation":0.05},"isRestaurant":false},{"id":18937509,"name":"제주그린나래","poiType":{"category":"숙박","subCategory":"펜션","subSubCategory":""},"address":"제주특별자치도 서귀포시 성산읍 수산리 3251","location":{"latitude":33.42797215630566,"longitude":126.85101850460548},"score":1.5,"businessHours":{"businessHours":"00:00 ~ 24:00","closedDaySet":[]},"costPerPerson":-1,"spendingTime":{"hour":1.0,"standardDeviation":0.05},"isRestaurant":false},{"id":863388786,"name":"제주 노노레타 펜션","poiType":{"category":"숙박","subCategory":"펜션","subSubCategory":""},"address":"제주특별자치도 제주시 구좌읍 세화리 1728-6","location":{"latitude":33.510867732809174,"longitude":126.84717737911578},"score":3.0,"businessHours":{"businessHours":"00:00 ~ 24:00","closedDaySet":[]},"costPerPerson":-1,"spendingTime":{"hour":1.0,"standardDeviation":0.05},"isRestaurant":false},{"id":27600430,"name":"JK라마다앙코르호텔","poiType":{"category":"숙박","subCategory":"호텔","subSubCategory":""},"address":"제주특별자치도 제주시 연동 270-23","location":{"latitude":33.492203397764044,"longitude":126.49052796434671},"score":3.8,"businessHours":{"businessHours":"00:00 ~ 24:00","closedDaySet":[]},"costPerPerson":-1,"spendingTime":{"hour":1.0,"standardDeviation":0.05},"isRestaurant":false},{"id":25654857,"name":"해와돌바라기휴양펜션","poiType":{"category":"숙박","subCategory":"펜션","subSubCategory":""},"address":"제주특별자치도 서귀포시 하효동 1068","location":{"latitude":33.2524845310733,"longitude":126.617180227027},"score":5.0,"businessHours":{"businessHours":"00:00 ~ 24:00","closedDaySet":[]},"costPerPerson":-1,"spendingTime":{"hour":1.0,"standardDeviation":0.05},"isRestaurant":false},{"id":27211345,"name":"큐니펜션","poiType":{"category":"숙박","subCategory":"펜션","subSubCategory":""},"address":"제주특별자치도 서귀포시 안덕면 사계리 1095-4","location":{"latitude":33.2474766255421,"longitude":126.297625008846},"score":5.0,"businessHours":{"businessHours":"00:00 ~ 24:00","closedDaySet":[]},"costPerPerson":-1,"spendingTime":{"hour":1.0,"standardDeviation":0.05},"isRestaurant":false},{"id":17872608,"name":"마당돌펜션","poiType":{"category":"숙박","subCategory":"펜션","subSubCategory":""},"address":"제주특별자치도 서귀포시 대정읍 무릉리 3878-8","location":{"latitude":33.2560776066321,"longitude":126.190754261745},"score":4.5,"businessHours":{"businessHours":"00:00 ~ 24:00","closedDaySet":[]},"costPerPerson":-1,"spendingTime":{"hour":1.0,"standardDeviation":0.05},"isRestaurant":false},{"id":18376399,"name":"옐로우게스트하우스","poiType":{"category":"숙박","subCategory":"게스트하우스","subSubCategory":""},"address":"제주특별자치도 제주시 일도1동 1477-2","location":{"latitude":33.51360401256955,"longitude":126.52694952914993},"score":1.5,"businessHours":{"businessHours":"00:00 ~ 24:00","closedDaySet":[]},"costPerPerson":-1,"spendingTime":{"hour":1.0,"standardDeviation":0.05},"isRestaurant":false},{"id":8341593,"name":"라임오렌지빌","poiType":{"category":"숙박","subCategory":"펜션","subSubCategory":""},"address":"제주특별자치도 서귀포시 토평동 416","location":{"latitude":33.246139936271334,"longitude":126.58727864950819},"score":3.1,"businessHours":{"businessHours":"00:00 ~ 24:00","closedDaySet":[]},"costPerPerson":-1,"spendingTime":{"hour":1.0,"standardDeviation":0.05},"isRestaurant":false},{"id":26921334,"name":"비앤비","poiType":{"category":"숙박","subCategory":"게스트하우스","subSubCategory":""},"address":"제주특별자치도 서귀포시 성산읍 오조리 117","location":{"latitude":33.45797415799554,"longitude":126.91602598287868},"score":5.0,"businessHours":{"businessHours":"00:00 ~ 24:00","closedDaySet":[]},"costPerPerson":-1,"spendingTime":{"hour":1.0,"standardDeviation":0.05},"isRestaurant":false},{"id":27462000,"name":"제주오션팰리스","poiType":{"category":"숙박","subCategory":"호텔","subSubCategory":""},"address":"제주특별자치도 서귀포시 서귀동 494","location":{"latitude":33.245957032666816,"longitude":126.56233811988577},"score":3.7,"businessHours":{"businessHours":"00:00 ~ 24:00","closedDaySet":[]},"costPerPerson":-1,"spendingTime":{"hour":1.0,"standardDeviation":0.05},"isRestaurant":false},{"id":24156460,"name":"에코그린리조트","poiType":{"category":"숙박","subCategory":"콘도,리조트","subSubCategory":""},"address":"제주특별자치도 제주시 한림읍 귀덕리 1502","location":{"latitude":33.43528899044857,"longitude":126.29145555149451},"score":4.6,"businessHours":{"businessHours":"00:00 ~ 24:00","closedDaySet":[]},"costPerPerson":-1,"spendingTime":{"hour":1.0,"standardDeviation":0.05},"isRestaurant":false},{"id":10594509,"name":"씨에스호텔앤리조트","poiType":{"category":"숙박","subCategory":"호텔","subSubCategory":""},"address":"제주특별자치도 서귀포시 중문동 2654-2","location":{"latitude":33.24299159622767,"longitude":126.41971481870141},"score":1.5,"businessHours":{"businessHours":"00:00 ~ 24:00","closedDaySet":[]},"costPerPerson":-1,"spendingTime":{"hour":1.0,"standardDeviation":0.05},"isRestaurant":false},{"id":27453860,"name":"에띠에리조트","poiType":{"category":"숙박","subCategory":"콘도,리조트","subSubCategory":""},"address":"제주특별자치도 서귀포시 강정동 2503-1","location":{"latitude":33.23533267215696,"longitude":126.49416813635236},"score":4.5,"businessHours":{"businessHours":"00:00 ~ 24:00","closedDaySet":[]},"costPerPerson":-1,"spendingTime":{"hour":1.0,"standardDeviation":0.05},"isRestaurant":false},{"id":9251024,"name":"아뜨네통나무펜션","poiType":{"category":"숙박","subCategory":"펜션","subSubCategory":""},"address":"제주특별자치도 제주시 애월읍 하귀1리 831-3","location":{"latitude":33.475733115281315,"longitude":126.4162754212251},"score":5.0,"businessHours":{"businessHours":"00:00 ~ 24:00","closedDaySet":[]},"costPerPerson":-1,"spendingTime":{"hour":1.0,"standardDeviation":0.05},"isRestaurant":false},{"id":8493037,"name":"중문빌리지","poiType":{"category":"숙박","subCategory":"펜션","subSubCategory":""},"address":"제주특별자치도 서귀포시 하예동 141","location":{"latitude":33.24272077061445,"longitude":126.38518831769088},"score":4.6,"businessHours":{"businessHours":"00:00 ~ 24:00","closedDaySet":[]},"costPerPerson":-1,"spendingTime":{"hour":1.0,"standardDeviation":0.05},"isRestaurant":false},{"id":19138971,"name":"토비스콘도 제주점","poiType":{"category":"숙박","subCategory":"콘도,리조트","subSubCategory":"토비스콘도"},"address":"제주특별자치도 제주시 애월읍 애월리 2505","location":{"latitude":33.46306685875499,"longitude":126.31161105348039},"score":1.8,"businessHours":{"businessHours":"00:00 ~ 24:00","closedDaySet":[]},"costPerPerson":-1,"spendingTime":{"hour":1.0,"standardDeviation":0.05},"isRestaurant":false},{"id":552495151,"name":"몽게스트하우스","poiType":{"category":"숙박","subCategory":"게스트하우스","subSubCategory":""},"address":"제주특별자치도 서귀포시 대정읍 하모리 2137-1","location":{"latitude":33.216601393161,"longitude":126.252992191144},"score":5.0,"businessHours":{"businessHours":"00:00 ~ 24:00","closedDaySet":[]},"costPerPerson":-1,"spendingTime":{"hour":1.0,"standardDeviation":0.05},"isRestaurant":false},{"id":55077839,"name":"스타하우스","poiType":{"category":"숙박","subCategory":"펜션","subSubCategory":""},"address":"제주특별자치도 제주시 애월읍 광령리 2863-2","location":{"latitude":33.44116116559053,"longitude":126.42880415342691},"score":5.0,"businessHours":{"businessHours":"00:00 ~ 24:00","closedDaySet":[]},"costPerPerson":-1,"spendingTime":{"hour":1.0,"standardDeviation":0.05},"isRestaurant":false},{"id":27072789,"name":"서귀포 바다랑파도랑 펜션","poiType":{"category":"숙박","subCategory":"펜션","subSubCategory":""},"address":"제주특별자치도 서귀포시 남원읍 남원리 1399-1","location":{"latitude":33.27571309204357,"longitude":126.71063936127034},"score":4.0,"businessHours":{"businessHours":"00:00 ~ 24:00","closedDaySet":[]},"costPerPerson":-1,"spendingTime":{"hour":1.0,"standardDeviation":0.05},"isRestaurant":false},{"id":27330800,"name":"녹고뫼휴양펜션 제주캠핑장","poiType":{"category":"숙박","subCategory":"펜션","subSubCategory":""},"address":"제주특별자치도 제주시 애월읍 유수암리 106-4","location":{"latitude":33.40984573675275,"longitude":126.42106062669151},"score":5.0,"businessHours":{"businessHours":"00:00 ~ 24:00","closedDaySet":[]},"costPerPerson":-1,"spendingTime":{"hour":1.0,"standardDeviation":0.05},"isRestaurant":false},{"id":2103006679,"name":"바랑쉬게스트하우스","poiType":{"category":"숙박","subCategory":"게스트하우스","subSubCategory":""},"address":"제주특별자치도 서귀포시 성산읍 온평리 1111-2","location":{"latitude":33.40104814521517,"longitude":126.90362958007358},"score":5.0,"businessHours":{"businessHours":"00:00 ~ 24:00","closedDaySet":[]},"costPerPerson":-1,"spendingTime":{"hour":1.0,"standardDeviation":0.05},"isRestaurant":false},{"id":25741593,"name":"그라벨호텔제주","poiType":{"category":"숙박","subCategory":"호텔","subSubCategory":"특급호텔"},"address":"제주특별자치도 제주시 외도1동 401-8","location":{"latitude":33.492405552610265,"longitude":126.42870139401799},"score":4.0,"businessHours":{"businessHours":"00:00 ~ 24:00","closedDaySet":[]},"costPerPerson":-1,"spendingTime":{"hour":1.0,"standardDeviation":0.05},"isRestaurant":false},{"id":10500084,"name":"서귀포KAL호텔","poiType":{"category":"숙박","subCategory":"호텔","subSubCategory":"특급호텔"},"address":"제주특별자치도 서귀포시 토평동 486-3","location":{"latitude":33.24650373762362,"longitude":126.58176154876747},"score":3.3,"businessHours":{"businessHours":"00:00 ~ 24:00","closedDaySet":[]},"costPerPerson":-1,"spendingTime":{"hour":1.0,"standardDeviation":0.05},"isRestaurant":false},{"id":19192277,"name":"꽃머채펜션","poiType":{"category":"숙박","subCategory":"펜션","subSubCategory":""},"address":"제주특별자치도 제주시 애월읍 소길리 974","location":{"latitude":33.41840084657354,"longitude":126.3766654007471},"score":5.0,"businessHours":{"businessHours":"00:00 ~ 24:00","closedDaySet":[]},"costPerPerson":-1,"spendingTime":{"hour":1.0,"standardDeviation":0.05},"isRestaurant":false},{"id":10635354,"name":"오션하우스","poiType":{"category":"숙박","subCategory":"펜션","subSubCategory":""},"address":"제주특별자치도 서귀포시 안덕면 사계리 123","location":{"latitude":33.23488097891982,"longitude":126.31017643573769},"score":1.5,"businessHours":{"businessHours":"00:00 ~ 24:00","closedDaySet":[]},"costPerPerson":-1,"spendingTime":{"hour":1.0,"standardDeviation":0.05},"isRestaurant":false},{"id":7895162,"name":"발리인제주","poiType":{"category":"숙박","subCategory":"펜션","subSubCategory":""},"address":"제주특별자치도 제주시 구좌읍 종달리 572-10","location":{"latitude":33.493427415965506,"longitude":126.90903114366363},"score":3.2,"businessHours":{"businessHours":"00:00 ~ 24:00","closedDaySet":[]},"costPerPerson":-1,"spendingTime":{"hour":1.0,"standardDeviation":0.05},"isRestaurant":false},{"id":10229838,"name":"금강산콘도","poiType":{"category":"숙박","subCategory":"콘도,리조트","subSubCategory":""},"address":"제주특별자치도 제주시 한림읍 협재리 929-1","location":{"latitude":33.37944044686532,"longitude":126.25028246727683},"score":1.5,"businessHours":{"businessHours":"00:00 ~ 24:00","closedDaySet":[]},"costPerPerson":-1,"spendingTime":{"hour":1.0,"standardDeviation":0.05},"isRestaurant":false},{"id":26511689,"name":"제주키즈아트펜션","poiType":{"category":"숙박","subCategory":"펜션","subSubCategory":""},"address":"제주특별자치도 제주시 애월읍 구엄리 600-1","location":{"latitude":33.483884392309406,"longitude":126.37800332769447},"score":5.0,"businessHours":{"businessHours":"00:00 ~ 24:00","closedDaySet":[]},"costPerPerson":-1,"spendingTime":{"hour":1.0,"standardDeviation":0.05},"isRestaurant":false},{"id":23972211,"name":"민중각게스트하우스","poiType":{"category":"숙박","subCategory":"게스트하우스","subSubCategory":""},"address":"제주특별자치도 서귀포시 서귀동 305-6","location":{"latitude":33.25066145013696,"longitude":126.55870046094387},"score":5.0,"businessHours":{"businessHours":"00:00 ~ 24:00","closedDaySet":[]},"costPerPerson":-1,"spendingTime":{"hour":1.0,"standardDeviation":0.05},"isRestaurant":false},{"id":27101305,"name":"호텔펠리시아","poiType":{"category":"숙박","subCategory":"호텔","subSubCategory":""},"address":"제주특별자치도 서귀포시 법환동 17","location":{"latitude":33.24725619797052,"longitude":126.51795495991851},"score":5.0,"businessHours":{"businessHours":"00:00 ~ 24:00","closedDaySet":[]},"costPerPerson":-1,"spendingTime":{"hour":1.0,"standardDeviation":0.05},"isRestaurant":false},{"id":14711241,"name":"돌담에꽃머무는집","poiType":{"category":"숙박","subCategory":"펜션","subSubCategory":""},"address":"제주특별자치도 서귀포시 안덕면 창천리 903-4","location":{"latitude":33.23786228078163,"longitude":126.36267320905583},"score":5.0,"businessHours":{"businessHours":"00:00 ~ 24:00","closedDaySet":[]},"costPerPerson":-1,"spendingTime":{"hour":1.0,"standardDeviation":0.05},"isRestaurant":false},{"id":26646653,"name":"호스텔린든","poiType":{"category":"숙박","subCategory":"게스트하우스","subSubCategory":""},"address":"제주특별자치도 제주시 이도2동 1781-5","location":{"latitude":33.49995460672793,"longitude":126.52617168780571},"score":4.6,"businessHours":{"businessHours":"00:00 ~ 24:00","closedDaySet":[]},"costPerPerson":-1,"spendingTime":{"hour":1.0,"standardDeviation":0.05},"isRestaurant":false},{"id":11897227,"name":"끌림36.5","poiType":{"category":"숙박","subCategory":"펜션","subSubCategory":""},"address":"제주특별자치도 제주시 애월읍 고내리 363-1","location":{"latitude":33.470875024317756,"longitude":126.34763917160627},"score":5.0,"businessHours":{"businessHours":"00:00 ~ 24:00","closedDaySet":[]},"costPerPerson":-1,"spendingTime":{"hour":1.0,"standardDeviation":0.05},"isRestaurant":false},{"id":22214746,"name":"타이스토리","poiType":{"category":"숙박","subCategory":"펜션","subSubCategory":""},"address":"제주특별자치도 서귀포시 표선면 성읍리 458","location":{"latitude":33.39743718608345,"longitude":126.80765424580196},"score":2.8,"businessHours":{"businessHours":"00:00 ~ 24:00","closedDaySet":[]},"costPerPerson":-1,"spendingTime":{"hour":1.0,"standardDeviation":0.05},"isRestaurant":false},{"id":24893476,"name":"오름길벗게스트하우스","poiType":{"category":"숙박","subCategory":"게스트하우스","subSubCategory":""},"address":"제주특별자치도 제주시 구좌읍 송당리 1318-1","location":{"latitude":33.47220161551122,"longitude":126.78140603883952},"score":5.0,"businessHours":{"businessHours":"00:00 ~ 24:00","closedDaySet":[]},"costPerPerson":-1,"spendingTime":{"hour":1.0,"standardDeviation":0.05},"isRestaurant":false},{"id":504358692,"name":"성산 썬라이즈호텔","poiType":{"category":"숙박","subCategory":"호텔","subSubCategory":""},"address":"제주특별자치도 서귀포시 성산읍 성산리 169-16","location":{"latitude":33.46233653399134,"longitude":126.93103410282758},"score":5.0,"businessHours":{"businessHours":"00:00 ~ 24:00","closedDaySet":[]},"costPerPerson":-1,"spendingTime":{"hour":1.0,"standardDeviation":0.05},"isRestaurant":false},{"id":25049104,"name":"단빌리지 게스트하우스","poiType":{"category":"숙박","subCategory":"게스트하우스","subSubCategory":""},"address":"제주특별자치도 제주시 한경면 고산리 1578-2","location":{"latitude":33.30213740086914,"longitude":126.18996904024883},"score":5.0,"businessHours":{"businessHours":"00:00 ~ 24:00","closedDaySet":[]},"costPerPerson":-1,"spendingTime":{"hour":1.0,"standardDeviation":0.05},"isRestaurant":false},{"id":12564926,"name":"아르본리조트","poiType":{"category":"숙박","subCategory":"콘도,리조트","subSubCategory":""},"address":"제주특별자치도 제주시 애월읍 고성리 880","location":{"latitude":33.43097517106462,"longitude":126.41945336813289},"score":5.0,"businessHours":{"businessHours":"00:00 ~ 24:00","closedDaySet":[]},"costPerPerson":-1,"spendingTime":{"hour":1.0,"standardDeviation":0.05},"isRestaurant":false},{"id":1749664013,"name":"호텔윈스카이","poiType":{"category":"숙박","subCategory":"호텔","subSubCategory":""},"address":"제주특별자치도 서귀포시 강정동 162-1","location":{"latitude":33.253155735103604,"longitude":126.50846202278275},"score":5.0,"businessHours":{"businessHours":"00:00 ~ 24:00","closedDaySet":[]},"costPerPerson":-1,"spendingTime":{"hour":1.0,"standardDeviation":0.05},"isRestaurant":false},{"id":305310523,"name":"라마다제주함덕호텔","poiType":{"category":"숙박","subCategory":"호텔","subSubCategory":"특급호텔"},"address":"제주특별자치도 제주시 조천읍 함덕리 3061","location":{"latitude":33.54319152533285,"longitude":126.6597283395432},"score":3.0,"businessHours":{"businessHours":"00:00 ~ 24:00","closedDaySet":[]},"costPerPerson":-1,"spendingTime":{"hour":1.0,"standardDeviation":0.05},"isRestaurant":false},{"id":11589917,"name":"제주굿하우스","poiType":{"category":"숙박","subCategory":"펜션","subSubCategory":""},"address":"제주특별자치도 서귀포시 성산읍 고성리 1622-4","location":{"latitude":33.4457345956498,"longitude":126.907202045227},"score":4.5,"businessHours":{"businessHours":"00:00 ~ 24:00","closedDaySet":[]},"costPerPerson":-1,"spendingTime":{"hour":1.0,"standardDeviation":0.05},"isRestaurant":false},{"id":7862728,"name":"롯데호텔앤리조트 제주","poiType":{"category":"숙박","subCategory":"호텔","subSubCategory":"특급호텔"},"address":"제주특별자치도 서귀포시 색달동 2812-4","location":{"latitude":33.24845572956872,"longitude":126.41060066949683},"score":4.9,"businessHours":{"businessHours":"00:00 ~ 24:00","closedDaySet":[]},"costPerPerson":-1,"spendingTime":{"hour":1.0,"standardDeviation":0.05},"isRestaurant":false},{"id":23255250,"name":"포안펜션","poiType":{"category":"숙박","subCategory":"펜션","subSubCategory":""},"address":"제주특별자치도 제주시 한림읍 협재리 1388","location":{"latitude":33.399697874932606,"longitude":126.24978577545991},"score":5.0,"businessHours":{"businessHours":"00:00 ~ 24:00","closedDaySet":[]},"costPerPerson":-1,"spendingTime":{"hour":1.0,"standardDeviation":0.05},"isRestaurant":false},{"id":19183771,"name":"레몬트리","poiType":{"category":"숙박","subCategory":"여관,모텔","subSubCategory":""},"address":"제주특별자치도 제주시 애월읍 하귀2리 2594-1","location":{"latitude":33.48390743917067,"longitude":126.39500726935076},"score":4.0,"businessHours":{"businessHours":"00:00 ~ 24:00","closedDaySet":[]},"costPerPerson":-1,"spendingTime":{"hour":1.0,"standardDeviation":0.05},"isRestaurant":false},{"id":27469794,"name":"호텔컬리넌 제주","poiType":{"category":"숙박","subCategory":"호텔","subSubCategory":""},"address":"제주특별자치도 제주시 연동 284-54","location":{"latitude":33.485296032466835,"longitude":126.49286676935974},"score":1.5,"businessHours":{"businessHours":"00:00 ~ 24:00","closedDaySet":[]},"costPerPerson":-1,"spendingTime":{"hour":1.0,"standardDeviation":0.05},"isRestaurant":false},{"id":17283202,"name":"애월 한담누리게스트하우스","poiType":{"category":"숙박","subCategory":"게스트하우스","subSubCategory":""},"address":"제주특별자치도 제주시 애월읍 애월리 2443-2","location":{"latitude":33.459301676112,"longitude":126.312391727334},"score":4.7,"businessHours":{"businessHours":"00:00 ~ 24:00","closedDaySet":[]},"costPerPerson":-1,"spendingTime":{"hour":1.0,"standardDeviation":0.05},"isRestaurant":false},{"id":24709290,"name":"라디오게스트하우스","poiType":{"category":"숙박","subCategory":"게스트하우스","subSubCategory":""},"address":"제주특별자치도 제주시 한림읍 한수리 920-4","location":{"latitude":33.42223544386445,"longitude":126.26387412825164},"score":4.7,"businessHours":{"businessHours":"00:00 ~ 24:00","closedDaySet":[]},"costPerPerson":-1,"spendingTime":{"hour":1.0,"standardDeviation":0.05},"isRestaurant":false},{"id":15292731,"name":"라마다프라자제주호텔","poiType":{"category":"숙박","subCategory":"호텔","subSubCategory":"특급호텔"},"address":"제주특별자치도 제주시 삼도2동 1254","location":{"latitude":33.51878011286861,"longitude":126.51787970118885},"score":4.5,"businessHours":{"businessHours":"00:00 ~ 24:00","closedDaySet":[]},"costPerPerson":-1,"spendingTime":{"hour":1.0,"standardDeviation":0.05},"isRestaurant":false},{"id":13719794,"name":"몽마르뜨","poiType":{"category":"숙박","subCategory":"펜션","subSubCategory":""},"address":"제주특별자치도 제주시 애월읍 고내리 91-8","location":{"latitude":33.47085787385382,"longitude":126.35054818925772},"score":1.5,"businessHours":{"businessHours":"00:00 ~ 24:00","closedDaySet":[]},"costPerPerson":-1,"spendingTime":{"hour":1.0,"standardDeviation":0.05},"isRestaurant":false},{"id":26241078,"name":"놈게스트하우스","poiType":{"category":"숙박","subCategory":"게스트하우스","subSubCategory":""},"address":"제주특별자치도 서귀포시 남원읍 남원리 2306-7","location":{"latitude":33.276195018059454,"longitude":126.69652468945691},"score":4.3,"businessHours":{"businessHours":"00:00 ~ 24:00","closedDaySet":[]},"costPerPerson":-1,"spendingTime":{"hour":1.0,"standardDeviation":0.05},"isRestaurant":false},{"id":25118864,"name":"루스톤빌라앤호텔","poiType":{"category":"숙박","subCategory":"호텔","subSubCategory":"특급호텔"},"address":"제주특별자치도 제주시 애월읍 고내리 77","location":{"latitude":33.47195607893957,"longitude":126.35228275413448},"score":1.5,"businessHours":{"businessHours":"00:00 ~ 24:00","closedDaySet":[]},"costPerPerson":-1,"spendingTime":{"hour":1.0,"standardDeviation":0.05},"isRestaurant":false},{"id":27539495,"name":"산방산모드락","poiType":{"category":"숙박","subCategory":"게스트하우스","subSubCategory":""},"address":"제주특별자치도 서귀포시 안덕면 사계리 545-1","location":{"latitude":33.24489810793604,"longitude":126.30567265381947},"score":5.0,"businessHours":{"businessHours":"00:00 ~ 24:00","closedDaySet":[]},"costPerPerson":-1,"spendingTime":{"hour":1.0,"standardDeviation":0.05},"isRestaurant":false},{"id":25811011,"name":"물뜰에쉼팡리조트","poiType":{"category":"숙박","subCategory":"콘도,리조트","subSubCategory":""},"address":"제주특별자치도 제주시 한림읍 귀덕리 721-1","location":{"latitude":33.43797942476873,"longitude":126.29780408664092},"score":3.5,"businessHours":{"businessHours":"00:00 ~ 24:00","closedDaySet":[]},"costPerPerson":-1,"spendingTime":{"hour":1.0,"standardDeviation":0.05},"isRestaurant":false},{"id":1679130074,"name":"비스타케이 호텔 천지연","poiType":{"category":"숙박","subCategory":"호텔","subSubCategory":""},"address":"제주특별자치도 서귀포시 서귀동 319-2","location":{"latitude":33.24818837859335,"longitude":126.55897904441755},"score":4.3,"businessHours":{"businessHours":"00:00 ~ 24:00","closedDaySet":[]},"costPerPerson":-1,"spendingTime":{"hour":1.0,"standardDeviation":0.05},"isRestaurant":false},{"id":27437953,"name":"스와브호텔","poiType":{"category":"숙박","subCategory":"호텔","subSubCategory":""},"address":"제주특별자치도 서귀포시 서홍동 1289","location":{"latitude":33.257147908336194,"longitude":126.55320751407424},"score":5.0,"businessHours":{"businessHours":"00:00 ~ 24:00","closedDaySet":[]},"costPerPerson":-1,"spendingTime":{"hour":1.0,"standardDeviation":0.05},"isRestaurant":false},{"id":8534630,"name":"천상의노을","poiType":{"category":"숙박","subCategory":"펜션","subSubCategory":""},"address":"제주특별자치도 제주시 애월읍 신엄리 2839-1","location":{"latitude":33.47383595633802,"longitude":126.35315950932511},"score":5.0,"businessHours":{"businessHours":"00:00 ~ 24:00","closedDaySet":[]},"costPerPerson":-1,"spendingTime":{"hour":1.0,"standardDeviation":0.05},"isRestaurant":false},{"id":8067669,"name":"메종글래드제주","poiType":{"category":"숙박","subCategory":"호텔","subSubCategory":"특급호텔"},"address":"제주특별자치도 제주시 연동 263-15","location":{"latitude":33.485278140251786,"longitude":126.48852429342276},"score":3.4,"businessHours":{"businessHours":"00:00 ~ 24:00","closedDaySet":[]},"costPerPerson":-1,"spendingTime":{"hour":1.0,"standardDeviation":0.05},"isRestaurant":false},{"id":24030044,"name":"파밀리아호텔","poiType":{"category":"숙박","subCategory":"호텔","subSubCategory":""},"address":"제주특별자치도 서귀포시 대포동 2079","location":{"latitude":33.24094437473841,"longitude":126.43801151277415},"score":5.0,"businessHours":{"businessHours":"00:00 ~ 24:00","closedDaySet":[]},"costPerPerson":-1,"spendingTime":{"hour":1.0,"standardDeviation":0.05},"isRestaurant":false},{"id":27446120,"name":"제주글램핑 무한자미향","poiType":{"category":"숙박","subCategory":"야영,캠핑장","subSubCategory":"글램핑장"},"address":"제주특별자치도 제주시 구좌읍 덕천리 산 11","location":{"latitude":33.48147982451279,"longitude":126.75225076990631},"score":5.0,"businessHours":{"businessHours":"00:00 ~ 24:00","closedDaySet":[]},"costPerPerson":-1,"spendingTime":{"hour":1.0,"standardDeviation":0.05},"isRestaurant":false},{"id":25549735,"name":"늘푸른게스트하우스","poiType":{"category":"숙박","subCategory":"게스트하우스","subSubCategory":""},"address":"제주특별자치도 서귀포시 대정읍 하모리 540-1","location":{"latitude":33.21419434183313,"longitude":126.25912822133515},"score":5.0,"businessHours":{"businessHours":"00:00 ~ 24:00","closedDaySet":[]},"costPerPerson":-1,"spendingTime":{"hour":1.0,"standardDeviation":0.05},"isRestaurant":false},{"id":25078548,"name":"별빛두방울펜션","poiType":{"category":"숙박","subCategory":"펜션","subSubCategory":""},"address":"제주특별자치도 제주시 한림읍 협재리 1940-1","location":{"latitude":33.3955749775733,"longitude":126.247947729571},"score":5.0,"businessHours":{"businessHours":"00:00 ~ 24:00","closedDaySet":[]},"costPerPerson":-1,"spendingTime":{"hour":1.0,"standardDeviation":0.05},"isRestaurant":false},{"id":21355252,"name":"노을과어울림","poiType":{"category":"숙박","subCategory":"펜션","subSubCategory":""},"address":"제주특별자치도 서귀포시 대정읍 신도리 2453","location":{"latitude":33.2707555910645,"longitude":126.175914670002},"score":5.0,"businessHours":{"businessHours":"00:00 ~ 24:00","closedDaySet":[]},"costPerPerson":-1,"spendingTime":{"hour":1.0,"standardDeviation":0.05},"isRestaurant":false},{"id":23210774,"name":"썬시티게스트하우스 성산점","poiType":{"category":"숙박","subCategory":"게스트하우스","subSubCategory":""},"address":"제주특별자치도 서귀포시 성산읍 오조리 13-2","location":{"latitude":33.4685044408784,"longitude":126.92071032787189},"score":2.8,"businessHours":{"businessHours":"00:00 ~ 24:00","closedDaySet":[]},"costPerPerson":-1,"spendingTime":{"hour":1.0,"standardDeviation":0.05},"isRestaurant":false},{"id":10033831,"name":"포시즌호텔","poiType":{"category":"숙박","subCategory":"호텔","subSubCategory":""},"address":"제주특별자치도 제주시 노형동 914","location":{"latitude":33.48642762685932,"longitude":126.48395968742835},"score":3.0,"businessHours":{"businessHours":"00:00 ~ 24:00","closedDaySet":[]},"costPerPerson":-1,"spendingTime":{"hour":1.0,"standardDeviation":0.05},"isRestaurant":false},{"id":27417507,"name":"제이라움","poiType":{"category":"숙박","subCategory":"펜션","subSubCategory":""},"address":"제주특별자치도 서귀포시 대정읍 무릉리 3876","location":{"latitude":33.25644037452577,"longitude":126.19044319359081},"score":5.0,"businessHours":{"businessHours":"00:00 ~ 24:00","closedDaySet":[]},"costPerPerson":-1,"spendingTime":{"hour":1.0,"standardDeviation":0.05},"isRestaurant":false},{"id":17947475,"name":"시간여행휴양펜션","poiType":{"category":"숙박","subCategory":"펜션","subSubCategory":""},"address":"제주특별자치도 제주시 애월읍 구엄리 1054-1","location":{"latitude":33.471900579526526,"longitude":126.37586010819234},"score":4.0,"businessHours":{"businessHours":"00:00 ~ 24:00","closedDaySet":[]},"costPerPerson":-1,"spendingTime":{"hour":1.0,"standardDeviation":0.05},"isRestaurant":false},{"id":19729190,"name":"IRO Jeju","poiType":{"category":"숙박","subCategory":"펜션","subSubCategory":""},"address":"제주특별자치도 서귀포시 안덕면 창천리 949-1","location":{"latitude":33.2407875240019,"longitude":126.364158407074},"score":5.0,"businessHours":{"businessHours":"00:00 ~ 24:00","closedDaySet":[]},"costPerPerson":-1,"spendingTime":{"hour":1.0,"standardDeviation":0.05},"isRestaurant":false},{"id":10103508,"name":"크라운캐슬펜션","poiType":{"category":"숙박","subCategory":"펜션","subSubCategory":""},"address":"제주특별자치도 서귀포시 표선면 세화리 948-1","location":{"latitude":33.3379069550954,"longitude":126.80195127652914},"score":5.0,"businessHours":{"businessHours":"00:00 ~ 24:00","closedDaySet":[]},"costPerPerson":-1,"spendingTime":{"hour":1.0,"standardDeviation":0.05},"isRestaurant":false},{"id":8038889,"name":"이쁜새이쁘게노래하고","poiType":{"category":"숙박","subCategory":"펜션","subSubCategory":""},"address":"제주특별자치도 제주시 한림읍 협재리 2082-2","location":{"latitude":33.3922597250119,"longitude":126.24709832337012},"score":4.8,"businessHours":{"businessHours":"00:00 ~ 24:00","closedDaySet":[]},"costPerPerson":-1,"spendingTime":{"hour":1.0,"standardDeviation":0.05},"isRestaurant":false},{"id":8063699,"name":"선샤인호텔","poiType":{"category":"숙박","subCategory":"호텔","subSubCategory":""},"address":"제주특별자치도 제주시 조천읍 함덕리 1040","location":{"latitude":33.5442539316247,"longitude":126.66181726649974},"score":5.0,"businessHours":{"businessHours":"00:00 ~ 24:00","closedDaySet":[]},"costPerPerson":-1,"spendingTime":{"hour":1.0,"standardDeviation":0.05},"isRestaurant":false},{"id":26647292,"name":"하랑게스트하우스","poiType":{"category":"숙박","subCategory":"게스트하우스","subSubCategory":""},"address":"제주특별자치도 서귀포시 대정읍 일과리 116","location":{"latitude":33.2328030686386,"longitude":126.243688088319},"score":5.0,"businessHours":{"businessHours":"00:00 ~ 24:00","closedDaySet":[]},"costPerPerson":-1,"spendingTime":{"hour":1.0,"standardDeviation":0.05},"isRestaurant":false},{"id":19176342,"name":"그녀이야기","poiType":{"category":"숙박","subCategory":"게스트하우스","subSubCategory":""},"address":"제주특별자치도 서귀포시 안덕면 화순리 681-1","location":{"latitude":33.23889459657964,"longitude":126.33892922988994},"score":3.0,"businessHours":{"businessHours":"00:00 ~ 24:00","closedDaySet":[]},"costPerPerson":-1,"spendingTime":{"hour":1.0,"standardDeviation":0.05},"isRestaurant":false},{"id":27605778,"name":"제주마레보","poiType":{"category":"숙박","subCategory":"콘도,리조트","subSubCategory":""},"address":"제주특별자치도 제주시 애월읍 고내리 41","location":{"latitude":33.47065471819045,"longitude":126.35445260239206},"score":4.5,"businessHours":{"businessHours":"00:00 ~ 24:00","closedDaySet":[]},"costPerPerson":-1,"spendingTime":{"hour":1.0,"standardDeviation":0.05},"isRestaurant":false},{"id":8063682,"name":"조이빌리조트","poiType":{"category":"숙박","subCategory":"콘도,리조트","subSubCategory":""},"address":"제주특별자치도 제주시 조천읍 와산리 1398-4","location":{"latitude":33.483307102606034,"longitude":126.67692913120257},"score":3.0,"businessHours":{"businessHours":"00:00 ~ 24:00","closedDaySet":[]},"costPerPerson":-1,"spendingTime":{"hour":1.0,"standardDeviation":0.05},"isRestaurant":false},{"id":24665010,"name":"지니코티지 게스트하우스","poiType":{"category":"숙박","subCategory":"게스트하우스","subSubCategory":""},"address":"제주특별자치도 제주시 한경면 저지리 1189-1","location":{"latitude":33.33812650322294,"longitude":126.23618808045727},"score":5.0,"businessHours":{"businessHours":"00:00 ~ 24:00","closedDaySet":[]},"costPerPerson":-1,"spendingTime":{"hour":1.0,"standardDeviation":0.05},"isRestaurant":false},{"id":25627402,"name":"제주락민박","poiType":{"category":"숙박","subCategory":"민박","subSubCategory":""},"address":"제주특별자치도 서귀포시 법환동 1540","location":{"latitude":33.231619530673804,"longitude":126.50619256258787},"score":5.0,"businessHours":{"businessHours":"00:00 ~ 24:00","closedDaySet":[]},"costPerPerson":-1,"spendingTime":{"hour":1.0,"standardDeviation":0.05},"isRestaurant":false},{"id":25611032,"name":"더갤러리펜션","poiType":{"category":"숙박","subCategory":"펜션","subSubCategory":""},"address":"제주특별자치도 제주시 조천읍 교래리 188-3","location":{"latitude":33.422109937798396,"longitude":126.67553552764831},"score":5.0,"businessHours":{"businessHours":"00:00 ~ 24:00","closedDaySet":[]},"costPerPerson":-1,"spendingTime":{"hour":1.0,"standardDeviation":0.05},"isRestaurant":false},{"id":17890182,"name":"제주에코스위츠","poiType":{"category":"숙박","subCategory":"펜션","subSubCategory":""},"address":"제주특별자치도 서귀포시 중문동 944-5","location":{"latitude":33.26545410983416,"longitude":126.4277828088223},"score":5.0,"businessHours":{"businessHours":"00:00 ~ 24:00","closedDaySet":[]},"costPerPerson":-1,"spendingTime":{"hour":1.0,"standardDeviation":0.05},"isRestaurant":false},{"id":26888968,"name":"비케이호텔제주","poiType":{"category":"숙박","subCategory":"호텔","subSubCategory":""},"address":"제주특별자치도 서귀포시 서귀동 777-1","location":{"latitude":33.24109120827592,"longitude":126.56420364877866},"score":5.0,"businessHours":{"businessHours":"00:00 ~ 24:00","closedDaySet":[]},"costPerPerson":-1,"spendingTime":{"hour":1.0,"standardDeviation":0.05},"isRestaurant":false},{"id":24943517,"name":"제주공항게스트하우스 산이아고공항점","poiType":{"category":"숙박","subCategory":"게스트하우스","subSubCategory":""},"address":"제주특별자치도 제주시 삼도2동 146-4","location":{"latitude":33.51111147509083,"longitude":126.52305407026631},"score":1.5,"businessHours":{"businessHours":"00:00 ~ 24:00","closedDaySet":[]},"costPerPerson":-1,"spendingTime":{"hour":1.0,"standardDeviation":0.05},"isRestaurant":false},{"id":21355370,"name":"통나무파크","poiType":{"category":"숙박","subCategory":"펜션","subSubCategory":""},"address":"제주특별자치도 제주시 애월읍 납읍리 102-1","location":{"latitude":33.41004190813344,"longitude":126.36542888888496},"score":5.0,"businessHours":{"businessHours":"00:00 ~ 24:00","closedDaySet":[]},"costPerPerson":-1,"spendingTime":{"hour":1.0,"standardDeviation":0.05},"isRestaurant":false},{"id":26569517,"name":"비스비제주 앤 팜빌리지","poiType":{"category":"숙박","subCategory":"펜션","subSubCategory":""},"address":"제주특별자치도 서귀포시 호근동 1641-2","location":{"latitude":33.242645175425146,"longitude":126.52858576057702},"score":4.9,"businessHours":{"businessHours":"00:00 ~ 24:00","closedDaySet":[]},"costPerPerson":-1,"spendingTime":{"hour":1.0,"standardDeviation":0.05},"isRestaurant":false},{"id":9153100,"name":"솔대왓펜션","poiType":{"category":"숙박","subCategory":"펜션","subSubCategory":""},"address":"제주특별자치도 서귀포시 강정동 4641-3","location":{"latitude":33.232358843248804,"longitude":126.47885208252666},"score":5.0,"businessHours":{"businessHours":"00:00 ~ 24:00","closedDaySet":[]},"costPerPerson":-1,"spendingTime":{"hour":1.0,"standardDeviation":0.05},"isRestaurant":false},{"id":25537352,"name":"캡틴후크 게스트하우스","poiType":{"category":"숙박","subCategory":"게스트하우스","subSubCategory":""},"address":"제주특별자치도 제주시 한림읍 협재리 1600","location":{"latitude":33.39716087910646,"longitude":126.24475150015242},"score":4.5,"businessHours":{"businessHours":"00:00 ~ 24:00","closedDaySet":[]},"costPerPerson":-1,"spendingTime":{"hour":1.0,"standardDeviation":0.05},"isRestaurant":false},{"id":25070448,"name":"캐슬렉스제주골프클럽","poiType":{"category":"숙박","subCategory":"콘도,리조트","subSubCategory":""},"address":"제주특별자치도 서귀포시 안덕면 광평리 351","location":{"latitude":33.34020767785929,"longitude":126.34871158228813},"score":5.0,"businessHours":{"businessHours":"00:00 ~ 24:00","closedDaySet":[]},"costPerPerson":-1,"spendingTime":{"hour":1.0,"standardDeviation":0.05},"isRestaurant":false},{"id":25459551,"name":"간세게스트하우스","poiType":{"category":"숙박","subCategory":"게스트하우스","subSubCategory":""},"address":"제주특별자치도 제주시 이도2동 1781-5","location":{"latitude":33.49998719527751,"longitude":126.5262059464181},"score":5.0,"businessHours":{"businessHours":"00:00 ~ 24:00","closedDaySet":[]},"costPerPerson":-1,"spendingTime":{"hour":1.0,"standardDeviation":0.05},"isRestaurant":false},{"id":2141992071,"name":"호텔샬롬제주","poiType":{"category":"숙박","subCategory":"호텔","subSubCategory":""},"address":"제주특별자치도 제주시 이도2동 1174-1","location":{"latitude":33.502023943834104,"longitude":126.53261310310981},"score":3.0,"businessHours":{"businessHours":"00:00 ~ 24:00","closedDaySet":[]},"costPerPerson":-1,"spendingTime":{"hour":1.0,"standardDeviation":0.05},"isRestaurant":false},{"id":12016525,"name":"일출언덕신산게스트하우스","poiType":{"category":"숙박","subCategory":"게스트하우스","subSubCategory":""},"address":"제주특별자치도 서귀포시 성산읍 신산리 594-1","location":{"latitude":33.38422836877245,"longitude":126.87998281482106},"score":4.3,"businessHours":{"businessHours":"00:00 ~ 24:00","closedDaySet":[]},"costPerPerson":-1,"spendingTime":{"hour":1.0,"standardDeviation":0.05},"isRestaurant":false},{"id":24119848,"name":"휴리조트","poiType":{"category":"숙박","subCategory":"콘도,리조트","subSubCategory":""},"address":"제주특별자치도 서귀포시 성산읍 온평리 1832-1","location":{"latitude":33.42099832208573,"longitude":126.8940337941676},"score":3.3,"businessHours":{"businessHours":"00:00 ~ 24:00","closedDaySet":[]},"costPerPerson":-1,"spendingTime":{"hour":1.0,"standardDeviation":0.05},"isRestaurant":false},{"id":1051829610,"name":"마레보비치호텔","poiType":{"category":"숙박","subCategory":"호텔","subSubCategory":""},"address":"제주특별자치도 제주시 애월읍 곽지리 1565-18","location":{"latitude":33.448175810115714,"longitude":126.3037789267903},"score":2.5,"businessHours":{"businessHours":"00:00 ~ 24:00","closedDaySet":[]},"costPerPerson":-1,"spendingTime":{"hour":1.0,"standardDeviation":0.05},"isRestaurant":false},{"id":8403876,"name":"사조리조트 제주지점","poiType":{"category":"숙박","subCategory":"콘도,리조트","subSubCategory":""},"address":"제주특별자치도 제주시 조천읍 북촌리 9-1","location":{"latitude":33.55181578880258,"longitude":126.7051050354197},"score":3.0,"businessHours":{"businessHours":"00:00 ~ 24:00","closedDaySet":[]},"costPerPerson":-1,"spendingTime":{"hour":1.0,"standardDeviation":0.05},"isRestaurant":false},{"id":14572405,"name":"가름게스트하우스","poiType":{"category":"숙박","subCategory":"게스트하우스","subSubCategory":""},"address":"제주특별자치도 서귀포시 법환동 1330","location":{"latitude":33.236548660267204,"longitude":126.51233184634174},"score":5.0,"businessHours":{"businessHours":"00:00 ~ 24:00","closedDaySet":[]},"costPerPerson":-1,"spendingTime":{"hour":1.0,"standardDeviation":0.05},"isRestaurant":false},{"id":20941363,"name":"끄라비펜션","poiType":{"category":"숙박","subCategory":"펜션","subSubCategory":""},"address":"제주특별자치도 서귀포시 토평동 1729-4","location":{"latitude":33.2794345261371,"longitude":126.59143674456558},"score":5.0,"businessHours":{"businessHours":"00:00 ~ 24:00","closedDaySet":[]},"costPerPerson":-1,"spendingTime":{"hour":1.0,"standardDeviation":0.05},"isRestaurant":false},{"id":24119779,"name":"백패커스홈","poiType":{"category":"숙박","subCategory":"게스트하우스","subSubCategory":""},"address":"제주특별자치도 서귀포시 서귀동 315-2","location":{"latitude":33.24726155358264,"longitude":126.55899229765785},"score":4.0,"businessHours":{"businessHours":"00:00 ~ 24:00","closedDaySet":[]},"costPerPerson":-1,"spendingTime":{"hour":1.0,"standardDeviation":0.05},"isRestaurant":false},{"id":22731274,"name":"소금막리조트","poiType":{"category":"숙박","subCategory":"콘도,리조트","subSubCategory":""},"address":"제주특별자치도 서귀포시 하효동 1028-2","location":{"latitude":33.25056632643227,"longitude":126.62037740608565},"score":1.5,"businessHours":{"businessHours":"00:00 ~ 24:00","closedDaySet":[]},"costPerPerson":-1,"spendingTime":{"hour":1.0,"standardDeviation":0.05},"isRestaurant":false},{"id":17017429,"name":"호텔섬오름","poiType":{"category":"숙박","subCategory":"호텔","subSubCategory":""},"address":"제주특별자치도 서귀포시 법환동 1513","location":{"latitude":33.233078903367385,"longitude":126.51042429535403},"score":4.5,"businessHours":{"businessHours":"00:00 ~ 24:00","closedDaySet":[]},"costPerPerson":-1,"spendingTime":{"hour":1.0,"standardDeviation":0.05},"isRestaurant":false},{"id":18446914,"name":"제주아름다운리조트","poiType":{"category":"숙박","subCategory":"콘도,리조트","subSubCategory":""},"address":"제주특별자치도 서귀포시 성산읍 시흥리 5","location":{"latitude":33.47520825257466,"longitude":126.91006362061485},"score":3.4,"businessHours":{"businessHours":"00:00 ~ 24:00","closedDaySet":[]},"costPerPerson":-1,"spendingTime":{"hour":1.0,"standardDeviation":0.05},"isRestaurant":false},{"id":8338148,"name":"미도호스텔","poiType":{"category":"숙박","subCategory":"게스트하우스","subSubCategory":""},"address":"제주특별자치도 서귀포시 서귀동 258-2","location":{"latitude":33.2500636528517,"longitude":126.566365397028},"score":4.9,"businessHours":{"businessHours":"00:00 ~ 24:00","closedDaySet":[]},"costPerPerson":-1,"spendingTime":{"hour":1.0,"standardDeviation":0.05},"isRestaurant":false},{"id":12741412,"name":"제주허브인휴양펜션","poiType":{"category":"숙박","subCategory":"펜션","subSubCategory":""},"address":"제주특별자치도 제주시 한림읍 귀덕리 2731","location":{"latitude":33.435642682890354,"longitude":126.29024399777563},"score":3.9,"businessHours":{"businessHours":"00:00 ~ 24:00","closedDaySet":[]},"costPerPerson":-1,"spendingTime":{"hour":1.0,"standardDeviation":0.05},"isRestaurant":false},{"id":19237520,"name":"제주펜션오다","poiType":{"category":"숙박","subCategory":"펜션","subSubCategory":""},"address":"제주특별자치도 제주시 용담3동 2396","location":{"latitude":33.51772102028961,"longitude":126.48770435356856},"score":3.4,"businessHours":{"businessHours":"00:00 ~ 24:00","closedDaySet":[]},"costPerPerson":-1,"spendingTime":{"hour":1.0,"standardDeviation":0.05},"isRestaurant":false},{"id":25078479,"name":"베니키아 아이진 호텔","poiType":{"category":"숙박","subCategory":"호텔","subSubCategory":"특급호텔"},"address":"제주특별자치도 제주시 연동 306-14","location":{"latitude":33.48241885923573,"longitude":126.49479872900096},"score":5.0,"businessHours":{"businessHours":"00:00 ~ 24:00","closedDaySet":[]},"costPerPerson":-1,"spendingTime":{"hour":1.0,"standardDeviation":0.05},"isRestaurant":false},{"id":27281938,"name":"하버호텔","poiType":{"category":"숙박","subCategory":"호텔","subSubCategory":""},"address":"제주특별자치도 제주시 건입동 1037-1","location":{"latitude":33.517689551594536,"longitude":126.53826781420048},"score":5.0,"businessHours":{"businessHours":"00:00 ~ 24:00","closedDaySet":[]},"costPerPerson":-1,"spendingTime":{"hour":1.0,"standardDeviation":0.05},"isRestaurant":false},{"id":2126972223,"name":"오드리 인 호텔","poiType":{"category":"숙박","subCategory":"호텔","subSubCategory":""},"address":"제주특별자치도 제주시 이호1동 345-2","location":{"latitude":33.503053617025486,"longitude":126.46018407392755},"score":5.0,"businessHours":{"businessHours":"00:00 ~ 24:00","closedDaySet":[]},"costPerPerson":-1,"spendingTime":{"hour":1.0,"standardDeviation":0.05},"isRestaurant":false},{"id":14560038,"name":"바다풍경펜션","poiType":{"category":"숙박","subCategory":"펜션","subSubCategory":""},"address":"제주특별자치도 서귀포시 서귀동 788-10","location":{"latitude":33.23978084533193,"longitude":126.5638625345525},"score":5.0,"businessHours":{"businessHours":"00:00 ~ 24:00","closedDaySet":[]},"costPerPerson":-1,"spendingTime":{"hour":1.0,"standardDeviation":0.05},"isRestaurant":false},{"id":25041598,"name":"티벳풍경 게스트하우스","poiType":{"category":"숙박","subCategory":"게스트하우스","subSubCategory":""},"address":"제주특별자치도 서귀포시 안덕면 창천리 789-1","location":{"latitude":33.2340389742289,"longitude":126.366116962068},"score":5.0,"businessHours":{"businessHours":"00:00 ~ 24:00","closedDaySet":[]},"costPerPerson":-1,"spendingTime":{"hour":1.0,"standardDeviation":0.05},"isRestaurant":false},{"id":26827281,"name":"포지타노인제주","poiType":{"category":"숙박","subCategory":"펜션","subSubCategory":""},"address":"제주특별자치도 서귀포시 성산읍 신천리 287","location":{"latitude":33.343018086137974,"longitude":126.85116485814217},"score":5.0,"businessHours":{"businessHours":"00:00 ~ 24:00","closedDaySet":[]},"costPerPerson":-1,"spendingTime":{"hour":1.0,"standardDeviation":0.05},"isRestaurant":false},{"id":23435951,"name":"바이린하우스","poiType":{"category":"숙박","subCategory":"펜션","subSubCategory":""},"address":"제주특별자치도 제주시 한경면 용수리 4233","location":{"latitude":33.32402421940499,"longitude":126.16438673382481},"score":3.7,"businessHours":{"businessHours":"00:00 ~ 24:00","closedDaySet":[]},"costPerPerson":-1,"spendingTime":{"hour":1.0,"standardDeviation":0.05},"isRestaurant":false},{"id":8068024,"name":"그린게스트하우스","poiType":{"category":"숙박","subCategory":"게스트하우스","subSubCategory":""},"address":"제주특별자치도 제주시 건입동 709-11","location":{"latitude":33.51427568870672,"longitude":126.5395948111446},"score":4.0,"businessHours":{"businessHours":"00:00 ~ 24:00","closedDaySet":[]},"costPerPerson":-1,"spendingTime":{"hour":1.0,"standardDeviation":0.05},"isRestaurant":false},{"id":15698750,"name":"제주해조대","poiType":{"category":"숙박","subCategory":"펜션","subSubCategory":""},"address":"제주특별자치도 제주시 한림읍 협재리 2446-3","location":{"latitude":33.393987009560504,"longitude":126.24057432616686},"score":3.0,"businessHours":{"businessHours":"00:00 ~ 24:00","closedDaySet":[]},"costPerPerson":-1,"spendingTime":{"hour":1.0,"standardDeviation":0.05},"isRestaurant":false},{"id":27449845,"name":"하늘타리펜션","poiType":{"category":"숙박","subCategory":"펜션","subSubCategory":""},"address":"제주특별자치도 제주시 외도2동 1991","location":{"latitude":33.493871753278874,"longitude":126.42447357470226},"score":5.0,"businessHours":{"businessHours":"00:00 ~ 24:00","closedDaySet":[]},"costPerPerson":-1,"spendingTime":{"hour":1.0,"standardDeviation":0.05},"isRestaurant":false},{"id":25610781,"name":"T아일랜드","poiType":{"category":"숙박","subCategory":"펜션","subSubCategory":""},"address":"제주특별자치도 서귀포시 법환동 1452","location":{"latitude":33.23354881741727,"longitude":126.51161040916253},"score":5.0,"businessHours":{"businessHours":"00:00 ~ 24:00","closedDaySet":[]},"costPerPerson":-1,"spendingTime":{"hour":1.0,"standardDeviation":0.05},"isRestaurant":false},{"id":26311218,"name":"빈필드 제주팬션앤렌트하우스","poiType":{"category":"숙박","subCategory":"펜션","subSubCategory":""},"address":"제주특별자치도 서귀포시 성산읍 오조리 577-3","location":{"latitude":33.465019092410216,"longitude":126.91314473597791},"score":5.0,"businessHours":{"businessHours":"00:00 ~ 24:00","closedDaySet":[]},"costPerPerson":-1,"spendingTime":{"hour":1.0,"standardDeviation":0.05},"isRestaurant":false},{"id":10271540,"name":"늘바다통나무펜션","poiType":{"category":"숙박","subCategory":"펜션","subSubCategory":""},"address":"제주특별자치도 서귀포시 안덕면 창천리 901-6","location":{"latitude":33.2370912230675,"longitude":126.363519961967},"score":4.7,"businessHours":{"businessHours":"00:00 ~ 24:00","closedDaySet":[]},"costPerPerson":-1,"spendingTime":{"hour":1.0,"standardDeviation":0.05},"isRestaurant":false},{"id":317765893,"name":"나들목하우스","poiType":{"category":"숙박","subCategory":"펜션","subSubCategory":""},"address":"제주특별자치도 서귀포시 안덕면 사계리 2032","location":{"latitude":33.23033435136418,"longitude":126.30809238327643},"score":5.0,"businessHours":{"businessHours":"00:00 ~ 24:00","closedDaySet":[]},"costPerPerson":-1,"spendingTime":{"hour":1.0,"standardDeviation":0.05},"isRestaurant":false},{"id":26552877,"name":"해리앤소담펜션","poiType":{"category":"숙박","subCategory":"펜션","subSubCategory":""},"address":"제주특별자치도 제주시 애월읍 광령리 2010-10","location":{"latitude":33.46256305968018,"longitude":126.43104903649593},"score":5.0,"businessHours":{"businessHours":"00:00 ~ 24:00","closedDaySet":[]},"costPerPerson":-1,"spendingTime":{"hour":1.0,"standardDeviation":0.05},"isRestaurant":false},{"id":11750206,"name":"AG하우스","poiType":{"category":"숙박","subCategory":"펜션","subSubCategory":""},"address":"제주특별자치도 서귀포시 표선면 세화리 684-4","location":{"latitude":33.33591911322474,"longitude":126.80607189517687},"score":5.0,"businessHours":{"businessHours":"00:00 ~ 24:00","closedDaySet":[]},"costPerPerson":-1,"spendingTime":{"hour":1.0,"standardDeviation":0.05},"isRestaurant":false},{"id":25537119,"name":"가까이에파도소리펜션","poiType":{"category":"숙박","subCategory":"펜션","subSubCategory":""},"address":"제주특별자치도 제주시 외도2동 1972-1","location":{"latitude":33.494955582710084,"longitude":126.42488820923589},"score":5.0,"businessHours":{"businessHours":"00:00 ~ 24:00","closedDaySet":[]},"costPerPerson":-1,"spendingTime":{"hour":1.0,"standardDeviation":0.05},"isRestaurant":false},{"id":27224641,"name":"비스타케이호텔","poiType":{"category":"숙박","subCategory":"호텔","subSubCategory":""},"address":"제주특별자치도 서귀포시 법환동 745-1","location":{"latitude":33.25190955892294,"longitude":126.50979536245211},"score":3.7,"businessHours":{"businessHours":"00:00 ~ 24:00","closedDaySet":[]},"costPerPerson":-1,"spendingTime":{"hour":1.0,"standardDeviation":0.05},"isRestaurant":false},{"id":14712006,"name":"달집게스트하우스","poiType":{"category":"숙박","subCategory":"게스트하우스","subSubCategory":""},"address":"제주특별자치도 제주시 구좌읍 종달리 953","location":{"latitude":33.49375290779333,"longitude":126.90093435211566},"score":5.0,"businessHours":{"businessHours":"00:00 ~ 24:00","closedDaySet":[]},"costPerPerson":-1,"spendingTime":{"hour":1.0,"standardDeviation":0.05},"isRestaurant":false},{"id":22175022,"name":"고스트하우스","poiType":{"category":"숙박","subCategory":"펜션","subSubCategory":""},"address":"제주특별자치도 제주시 애월읍 신엄리 2880-3","location":{"latitude":33.475865713370844,"longitude":126.35677048015584},"score":4.5,"businessHours":{"businessHours":"00:00 ~ 24:00","closedDaySet":[]},"costPerPerson":-1,"spendingTime":{"hour":1.0,"standardDeviation":0.05},"isRestaurant":false},{"id":25513354,"name":"하얀둥지펜션","poiType":{"category":"숙박","subCategory":"펜션","subSubCategory":""},"address":"제주특별자치도 제주시 애월읍 고내리 459","location":{"latitude":33.47054375147909,"longitude":126.34160875042625},"score":3.0,"businessHours":{"businessHours":"00:00 ~ 24:00","closedDaySet":[]},"costPerPerson":-1,"spendingTime":{"hour":1.0,"standardDeviation":0.05},"isRestaurant":false},{"id":26262942,"name":"파도봐펜션","poiType":{"category":"숙박","subCategory":"펜션","subSubCategory":""},"address":"제주특별자치도 서귀포시 남원읍 남원리 93-11","location":{"latitude":33.27825219820602,"longitude":126.72009856772377},"score":5.0,"businessHours":{"businessHours":"00:00 ~ 24:00","closedDaySet":[]},"costPerPerson":-1,"spendingTime":{"hour":1.0,"standardDeviation":0.05},"isRestaurant":false},{"id":17698077,"name":"달빛독채펜션","poiType":{"category":"숙박","subCategory":"펜션","subSubCategory":""},"address":"제주특별자치도 서귀포시 서호동 638","location":{"latitude":33.2583161185069,"longitude":126.522281376585},"score":5.0,"businessHours":{"businessHours":"00:00 ~ 24:00","closedDaySet":[]},"costPerPerson":-1,"spendingTime":{"hour":1.0,"standardDeviation":0.05},"isRestaurant":false},{"id":10054835,"name":"슬로시티게스트하우스","poiType":{"category":"숙박","subCategory":"게스트하우스","subSubCategory":""},"address":"제주특별자치도 서귀포시 서귀동 307-3","location":{"latitude":33.250631393063536,"longitude":126.56039178844506},"score":3.0,"businessHours":{"businessHours":"00:00 ~ 24:00","closedDaySet":[]},"costPerPerson":-1,"spendingTime":{"hour":1.0,"standardDeviation":0.05},"isRestaurant":false},{"id":1295712598,"name":"샐리스제주호텔","poiType":{"category":"숙박","subCategory":"호텔","subSubCategory":""},"address":"제주특별자치도 제주시 애월읍 하가리 1258-1","location":{"latitude":33.464682746224284,"longitude":126.34169861720699},"score":5.0,"businessHours":{"businessHours":"00:00 ~ 24:00","closedDaySet":[]},"costPerPerson":-1,"spendingTime":{"hour":1.0,"standardDeviation":0.05},"isRestaurant":false},{"id":2002709229,"name":"온더스톤펜션","poiType":{"category":"숙박","subCategory":"펜션","subSubCategory":""},"address":"제주특별자치도 서귀포시 성산읍 오조리 374","location":{"latitude":33.46994148022941,"longitude":126.9178086709939},"score":5.0,"businessHours":{"businessHours":"00:00 ~ 24:00","closedDaySet":[]},"costPerPerson":-1,"spendingTime":{"hour":1.0,"standardDeviation":0.05},"isRestaurant":false},{"id":11492571,"name":"제주빌레성 통나무휴양펜션","poiType":{"category":"숙박","subCategory":"펜션","subSubCategory":""},"address":"제주특별자치도 서귀포시 성산읍 온평리 1050","location":{"latitude":33.40163256473037,"longitude":126.89936354092298},"score":5.0,"businessHours":{"businessHours":"00:00 ~ 24:00","closedDaySet":[]},"costPerPerson":-1,"spendingTime":{"hour":1.0,"standardDeviation":0.05},"isRestaurant":false},{"id":25505231,"name":"바람이분다 제주공항점","poiType":{"category":"숙박","subCategory":"게스트하우스","subSubCategory":""},"address":"제주특별자치도 제주시 연동 298-9","location":{"latitude":33.48264478749448,"longitude":126.49448754640204},"score":5.0,"businessHours":{"businessHours":"00:00 ~ 24:00","closedDaySet":[]},"costPerPerson":-1,"spendingTime":{"hour":1.0,"standardDeviation":0.05},"isRestaurant":false},{"id":23973110,"name":"바다로향한문펜션","poiType":{"category":"숙박","subCategory":"펜션","subSubCategory":""},"address":"제주특별자치도 서귀포시 남원읍 남원리 1382","location":{"latitude":33.27676781064887,"longitude":126.71133143426628},"score":3.8,"businessHours":{"businessHours":"00:00 ~ 24:00","closedDaySet":[]},"costPerPerson":-1,"spendingTime":{"hour":1.0,"standardDeviation":0.05},"isRestaurant":false},{"id":7961818,"name":"스웨덴리조트펜션","poiType":{"category":"숙박","subCategory":"펜션","subSubCategory":""},"address":"제주특별자치도 제주시 한림읍 협재리 12-1","location":{"latitude":33.39077174983888,"longitude":126.26062422238563},"score":4.0,"businessHours":{"businessHours":"00:00 ~ 24:00","closedDaySet":[]},"costPerPerson":-1,"spendingTime":{"hour":1.0,"standardDeviation":0.05},"isRestaurant":false},{"id":25611491,"name":"제주항공우주호텔","poiType":{"category":"숙박","subCategory":"호텔","subSubCategory":""},"address":"제주특별자치도 서귀포시 안덕면 서광리 산 41","location":{"latitude":33.30252452521525,"longitude":126.29468469837258},"score":4.0,"businessHours":{"businessHours":"00:00 ~ 24:00","closedDaySet":[]},"costPerPerson":-1,"spendingTime":{"hour":1.0,"standardDeviation":0.05},"isRestaurant":false},{"id":302853736,"name":"구엄리용삼네","poiType":{"category":"숙박","subCategory":"펜션","subSubCategory":""},"address":"제주특별자치도 제주시 애월읍 구엄리 92-1","location":{"latitude":33.47686328622343,"longitude":126.3824043446256},"score":5.0,"businessHours":{"businessHours":"00:00 ~ 24:00","closedDaySet":[]},"costPerPerson":-1,"spendingTime":{"hour":1.0,"standardDeviation":0.05},"isRestaurant":false},{"id":25767159,"name":"호텔레오","poiType":{"category":"숙박","subCategory":"호텔","subSubCategory":""},"address":"제주특별자치도 제주시 연동 261-25","location":{"latitude":33.489766798965924,"longitude":126.48822237793021},"score":1.5,"businessHours":{"businessHours":"00:00 ~ 24:00","closedDaySet":[]},"costPerPerson":-1,"spendingTime":{"hour":1.0,"standardDeviation":0.05},"isRestaurant":false},{"id":18410908,"name":"올레엔펜션","poiType":{"category":"숙박","subCategory":"펜션","subSubCategory":""},"address":"제주특별자치도 제주시 외도2동 2039-1","location":{"latitude":33.49311708064794,"longitude":126.42362312258936},"score":5.0,"businessHours":{"businessHours":"00:00 ~ 24:00","closedDaySet":[]},"costPerPerson":-1,"spendingTime":{"hour":1.0,"standardDeviation":0.05},"isRestaurant":false},{"id":27274469,"name":"미소가펜션","poiType":{"category":"숙박","subCategory":"펜션","subSubCategory":""},"address":"제주특별자치도 서귀포시 남원읍 위미리 3100","location":{"latitude":33.27257958295189,"longitude":126.65200588273859},"score":5.0,"businessHours":{"businessHours":"00:00 ~ 24:00","closedDaySet":[]},"costPerPerson":-1,"spendingTime":{"hour":1.0,"standardDeviation":0.05},"isRestaurant":false},{"id":740192410,"name":"유탑유블레스호텔 제주","poiType":{"category":"숙박","subCategory":"호텔","subSubCategory":""},"address":"제주특별자치도 제주시 조천읍 함덕리 1269-9","location":{"latitude":33.542412416295,"longitude":126.6662776096031},"score":4.4,"businessHours":{"businessHours":"00:00 ~ 24:00","closedDaySet":[]},"costPerPerson":-1,"spendingTime":{"hour":1.0,"standardDeviation":0.05},"isRestaurant":false},{"id":13057106,"name":"스프링데일 골프앤리조트","poiType":{"category":"숙박","subCategory":"콘도,리조트","subSubCategory":""},"address":"제주특별자치도 서귀포시 남원읍 위미리 4625","location":{"latitude":33.32955221081314,"longitude":126.63847333896706},"score":3.1,"businessHours":{"businessHours":"00:00 ~ 24:00","closedDaySet":[]},"costPerPerson":-1,"spendingTime":{"hour":1.0,"standardDeviation":0.05},"isRestaurant":false},{"id":12721124,"name":"모나미게스트하우스","poiType":{"category":"숙박","subCategory":"게스트하우스","subSubCategory":""},"address":"제주특별자치도 제주시 도두1동 2541","location":{"latitude":33.50290417657704,"longitude":126.46343581516663},"score":3.3,"businessHours":{"businessHours":"00:00 ~ 24:00","closedDaySet":[]},"costPerPerson":-1,"spendingTime":{"hour":1.0,"standardDeviation":0.05},"isRestaurant":false},{"id":8449061,"name":"솔베이지펜션","poiType":{"category":"숙박","subCategory":"펜션","subSubCategory":""},"address":"제주특별자치도 제주시 애월읍 고성리 697","location":{"latitude":33.44661971406748,"longitude":126.41806677464572},"score":4.0,"businessHours":{"businessHours":"00:00 ~ 24:00","closedDaySet":[]},"costPerPerson":-1,"spendingTime":{"hour":1.0,"standardDeviation":0.05},"isRestaurant":false},{"id":15924256,"name":"펜션연리","poiType":{"category":"숙박","subCategory":"펜션","subSubCategory":""},"address":"제주특별자치도 서귀포시 하예동 463-1","location":{"latitude":33.24040365863769,"longitude":126.38629039159929},"score":5.0,"businessHours":{"businessHours":"00:00 ~ 24:00","closedDaySet":[]},"costPerPerson":-1,"spendingTime":{"hour":1.0,"standardDeviation":0.05},"isRestaurant":false},{"id":26512698,"name":"제주도독채민박 근동이네","poiType":{"category":"숙박","subCategory":"민박","subSubCategory":""},"address":"제주특별자치도 제주시 구좌읍 동복리 1481","location":{"latitude":33.55274901807729,"longitude":126.71238969010012},"score":4.4,"businessHours":{"businessHours":"00:00 ~ 24:00","closedDaySet":[]},"costPerPerson":-1,"spendingTime":{"hour":1.0,"standardDeviation":0.05},"isRestaurant":false},{"id":27356496,"name":"브릭216","poiType":{"category":"숙박","subCategory":"콘도,리조트","subSubCategory":""},"address":"제주특별자치도 서귀포시 대포동 2229-1","location":{"latitude":33.2408569103264,"longitude":126.44341117771171},"score":5.0,"businessHours":{"businessHours":"00:00 ~ 24:00","closedDaySet":[]},"costPerPerson":-1,"spendingTime":{"hour":1.0,"standardDeviation":0.05},"isRestaurant":false},{"id":27266400,"name":"체크인호텔","poiType":{"category":"숙박","subCategory":"호텔","subSubCategory":""},"address":"제주특별자치도 제주시 건입동 1319-48","location":{"latitude":33.51626147178048,"longitude":126.52778318684514},"score":5.0,"businessHours":{"businessHours":"00:00 ~ 24:00","closedDaySet":[]},"costPerPerson":-1,"spendingTime":{"hour":1.0,"standardDeviation":0.05},"isRestaurant":false},{"id":20258222,"name":"알앤티호텔","poiType":{"category":"숙박","subCategory":"호텔","subSubCategory":""},"address":"제주특별자치도 제주시 삼도2동 914","location":{"latitude":33.511187058469446,"longitude":126.52115078421667},"score":2.8,"businessHours":{"businessHours":"00:00 ~ 24:00","closedDaySet":[]},"costPerPerson":-1,"spendingTime":{"hour":1.0,"standardDeviation":0.05},"isRestaurant":false},{"id":11320373,"name":"미르빌펜션앤리조트","poiType":{"category":"숙박","subCategory":"펜션","subSubCategory":""},"address":"제주특별자치도 서귀포시 안덕면 사계리 846","location":{"latitude":33.245777170136485,"longitude":126.30595977215695},"score":4.9,"businessHours":{"businessHours":"00:00 ~ 24:00","closedDaySet":[]},"costPerPerson":-1,"spendingTime":{"hour":1.0,"standardDeviation":0.05},"isRestaurant":false},{"id":24284524,"name":"서귀포 야자수풀빌라 펜션","poiType":{"category":"숙박","subCategory":"펜션","subSubCategory":""},"address":"제주특별자치도 서귀포시 표선면 하천리 59-1","location":{"latitude":33.33737554624533,"longitude":126.84660723562003},"score":5.0,"businessHours":{"businessHours":"00:00 ~ 24:00","closedDaySet":[]},"costPerPerson":-1,"spendingTime":{"hour":1.0,"standardDeviation":0.05},"isRestaurant":false},{"id":12746160,"name":"해바라기펜션","poiType":{"category":"숙박","subCategory":"펜션","subSubCategory":""},"address":"제주특별자치도 제주시 한림읍 협재리 1923-1","location":{"latitude":33.395476019035705,"longitude":126.24700605216573},"score":5.0,"businessHours":{"businessHours":"00:00 ~ 24:00","closedDaySet":[]},"costPerPerson":-1,"spendingTime":{"hour":1.0,"standardDeviation":0.05},"isRestaurant":false},{"id":18316260,"name":"라사니아리조트","poiType":{"category":"숙박","subCategory":"콘도,리조트","subSubCategory":""},"address":"제주특별자치도 서귀포시 성산읍 신산리 1176-5","location":{"latitude":33.373787546734945,"longitude":126.87272870439347},"score":3.3,"businessHours":{"businessHours":"00:00 ~ 24:00","closedDaySet":[]},"costPerPerson":-1,"spendingTime":{"hour":1.0,"standardDeviation":0.05},"isRestaurant":false},{"id":19229728,"name":"호텔제이엠","poiType":{"category":"숙박","subCategory":"호텔","subSubCategory":""},"address":"제주특별자치도 제주시 연동 260-40","location":{"latitude":33.4904010882811,"longitude":126.48876013319},"score":4.0,"businessHours":{"businessHours":"00:00 ~ 24:00","closedDaySet":[]},"costPerPerson":-1,"spendingTime":{"hour":1.0,"standardDeviation":0.05},"isRestaurant":false},{"id":26176625,"name":"빌라배알로","poiType":{"category":"숙박","subCategory":"펜션","subSubCategory":""},"address":"제주특별자치도 서귀포시 성산읍 고성리 590-2","location":{"latitude":33.43497249702795,"longitude":126.91626357440447},"score":5.0,"businessHours":{"businessHours":"00:00 ~ 24:00","closedDaySet":[]},"costPerPerson":-1,"spendingTime":{"hour":1.0,"standardDeviation":0.05},"isRestaurant":false},{"id":24222779,"name":"엠버호텔","poiType":{"category":"숙박","subCategory":"호텔","subSubCategory":""},"address":"제주특별자치도 제주시 연동 251-1","location":{"latitude":33.48974707402236,"longitude":126.48781360796943},"score":4.7,"businessHours":{"businessHours":"00:00 ~ 24:00","closedDaySet":[]},"costPerPerson":-1,"spendingTime":{"hour":1.0,"standardDeviation":0.05},"isRestaurant":false},{"id":27184266,"name":"제주에우리집펜션","poiType":{"category":"숙박","subCategory":"펜션","subSubCategory":""},"address":"제주특별자치도 서귀포시 안덕면 서광리 333-4","location":{"latitude":33.2885415728992,"longitude":126.326655121215},"score":5.0,"businessHours":{"businessHours":"00:00 ~ 24:00","closedDaySet":[]},"costPerPerson":-1,"spendingTime":{"hour":1.0,"standardDeviation":0.05},"isRestaurant":false},{"id":20126697,"name":"스완지리조트","poiType":{"category":"숙박","subCategory":"펜션","subSubCategory":""},"address":"제주특별자치도 제주시 이호1동 365","location":{"latitude":33.50304371667823,"longitude":126.45822193999356},"score":5.0,"businessHours":{"businessHours":"00:00 ~ 24:00","closedDaySet":[]},"costPerPerson":-1,"spendingTime":{"hour":1.0,"standardDeviation":0.05},"isRestaurant":false},{"id":22817857,"name":"아모르하우스","poiType":{"category":"숙박","subCategory":"게스트하우스","subSubCategory":""},"address":"제주특별자치도 제주시 구좌읍 종달리 1380","location":{"latitude":33.5087779770078,"longitude":126.901740529996},"score":4.4,"businessHours":{"businessHours":"00:00 ~ 24:00","closedDaySet":[]},"costPerPerson":-1,"spendingTime":{"hour":1.0,"standardDeviation":0.05},"isRestaurant":false},{"id":7961894,"name":"송악리조트","poiType":{"category":"숙박","subCategory":"콘도,리조트","subSubCategory":""},"address":"제주특별자치도 서귀포시 대정읍 상모리 78","location":{"latitude":33.2123341569509,"longitude":126.291710546817},"score":3.0,"businessHours":{"businessHours":"00:00 ~ 24:00","closedDaySet":[]},"costPerPerson":-1,"spendingTime":{"hour":1.0,"standardDeviation":0.05},"isRestaurant":false},{"id":20827108,"name":"푸르미르","poiType":{"category":"숙박","subCategory":"펜션","subSubCategory":""},"address":"제주특별자치도 서귀포시 성산읍 성산리 368","location":{"latitude":33.4682143885192,"longitude":126.92996219467649},"score":4.3,"businessHours":{"businessHours":"00:00 ~ 24:00","closedDaySet":[]},"costPerPerson":-1,"spendingTime":{"hour":1.0,"standardDeviation":0.05},"isRestaurant":false},{"id":25685145,"name":"하모니리조트","poiType":{"category":"숙박","subCategory":"콘도,리조트","subSubCategory":""},"address":"제주특별자치도 제주시 한림읍 협재리 964-1","location":{"latitude":33.3793611769647,"longitude":126.25208423776832},"score":5.0,"businessHours":{"businessHours":"00:00 ~ 24:00","closedDaySet":[]},"costPerPerson":-1,"spendingTime":{"hour":1.0,"standardDeviation":0.05},"isRestaurant":false},{"id":484778370,"name":"앙끄리에펜션","poiType":{"category":"숙박","subCategory":"펜션","subSubCategory":""},"address":"제주특별자치도 서귀포시 색달동 1879","location":{"latitude":33.263003756297884,"longitude":126.4141513356424},"score":5.0,"businessHours":{"businessHours":"00:00 ~ 24:00","closedDaySet":[]},"costPerPerson":-1,"spendingTime":{"hour":1.0,"standardDeviation":0.05},"isRestaurant":false},{"id":10829270,"name":"퀸스베이","poiType":{"category":"숙박","subCategory":"펜션","subSubCategory":""},"address":"제주특별자치도 제주시 애월읍 신엄리 953","location":{"latitude":33.47707780066623,"longitude":126.36987990634844},"score":4.5,"businessHours":{"businessHours":"00:00 ~ 24:00","closedDaySet":[]},"costPerPerson":-1,"spendingTime":{"hour":1.0,"standardDeviation":0.05},"isRestaurant":false},{"id":19369047,"name":"카이","poiType":{"category":"숙박","subCategory":"콘도,리조트","subSubCategory":""},"address":"제주특별자치도 제주시 한림읍 협재리 2021-1","location":{"latitude":33.39213763900775,"longitude":126.24127400510736},"score":4.0,"businessHours":{"businessHours":"00:00 ~ 24:00","closedDaySet":[]},"costPerPerson":-1,"spendingTime":{"hour":1.0,"standardDeviation":0.05},"isRestaurant":false},{"id":20388932,"name":"사려니힐링펜션","poiType":{"category":"숙박","subCategory":"펜션","subSubCategory":""},"address":"제주특별자치도 제주시 조천읍 교래리 619","location":{"latitude":33.42747449500343,"longitude":126.67212197430351},"score":1.5,"businessHours":{"businessHours":"00:00 ~ 24:00","closedDaySet":[]},"costPerPerson":-1,"spendingTime":{"hour":1.0,"standardDeviation":0.05},"isRestaurant":false},{"id":14831003,"name":"한국콘도 제주점","poiType":{"category":"숙박","subCategory":"콘도,리조트","subSubCategory":""},"address":"제주특별자치도 서귀포시 색달동 2822-5","location":{"latitude":33.24752050992981,"longitude":126.41264143180723},"score":1.7,"businessHours":{"businessHours":"00:00 ~ 24:00","closedDaySet":[]},"costPerPerson":-1,"spendingTime":{"hour":1.0,"standardDeviation":0.05},"isRestaurant":false},{"id":20700228,"name":"뉴헤븐다이브\u0026펜션","poiType":{"category":"숙박","subCategory":"펜션","subSubCategory":""},"address":"제주특별자치도 서귀포시 신효동 682-2","location":{"latitude":33.2675330182033,"longitude":126.613186322779},"score":5.0,"businessHours":{"businessHours":"00:00 ~ 24:00","closedDaySet":[]},"costPerPerson":-1,"spendingTime":{"hour":1.0,"standardDeviation":0.05},"isRestaurant":false},{"id":27049121,"name":"오드리하우스","poiType":{"category":"숙박","subCategory":"펜션","subSubCategory":""},"address":"제주특별자치도 제주시 조천읍 대흘리 1075-12","location":{"latitude":33.49321642090747,"longitude":126.668382623747},"score":5.0,"businessHours":{"businessHours":"00:00 ~ 24:00","closedDaySet":[]},"costPerPerson":-1,"spendingTime":{"hour":1.0,"standardDeviation":0.05},"isRestaurant":false},{"id":8326403,"name":"봄그리고가을리조트","poiType":{"category":"숙박","subCategory":"콘도,리조트","subSubCategory":""},"address":"제주특별자치도 서귀포시 성산읍 시흥리 205","location":{"latitude":33.4746390944326,"longitude":126.91048410311181},"score":4.2,"businessHours":{"businessHours":"00:00 ~ 24:00","closedDaySet":[]},"costPerPerson":-1,"spendingTime":{"hour":1.0,"standardDeviation":0.05},"isRestaurant":false},{"id":25160702,"name":"제주그린힐하우스","poiType":{"category":"숙박","subCategory":"민박","subSubCategory":""},"address":"제주특별자치도 서귀포시 성산읍 고성리 1673-1","location":{"latitude":33.4394955592289,"longitude":126.907363547634},"score":5.0,"businessHours":{"businessHours":"00:00 ~ 24:00","closedDaySet":[]},"costPerPerson":-1,"spendingTime":{"hour":1.0,"standardDeviation":0.05},"isRestaurant":false},{"id":17054794,"name":"아프리카게스트하우스","poiType":{"category":"숙박","subCategory":"게스트하우스","subSubCategory":""},"address":"제주특별자치도 제주시 조천읍 신흥리 61","location":{"latitude":33.548996850628406,"longitude":126.65165563970088},"score":3.5,"businessHours":{"businessHours":"00:00 ~ 24:00","closedDaySet":[]},"costPerPerson":-1,"spendingTime":{"hour":1.0,"standardDeviation":0.05},"isRestaurant":false},{"id":21117984,"name":"솔라시도펜션","poiType":{"category":"숙박","subCategory":"펜션","subSubCategory":""},"address":"제주특별자치도 서귀포시 법환동 172-2","location":{"latitude":33.23425495719292,"longitude":126.51325870556559},"score":5.0,"businessHours":{"businessHours":"00:00 ~ 24:00","closedDaySet":[]},"costPerPerson":-1,"spendingTime":{"hour":1.0,"standardDeviation":0.05},"isRestaurant":false},{"id":26823680,"name":"제주베스트힐","poiType":{"category":"숙박","subCategory":"펜션","subSubCategory":""},"address":"제주특별자치도 제주시 조천읍 교래리 786-29","location":{"latitude":33.454110378319065,"longitude":126.65748310143857},"score":5.0,"businessHours":{"businessHours":"00:00 ~ 24:00","closedDaySet":[]},"costPerPerson":-1,"spendingTime":{"hour":1.0,"standardDeviation":0.05},"isRestaurant":false},{"id":613255397,"name":"자연in 펜션글램핑","poiType":{"category":"숙박","subCategory":"펜션","subSubCategory":""},"address":"제주특별자치도 제주시 아라1동 2082-1","location":{"latitude":33.46871783482164,"longitude":126.5399441224219},"score":5.0,"businessHours":{"businessHours":"00:00 ~ 24:00","closedDaySet":[]},"costPerPerson":-1,"spendingTime":{"hour":1.0,"standardDeviation":0.05},"isRestaurant":false},{"id":18099309,"name":"흰고래게스트하우스","poiType":{"category":"숙박","subCategory":"게스트하우스","subSubCategory":""},"address":"제주특별자치도 서귀포시 서호동 65-2","location":{"latitude":33.2440720251017,"longitude":126.523646479331},"score":4.6,"businessHours":{"businessHours":"00:00 ~ 24:00","closedDaySet":[]},"costPerPerson":-1,"spendingTime":{"hour":1.0,"standardDeviation":0.05},"isRestaurant":false},{"id":26942433,"name":"아리게스트하우스","poiType":{"category":"숙박","subCategory":"게스트하우스","subSubCategory":""},"address":"제주특별자치도 서귀포시 안덕면 사계리 230","location":{"latitude":33.2357803986175,"longitude":126.308481723936},"score":3.0,"businessHours":{"businessHours":"00:00 ~ 24:00","closedDaySet":[]},"costPerPerson":-1,"spendingTime":{"hour":1.0,"standardDeviation":0.05},"isRestaurant":false},{"id":26303472,"name":"미르앤러브게스트하우스","poiType":{"category":"숙박","subCategory":"게스트하우스","subSubCategory":""},"address":"제주특별자치도 제주시 용담2동 603-30","location":{"latitude":33.51282631401304,"longitude":126.51061117122751},"score":5.0,"businessHours":{"businessHours":"00:00 ~ 24:00","closedDaySet":[]},"costPerPerson":-1,"spendingTime":{"hour":1.0,"standardDeviation":0.05},"isRestaurant":false},{"id":25021635,"name":"꼬뜨도르호텔","poiType":{"category":"숙박","subCategory":"호텔","subSubCategory":""},"address":"제주특별자치도 제주시 구좌읍 동복리 827","location":{"latitude":33.551961739909565,"longitude":126.71658751970463},"score":2.5,"businessHours":{"businessHours":"00:00 ~ 24:00","closedDaySet":[]},"costPerPerson":-1,"spendingTime":{"hour":1.0,"standardDeviation":0.05},"isRestaurant":false},{"id":26598426,"name":"라마다제주시티홀","poiType":{"category":"숙박","subCategory":"호텔","subSubCategory":""},"address":"제주특별자치도 제주시 이도2동 1025-8","location":{"latitude":33.4934983095192,"longitude":126.534341442034},"score":5.0,"businessHours":{"businessHours":"00:00 ~ 24:00","closedDaySet":[]},"costPerPerson":-1,"spendingTime":{"hour":1.0,"standardDeviation":0.05},"isRestaurant":false},{"id":25132207,"name":"스톤빌리지","poiType":{"category":"숙박","subCategory":"펜션","subSubCategory":""},"address":"제주특별자치도 제주시 한림읍 협재리 960-1","location":{"latitude":33.379605999933574,"longitude":126.25082266189895},"score":5.0,"businessHours":{"businessHours":"00:00 ~ 24:00","closedDaySet":[]},"costPerPerson":-1,"spendingTime":{"hour":1.0,"standardDeviation":0.05},"isRestaurant":false},{"id":143885576,"name":"호텔난타 제주","poiType":{"category":"숙박","subCategory":"호텔","subSubCategory":""},"address":"제주특별자치도 제주시 오등동 10-1","location":{"latitude":33.445798881246795,"longitude":126.54765406500887},"score":2.5,"businessHours":{"businessHours":"00:00 ~ 24:00","closedDaySet":[]},"costPerPerson":-1,"spendingTime":{"hour":1.0,"standardDeviation":0.05},"isRestaurant":false},{"id":25611282,"name":"라만차펜션","poiType":{"category":"숙박","subCategory":"펜션","subSubCategory":""},"address":"제주특별자치도 제주시 한림읍 금능리 1466","location":{"latitude":33.3886068303952,"longitude":126.2318770455221},"score":5.0,"businessHours":{"businessHours":"00:00 ~ 24:00","closedDaySet":[]},"costPerPerson":-1,"spendingTime":{"hour":1.0,"standardDeviation":0.05},"isRestaurant":false},{"id":14499147,"name":"클로버비앤비","poiType":{"category":"숙박","subCategory":"민박","subSubCategory":""},"address":"제주특별자치도 서귀포시 성산읍 시흥리 1082","location":{"latitude":33.47811846472382,"longitude":126.89579673282985},"score":5.0,"businessHours":{"businessHours":"00:00 ~ 24:00","closedDaySet":[]},"costPerPerson":-1,"spendingTime":{"hour":1.0,"standardDeviation":0.05},"isRestaurant":false},{"id":396315142,"name":"호텔휘슬락","poiType":{"category":"숙박","subCategory":"호텔","subSubCategory":""},"address":"제주특별자치도 제주시 건입동 1443-2","location":{"latitude":33.51737839424505,"longitude":126.52751016367932},"score":5.0,"businessHours":{"businessHours":"00:00 ~ 24:00","closedDaySet":[]},"costPerPerson":-1,"spendingTime":{"hour":1.0,"standardDeviation":0.05},"isRestaurant":false},{"id":17550486,"name":"로그맨하우스","poiType":{"category":"숙박","subCategory":"펜션","subSubCategory":""},"address":"제주특별자치도 제주시 애월읍 소길리 975","location":{"latitude":33.419211326451325,"longitude":126.37576078247048},"score":3.0,"businessHours":{"businessHours":"00:00 ~ 24:00","closedDaySet":[]},"costPerPerson":-1,"spendingTime":{"hour":1.0,"standardDeviation":0.05},"isRestaurant":false},{"id":18316477,"name":"꼬닥꼬닥게스트하우스","poiType":{"category":"숙박","subCategory":"게스트하우스","subSubCategory":""},"address":"제주특별자치도 서귀포시 서귀동 306-8","location":{"latitude":33.25090774923976,"longitude":126.5600126747784},"score":5.0,"businessHours":{"businessHours":"00:00 ~ 24:00","closedDaySet":[]},"costPerPerson":-1,"spendingTime":{"hour":1.0,"standardDeviation":0.05},"isRestaurant":false},{"id":8461630,"name":"와하하게스트하우스","poiType":{"category":"숙박","subCategory":"게스트하우스","subSubCategory":""},"address":"제주특별자치도 서귀포시 표선면 표선리 1299","location":{"latitude":33.31011137820031,"longitude":126.83081871077499},"score":4.3,"businessHours":{"businessHours":"00:00 ~ 24:00","closedDaySet":[]},"costPerPerson":-1,"spendingTime":{"hour":1.0,"standardDeviation":0.05},"isRestaurant":false},{"id":25050244,"name":"파파야게스트하우스","poiType":{"category":"숙박","subCategory":"게스트하우스","subSubCategory":""},"address":"제주특별자치도 서귀포시 성산읍 오조리 391","location":{"latitude":33.471758615495865,"longitude":126.91707107249871},"score":3.0,"businessHours":{"businessHours":"00:00 ~ 24:00","closedDaySet":[]},"costPerPerson":-1,"spendingTime":{"hour":1.0,"standardDeviation":0.05},"isRestaurant":false},{"id":16260352,"name":"다인리조트","poiType":{"category":"숙박","subCategory":"콘도,리조트","subSubCategory":""},"address":"제주특별자치도 제주시 애월읍 고내리 79-8","location":{"latitude":33.47154260410787,"longitude":126.3511455084947},"score":5.0,"businessHours":{"businessHours":"00:00 ~ 24:00","closedDaySet":[]},"costPerPerson":-1,"spendingTime":{"hour":1.0,"standardDeviation":0.05},"isRestaurant":false},{"id":7970162,"name":"신성리조트","poiType":{"category":"숙박","subCategory":"콘도,리조트","subSubCategory":""},"address":"제주특별자치도 서귀포시 법환동 87-1","location":{"latitude":33.242505886634376,"longitude":126.51861209077384},"score":3.3,"businessHours":{"businessHours":"00:00 ~ 24:00","closedDaySet":[]},"costPerPerson":-1,"spendingTime":{"hour":1.0,"standardDeviation":0.05},"isRestaurant":false},{"id":25611339,"name":"바그다드하우스펜션","poiType":{"category":"숙박","subCategory":"펜션","subSubCategory":""},"address":"제주특별자치도 제주시 애월읍 상가리 2059-1","location":{"latitude":33.45039599770151,"longitude":126.33100184895679},"score":5.0,"businessHours":{"businessHours":"00:00 ~ 24:00","closedDaySet":[]},"costPerPerson":-1,"spendingTime":{"hour":1.0,"standardDeviation":0.05},"isRestaurant":false},{"id":19942592,"name":"제주아이브리조트","poiType":{"category":"숙박","subCategory":"콘도,리조트","subSubCategory":""},"address":"제주특별자치도 서귀포시 영남동 225-4","location":{"latitude":33.28840136736236,"longitude":126.49664828022205},"score":3.5,"businessHours":{"businessHours":"00:00 ~ 24:00","closedDaySet":[]},"costPerPerson":-1,"spendingTime":{"hour":1.0,"standardDeviation":0.05},"isRestaurant":false},{"id":23968892,"name":"호텔시드니","poiType":{"category":"숙박","subCategory":"여관,모텔","subSubCategory":""},"address":"제주특별자치도 제주시 애월읍 하귀2리 2615-7","location":{"latitude":33.48368753644149,"longitude":126.39576195592247},"score":4.5,"businessHours":{"businessHours":"00:00 ~ 24:00","closedDaySet":[]},"costPerPerson":-1,"spendingTime":{"hour":1.0,"standardDeviation":0.05},"isRestaurant":false},{"id":26844226,"name":"루나마르풀리조트","poiType":{"category":"숙박","subCategory":"펜션","subSubCategory":""},"address":"제주특별자치도 제주시 구좌읍 월정리 346-3","location":{"latitude":33.55449907055434,"longitude":126.79166882734948},"score":5.0,"businessHours":{"businessHours":"00:00 ~ 24:00","closedDaySet":[]},"costPerPerson":-1,"spendingTime":{"hour":1.0,"standardDeviation":0.05},"isRestaurant":false},{"id":1181166462,"name":"하워드 존슨 호텔 제주 서귀포 하버","poiType":{"category":"숙박","subCategory":"호텔","subSubCategory":""},"address":"제주특별자치도 서귀포시 서귀동 162-1","location":{"latitude":33.24546395840189,"longitude":126.5667356678644},"score":5.0,"businessHours":{"businessHours":"00:00 ~ 24:00","closedDaySet":[]},"costPerPerson":-1,"spendingTime":{"hour":1.0,"standardDeviation":0.05},"isRestaurant":false},{"id":7958095,"name":"소울펜션","poiType":{"category":"숙박","subCategory":"펜션","subSubCategory":""},"address":"제주특별자치도 서귀포시 상예동 1149","location":{"latitude":33.24521717183625,"longitude":126.39118820473074},"score":5.0,"businessHours":{"businessHours":"00:00 ~ 24:00","closedDaySet":[]},"costPerPerson":-1,"spendingTime":{"hour":1.0,"standardDeviation":0.05},"isRestaurant":false},{"id":22409045,"name":"비지터게스트하우스","poiType":{"category":"숙박","subCategory":"게스트하우스","subSubCategory":""},"address":"제주특별자치도 제주시 이도1동 1349-24","location":{"latitude":33.512342076980055,"longitude":126.52514392904357},"score":4.1,"businessHours":{"businessHours":"00:00 ~ 24:00","closedDaySet":[]},"costPerPerson":-1,"spendingTime":{"hour":1.0,"standardDeviation":0.05},"isRestaurant":false},{"id":19717872,"name":"소랑호젠펜션","poiType":{"category":"숙박","subCategory":"펜션","subSubCategory":""},"address":"제주특별자치도 서귀포시 남원읍 남원리 2356-1","location":{"latitude":33.2757226584907,"longitude":126.70552138092609},"score":4.0,"businessHours":{"businessHours":"00:00 ~ 24:00","closedDaySet":[]},"costPerPerson":-1,"spendingTime":{"hour":1.0,"standardDeviation":0.05},"isRestaurant":false},{"id":23981868,"name":"더머뭄","poiType":{"category":"숙박","subCategory":"펜션","subSubCategory":""},"address":"제주특별자치도 서귀포시 안덕면 사계리 396-3","location":{"latitude":33.239777332447304,"longitude":126.30445144760434},"score":3.0,"businessHours":{"businessHours":"00:00 ~ 24:00","closedDaySet":[]},"costPerPerson":-1,"spendingTime":{"hour":1.0,"standardDeviation":0.05},"isRestaurant":false},{"id":1596322029,"name":"바다위에펜션","poiType":{"category":"숙박","subCategory":"펜션","subSubCategory":""},"address":"제주특별자치도 제주시 애월읍 하귀1리 272","location":{"latitude":33.48940676798424,"longitude":126.41900262927753},"score":5.0,"businessHours":{"businessHours":"00:00 ~ 24:00","closedDaySet":[]},"costPerPerson":-1,"spendingTime":{"hour":1.0,"standardDeviation":0.05},"isRestaurant":false},{"id":18259726,"name":"너븐팡게스트하우스","poiType":{"category":"숙박","subCategory":"게스트하우스","subSubCategory":""},"address":"제주특별자치도 제주시 연동 268-9","location":{"latitude":33.4829502392222,"longitude":126.489613013796},"score":4.6,"businessHours":{"businessHours":"00:00 ~ 24:00","closedDaySet":[]},"costPerPerson":-1,"spendingTime":{"hour":1.0,"standardDeviation":0.05},"isRestaurant":false},{"id":27357056,"name":"소소게스트하우스","poiType":{"category":"숙박","subCategory":"게스트하우스","subSubCategory":""},"address":"제주특별자치도 제주시 애월읍 상가리 56-1","location":{"latitude":33.41712590736692,"longitude":126.37485974093877},"score":5.0,"businessHours":{"businessHours":"00:00 ~ 24:00","closedDaySet":[]},"costPerPerson":-1,"spendingTime":{"hour":1.0,"standardDeviation":0.05},"isRestaurant":false},{"id":27512795,"name":"바람개비펜션","poiType":{"category":"숙박","subCategory":"펜션","subSubCategory":""},"address":"제주특별자치도 제주시 한경면 신창리 1371-2","location":{"latitude":33.34033390740978,"longitude":126.17326219246851},"score":5.0,"businessHours":{"businessHours":"00:00 ~ 24:00","closedDaySet":[]},"costPerPerson":-1,"spendingTime":{"hour":1.0,"standardDeviation":0.05},"isRestaurant":false},{"id":23969514,"name":"씨에나펜션","poiType":{"category":"숙박","subCategory":"펜션","subSubCategory":""},"address":"제주특별자치도 서귀포시 하예동 351-4","location":{"latitude":33.24213181660231,"longitude":126.38569459706943},"score":3.7,"businessHours":{"businessHours":"00:00 ~ 24:00","closedDaySet":[]},"costPerPerson":-1,"spendingTime":{"hour":1.0,"standardDeviation":0.05},"isRestaurant":false},{"id":25645009,"name":"아트하우스","poiType":{"category":"숙박","subCategory":"펜션","subSubCategory":""},"address":"제주특별자치도 제주시 구좌읍 월정리 958-1","location":{"latitude":33.55202398368245,"longitude":126.78680335394395},"score":4.2,"businessHours":{"businessHours":"00:00 ~ 24:00","closedDaySet":[]},"costPerPerson":-1,"spendingTime":{"hour":1.0,"standardDeviation":0.05},"isRestaurant":false},{"id":1293067082,"name":"MJ펜션 앤 리조트","poiType":{"category":"숙박","subCategory":"펜션","subSubCategory":""},"address":"제주특별자치도 서귀포시 안덕면 사계리 1349","location":{"latitude":33.2444683764364,"longitude":126.302026873206},"score":5.0,"businessHours":{"businessHours":"00:00 ~ 24:00","closedDaySet":[]},"costPerPerson":-1,"spendingTime":{"hour":1.0,"standardDeviation":0.05},"isRestaurant":false},{"id":18751300,"name":"샤론의집펜션","poiType":{"category":"숙박","subCategory":"펜션","subSubCategory":""},"address":"제주특별자치도 서귀포시 성산읍 수산리 3988-9","location":{"latitude":33.43060314463666,"longitude":126.84411934791979},"score":4.8,"businessHours":{"businessHours":"00:00 ~ 24:00","closedDaySet":[]},"costPerPerson":-1,"spendingTime":{"hour":1.0,"standardDeviation":0.05},"isRestaurant":false},{"id":25984750,"name":"비스타리조트","poiType":{"category":"숙박","subCategory":"호텔","subSubCategory":""},"address":"제주특별자치도 제주시 이호1동 363","location":{"latitude":33.50304452866455,"longitude":126.45758483695317},"score":5.0,"businessHours":{"businessHours":"00:00 ~ 24:00","closedDaySet":[]},"costPerPerson":-1,"spendingTime":{"hour":1.0,"standardDeviation":0.05},"isRestaurant":false},{"id":242983136,"name":"밸류호텔 서귀포JS","poiType":{"category":"숙박","subCategory":"호텔","subSubCategory":""},"address":"제주특별자치도 서귀포시 법환동 745-5","location":{"latitude":33.25142835100994,"longitude":126.51031743103302},"score":3.0,"businessHours":{"businessHours":"00:00 ~ 24:00","closedDaySet":[]},"costPerPerson":-1,"spendingTime":{"hour":1.0,"standardDeviation":0.05},"isRestaurant":false},{"id":8130258,"name":"하얏트리젠시 제주","poiType":{"category":"숙박","subCategory":"호텔","subSubCategory":"특급호텔"},"address":"제주특별자치도 서귀포시 색달동 3039-1","location":{"latitude":33.244668489419894,"longitude":126.40596933451172},"score":4.1,"businessHours":{"businessHours":"00:00 ~ 24:00","closedDaySet":[]},"costPerPerson":-1,"spendingTime":{"hour":1.0,"standardDeviation":0.05},"isRestaurant":false},{"id":1986689241,"name":"브라운스위트제주 호텔앤리조트","poiType":{"category":"숙박","subCategory":"호텔","subSubCategory":""},"address":"제주특별자치도 서귀포시 성산읍 고성리 1201","location":{"latitude":33.45202609114078,"longitude":126.91448729439219},"score":2.5,"businessHours":{"businessHours":"00:00 ~ 24:00","closedDaySet":[]},"costPerPerson":-1,"spendingTime":{"hour":1.0,"standardDeviation":0.05},"isRestaurant":false},{"id":26263278,"name":"더포그레이스 호텔앤리조트","poiType":{"category":"숙박","subCategory":"콘도,리조트","subSubCategory":""},"address":"제주특별자치도 서귀포시 성산읍 시흥리 200","location":{"latitude":33.4736942457868,"longitude":126.91052812281981},"score":4.0,"businessHours":{"businessHours":"00:00 ~ 24:00","closedDaySet":[]},"costPerPerson":-1,"spendingTime":{"hour":1.0,"standardDeviation":0.05},"isRestaurant":false},{"id":27164447,"name":"제주폴리폴리","poiType":{"category":"숙박","subCategory":"민박","subSubCategory":""},"address":"제주특별자치도 서귀포시 표선면 하천리 696-5","location":{"latitude":33.353024403570785,"longitude":126.8356641880944},"score":5.0,"businessHours":{"businessHours":"00:00 ~ 24:00","closedDaySet":[]},"costPerPerson":-1,"spendingTime":{"hour":1.0,"standardDeviation":0.05},"isRestaurant":false},{"id":11582964,"name":"올레하우스","poiType":{"category":"숙박","subCategory":"펜션","subSubCategory":""},"address":"제주특별자치도 서귀포시 안덕면 사계리 980","location":{"latitude":33.24902781617072,"longitude":126.29931328015792},"score":5.0,"businessHours":{"businessHours":"00:00 ~ 24:00","closedDaySet":[]},"costPerPerson":-1,"spendingTime":{"hour":1.0,"standardDeviation":0.05},"isRestaurant":false},{"id":21192648,"name":"홍익제주호텔","poiType":{"category":"숙박","subCategory":"호텔","subSubCategory":""},"address":"제주특별자치도 제주시 한림읍 협재리 1165","location":{"latitude":33.391691747618715,"longitude":126.2533584899336},"score":4.5,"businessHours":{"businessHours":"00:00 ~ 24:00","closedDaySet":[]},"costPerPerson":-1,"spendingTime":{"hour":1.0,"standardDeviation":0.05},"isRestaurant":false},{"id":26304308,"name":"제주엠리조트","poiType":{"category":"숙박","subCategory":"콘도,리조트","subSubCategory":""},"address":"제주특별자치도 서귀포시 강정동 1938","location":{"latitude":33.257744329680044,"longitude":126.4943906819949},"score":5.0,"businessHours":{"businessHours":"00:00 ~ 24:00","closedDaySet":[]},"costPerPerson":-1,"spendingTime":{"hour":1.0,"standardDeviation":0.05},"isRestaurant":false},{"id":414336592,"name":"서머셋 제주신화월드","poiType":{"category":"숙박","subCategory":"콘도,리조트","subSubCategory":""},"address":"제주특별자치도 서귀포시 안덕면 서광리 산 24-6","location":{"latitude":33.302626605941,"longitude":126.3170897130827},"score":3.5,"businessHours":{"businessHours":"00:00 ~ 24:00","closedDaySet":[]},"costPerPerson":-1,"spendingTime":{"hour":1.0,"standardDeviation":0.05},"isRestaurant":false},{"id":23969684,"name":"롱비치펜션","poiType":{"category":"숙박","subCategory":"펜션","subSubCategory":""},"address":"제주특별자치도 서귀포시 남원읍 남원리 1398-4","location":{"latitude":33.2753359673397,"longitude":126.710770569399},"score":3.0,"businessHours":{"businessHours":"00:00 ~ 24:00","closedDaySet":[]},"costPerPerson":-1,"spendingTime":{"hour":1.0,"standardDeviation":0.05},"isRestaurant":false},{"id":25767735,"name":"바다그린하우스","poiType":{"category":"숙박","subCategory":"펜션","subSubCategory":""},"address":"제주특별자치도 제주시 용담3동 998","location":{"latitude":33.515792743086834,"longitude":126.50478218686209},"score":5.0,"businessHours":{"businessHours":"00:00 ~ 24:00","closedDaySet":[]},"costPerPerson":-1,"spendingTime":{"hour":1.0,"standardDeviation":0.05},"isRestaurant":false},{"id":17665996,"name":"코델리아리조트","poiType":{"category":"숙박","subCategory":"콘도,리조트","subSubCategory":""},"address":"제주특별자치도 서귀포시 성산읍 오조리 941-1","location":{"latitude":33.45909874561373,"longitude":126.91009587351668},"score":1.5,"businessHours":{"businessHours":"00:00 ~ 24:00","closedDaySet":[]},"costPerPerson":-1,"spendingTime":{"hour":1.0,"standardDeviation":0.05},"isRestaurant":false},{"id":27234129,"name":"호텔케니스토리 아랑조을점","poiType":{"category":"숙박","subCategory":"호텔","subSubCategory":""},"address":"제주특별자치도 서귀포시 서귀동 308-2","location":{"latitude":33.2503821462542,"longitude":126.559500386299},"score":5.0,"businessHours":{"businessHours":"00:00 ~ 24:00","closedDaySet":[]},"costPerPerson":-1,"spendingTime":{"hour":1.0,"standardDeviation":0.05},"isRestaurant":false},{"id":22613890,"name":"제니스홈게스트하우스 서귀포점","poiType":{"category":"숙박","subCategory":"게스트하우스","subSubCategory":""},"address":"제주특별자치도 서귀포시 서귀동 513-8","location":{"latitude":33.245224950588224,"longitude":126.56439767690594},"score":3.8,"businessHours":{"businessHours":"00:00 ~ 24:00","closedDaySet":[]},"costPerPerson":-1,"spendingTime":{"hour":1.0,"standardDeviation":0.05},"isRestaurant":false},{"id":373352758,"name":"제주스테이호텔","poiType":{"category":"숙박","subCategory":"호텔","subSubCategory":""},"address":"제주특별자치도 서귀포시 성산읍 고성리 496-2","location":{"latitude":33.4381022184232,"longitude":126.915723036004},"score":5.0,"businessHours":{"businessHours":"00:00 ~ 24:00","closedDaySet":[]},"costPerPerson":-1,"spendingTime":{"hour":1.0,"standardDeviation":0.05},"isRestaurant":false},{"id":22646362,"name":"빠레브호텔","poiType":{"category":"숙박","subCategory":"호텔","subSubCategory":""},"address":"제주특별자치도 서귀포시 강정동 173","location":{"latitude":33.25243073072947,"longitude":126.50662036093667},"score":3.0,"businessHours":{"businessHours":"00:00 ~ 24:00","closedDaySet":[]},"costPerPerson":-1,"spendingTime":{"hour":1.0,"standardDeviation":0.05},"isRestaurant":false},{"id":26635911,"name":"리치호텔","poiType":{"category":"숙박","subCategory":"호텔","subSubCategory":""},"address":"제주특별자치도 제주시 애월읍 고내리 332-1","location":{"latitude":33.47207558506479,"longitude":126.34894261821272},"score":5.0,"businessHours":{"businessHours":"00:00 ~ 24:00","closedDaySet":[]},"costPerPerson":-1,"spendingTime":{"hour":1.0,"standardDeviation":0.05},"isRestaurant":false},{"id":8118059,"name":"제주펄팜펜션","poiType":{"category":"숙박","subCategory":"펜션","subSubCategory":""},"address":"제주특별자치도 서귀포시 대정읍 상모리 71","location":{"latitude":33.212795690946855,"longitude":126.29201298861801},"score":5.0,"businessHours":{"businessHours":"00:00 ~ 24:00","closedDaySet":[]},"costPerPerson":-1,"spendingTime":{"hour":1.0,"standardDeviation":0.05},"isRestaurant":false},{"id":26422924,"name":"뱅디가름B\u0026B 게스트하우스","poiType":{"category":"숙박","subCategory":"게스트하우스","subSubCategory":""},"address":"제주특별자치도 서귀포시 성산읍 고성리 1052-4","location":{"latitude":33.4457186590815,"longitude":126.90977433509893},"score":5.0,"businessHours":{"businessHours":"00:00 ~ 24:00","closedDaySet":[]},"costPerPerson":-1,"spendingTime":{"hour":1.0,"standardDeviation":0.05},"isRestaurant":false},{"id":27508419,"name":"호텔가온제주","poiType":{"category":"숙박","subCategory":"호텔","subSubCategory":""},"address":"제주특별자치도 서귀포시 서귀동 309-26","location":{"latitude":33.24937247116981,"longitude":126.5603208498608},"score":4.7,"businessHours":{"businessHours":"00:00 ~ 24:00","closedDaySet":[]},"costPerPerson":-1,"spendingTime":{"hour":1.0,"standardDeviation":0.05},"isRestaurant":false},{"id":8064798,"name":"제주팔레스호텔","poiType":{"category":"숙박","subCategory":"호텔","subSubCategory":""},"address":"제주특별자치도 제주시 삼도2동 1192-18","location":{"latitude":33.516862407312914,"longitude":126.52368115450977},"score":1.5,"businessHours":{"businessHours":"00:00 ~ 24:00","closedDaySet":[]},"costPerPerson":-1,"spendingTime":{"hour":1.0,"standardDeviation":0.05},"isRestaurant":false},{"id":8384280,"name":"블루베이","poiType":{"category":"숙박","subCategory":"펜션","subSubCategory":""},"address":"제주특별자치도 제주시 내도동 333-1","location":{"latitude":33.49484718678212,"longitude":126.44215779217306},"score":5.0,"businessHours":{"businessHours":"00:00 ~ 24:00","closedDaySet":[]},"costPerPerson":-1,"spendingTime":{"hour":1.0,"standardDeviation":0.05},"isRestaurant":false},{"id":78683060,"name":"제주다모르펜션","poiType":{"category":"숙박","subCategory":"펜션","subSubCategory":""},"address":"제주특별자치도 서귀포시 성산읍 오조리 596","location":{"latitude":33.46447681795947,"longitude":126.91132086261061},"score":5.0,"businessHours":{"businessHours":"00:00 ~ 24:00","closedDaySet":[]},"costPerPerson":-1,"spendingTime":{"hour":1.0,"standardDeviation":0.05},"isRestaurant":false},{"id":14094227,"name":"비울채울펜션","poiType":{"category":"숙박","subCategory":"펜션","subSubCategory":""},"address":"제주특별자치도 서귀포시 보목동 1568-3","location":{"latitude":33.24929632240675,"longitude":126.58965885041582},"score":5.0,"businessHours":{"businessHours":"00:00 ~ 24:00","closedDaySet":[]},"costPerPerson":-1,"spendingTime":{"hour":1.0,"standardDeviation":0.05},"isRestaurant":false},{"id":8134391,"name":"편운산장","poiType":{"category":"숙박","subCategory":"산장,별장","subSubCategory":""},"address":"제주특별자치도 서귀포시 성산읍 수산리 1687-3","location":{"latitude":33.4374513002061,"longitude":126.875142687096},"score":5.0,"businessHours":{"businessHours":"00:00 ~ 24:00","closedDaySet":[]},"costPerPerson":-1,"spendingTime":{"hour":1.0,"standardDeviation":0.05},"isRestaurant":false},{"id":26521295,"name":"화인관광호텔","poiType":{"category":"숙박","subCategory":"호텔","subSubCategory":""},"address":"제주특별자치도 서귀포시 서귀동 782-3","location":{"latitude":33.24050629539185,"longitude":126.5650434668056},"score":4.0,"businessHours":{"businessHours":"00:00 ~ 24:00","closedDaySet":[]},"costPerPerson":-1,"spendingTime":{"hour":1.0,"standardDeviation":0.05},"isRestaurant":false},{"id":8679392,"name":"화이트하우스","poiType":{"category":"숙박","subCategory":"호텔","subSubCategory":""},"address":"제주특별자치도 제주시 용담3동 2572-4","location":{"latitude":33.51236315116381,"longitude":126.48451142988606},"score":3.9,"businessHours":{"businessHours":"00:00 ~ 24:00","closedDaySet":[]},"costPerPerson":-1,"spendingTime":{"hour":1.0,"standardDeviation":0.05},"isRestaurant":false},{"id":14651199,"name":"바닷가하우스펜션","poiType":{"category":"숙박","subCategory":"펜션","subSubCategory":""},"address":"제주특별자치도 서귀포시 대정읍 상모리 73","location":{"latitude":33.212218879760094,"longitude":126.29205196467669},"score":5.0,"businessHours":{"businessHours":"00:00 ~ 24:00","closedDaySet":[]},"costPerPerson":-1,"spendingTime":{"hour":1.0,"standardDeviation":0.05},"isRestaurant":false},{"id":10809103,"name":"제주오리엔탈호텔","poiType":{"category":"숙박","subCategory":"호텔","subSubCategory":"특급호텔"},"address":"제주특별자치도 제주시 삼도2동 1197","location":{"latitude":33.517669784585586,"longitude":126.51984055490203},"score":3.4,"businessHours":{"businessHours":"00:00 ~ 24:00","closedDaySet":[]},"costPerPerson":-1,"spendingTime":{"hour":1.0,"standardDeviation":0.05},"isRestaurant":false},{"id":25001688,"name":"더포레스트","poiType":{"category":"숙박","subCategory":"게스트하우스","subSubCategory":""},"address":"제주특별자치도 제주시 일도1동 1331-1","location":{"latitude":33.51390950657006,"longitude":126.5266766297692},"score":5.0,"businessHours":{"businessHours":"00:00 ~ 24:00","closedDaySet":[]},"costPerPerson":-1,"spendingTime":{"hour":1.0,"standardDeviation":0.05},"isRestaurant":false},{"id":15908674,"name":"우도올레펜션","poiType":{"category":"숙박","subCategory":"펜션","subSubCategory":""},"address":"제주특별자치도 제주시 우도면 연평리 781-5","location":{"latitude":33.52228190681067,"longitude":126.95297506315035},"score":4.0,"businessHours":{"businessHours":"00:00 ~ 24:00","closedDaySet":[]},"costPerPerson":-1,"spendingTime":{"hour":1.0,"standardDeviation":0.05},"isRestaurant":false},{"id":14819166,"name":"그린데이 게스트하우스","poiType":{"category":"숙박","subCategory":"게스트하우스","subSubCategory":""},"address":"제주특별자치도 제주시 삼도2동 251-9","location":{"latitude":33.5089176221114,"longitude":126.522570674573},"score":4.4,"businessHours":{"businessHours":"00:00 ~ 24:00","closedDaySet":[]},"costPerPerson":-1,"spendingTime":{"hour":1.0,"standardDeviation":0.05},"isRestaurant":false},{"id":20246156,"name":"오누게스트하우스 본점","poiType":{"category":"숙박","subCategory":"게스트하우스","subSubCategory":""},"address":"제주특별자치도 제주시 애월읍 애월리 2147-6","location":{"latitude":33.462860526437964,"longitude":126.31406951906688},"score":5.0,"businessHours":{"businessHours":"00:00 ~ 24:00","closedDaySet":[]},"costPerPerson":-1,"spendingTime":{"hour":1.0,"standardDeviation":0.05},"isRestaurant":false},{"id":18329241,"name":"바다위올레","poiType":{"category":"숙박","subCategory":"펜션","subSubCategory":""},"address":"제주특별자치도 서귀포시 강정동 630-1","location":{"latitude":33.23458980854715,"longitude":126.50311167271013},"score":5.0,"businessHours":{"businessHours":"00:00 ~ 24:00","closedDaySet":[]},"costPerPerson":-1,"spendingTime":{"hour":1.0,"standardDeviation":0.05},"isRestaurant":false},{"id":25636374,"name":"파크선샤인제주","poiType":{"category":"숙박","subCategory":"호텔","subSubCategory":""},"address":"제주특별자치도 서귀포시 서홍동 637","location":{"latitude":33.24343996320289,"longitude":126.55331180694796},"score":4.8,"businessHours":{"businessHours":"00:00 ~ 24:00","closedDaySet":[]},"costPerPerson":-1,"spendingTime":{"hour":1.0,"standardDeviation":0.05},"isRestaurant":false},{"id":1550926766,"name":"데이즈호텔 제주서귀포 오션","poiType":{"category":"숙박","subCategory":"호텔","subSubCategory":""},"address":"제주특별자치도 서귀포시 서귀동 255-1","location":{"latitude":33.24942276208038,"longitude":126.56744146777525},"score":5.0,"businessHours":{"businessHours":"00:00 ~ 24:00","closedDaySet":[]},"costPerPerson":-1,"spendingTime":{"hour":1.0,"standardDeviation":0.05},"isRestaurant":false},{"id":1346461541,"name":"성산핫플게스트하우스","poiType":{"category":"숙박","subCategory":"게스트하우스","subSubCategory":""},"address":"제주특별자치도 서귀포시 성산읍 성산리 264","location":{"latitude":33.46606659218725,"longitude":126.93285124392611},"score":5.0,"businessHours":{"businessHours":"00:00 ~ 24:00","closedDaySet":[]},"costPerPerson":-1,"spendingTime":{"hour":1.0,"standardDeviation":0.05},"isRestaurant":false},{"id":24661641,"name":"폴에이리조트제주","poiType":{"category":"숙박","subCategory":"콘도,리조트","subSubCategory":""},"address":"제주특별자치도 서귀포시 법환동 982","location":{"latitude":33.24459711376015,"longitude":126.5120123472868},"score":4.0,"businessHours":{"businessHours":"00:00 ~ 24:00","closedDaySet":[]},"costPerPerson":-1,"spendingTime":{"hour":1.0,"standardDeviation":0.05},"isRestaurant":false},{"id":11394907,"name":"헌스빌","poiType":{"category":"숙박","subCategory":"펜션","subSubCategory":""},"address":"제주특별자치도 제주시 애월읍 소길리 952-2","location":{"latitude":33.4162583603778,"longitude":126.37947600382819},"score":5.0,"businessHours":{"businessHours":"00:00 ~ 24:00","closedDaySet":[]},"costPerPerson":-1,"spendingTime":{"hour":1.0,"standardDeviation":0.05},"isRestaurant":false},{"id":27184733,"name":"빌라노이제주","poiType":{"category":"숙박","subCategory":"펜션","subSubCategory":""},"address":"제주특별자치도 서귀포시 안덕면 사계리 321","location":{"latitude":33.23692915813315,"longitude":126.3039719281997},"score":5.0,"businessHours":{"businessHours":"00:00 ~ 24:00","closedDaySet":[]},"costPerPerson":-1,"spendingTime":{"hour":1.0,"standardDeviation":0.05},"isRestaurant":false},{"id":24710774,"name":"아리아호텔","poiType":{"category":"숙박","subCategory":"호텔","subSubCategory":""},"address":"제주특별자치도 서귀포시 색달동 2508","location":{"latitude":33.25587601829249,"longitude":126.41555155094713},"score":3.0,"businessHours":{"businessHours":"00:00 ~ 24:00","closedDaySet":[]},"costPerPerson":-1,"spendingTime":{"hour":1.0,"standardDeviation":0.05},"isRestaurant":false},{"id":26922571,"name":"호텔더원","poiType":{"category":"숙박","subCategory":"호텔","subSubCategory":""},"address":"제주특별자치도 제주시 연동 279-3","location":{"latitude":33.48270803878704,"longitude":126.49144444843358},"score":3.0,"businessHours":{"businessHours":"00:00 ~ 24:00","closedDaySet":[]},"costPerPerson":-1,"spendingTime":{"hour":1.0,"standardDeviation":0.05},"isRestaurant":false},{"id":27422261,"name":"코업시티호텔 성산","poiType":{"category":"숙박","subCategory":"호텔","subSubCategory":""},"address":"제주특별자치도 서귀포시 성산읍 성산리 250","location":{"latitude":33.4659935729537,"longitude":126.931888156455},"score":5.0,"businessHours":{"businessHours":"00:00 ~ 24:00","closedDaySet":[]},"costPerPerson":-1,"spendingTime":{"hour":1.0,"standardDeviation":0.05},"isRestaurant":false},{"id":1252111676,"name":"메종손드물게스트하우스","poiType":{"category":"숙박","subCategory":"게스트하우스","subSubCategory":""},"address":"제주특별자치도 제주시 한경면 금등리 652","location":{"latitude":33.36248678371056,"longitude":126.19283036867975},"score":5.0,"businessHours":{"businessHours":"00:00 ~ 24:00","closedDaySet":[]},"costPerPerson":-1,"spendingTime":{"hour":1.0,"standardDeviation":0.05},"isRestaurant":false}]