[{"id":9409644,"name":"이어도","poiType":{"category":"음식점","subCategory":"한식","subSubCategory":"해물,생선"},"address":"제주특별자치도 서귀포시 동홍동 393-9","location":{"latitude":33.2489662572046,"longitude":126.570229561458},"score":3.1,"businessHours":{"businessHours":"10:00 ~ 22:00","closedDaySet":[]},"costPerPerson":-1,"spendingTime":{"hour":1.0,"standardDeviation":0.05},"isRestaurant":true},{"id":13019306,"name":"청도","poiType":{"category":"음식점","subCategory":"한식","subSubCategory":"해물,생선"},"address":"제주특별자치도 제주시 용담3동 1144","location":{"latitude":33.5199352498977,"longitude":126.497102893007},"score":1.5,"businessHours":{"businessHours":"10:30 ~ 17:00","closedDaySet":[]},"costPerPerson":-1,"spendingTime":{"hour":1.0,"standardDeviation":0.05},"isRestaurant":true},{"id":26922347,"name":"봉순이네흑돼지","poiType":{"category":"음식점","subCategory":"한식","subSubCategory":"육류,고기"},"address":"제주특별자치도 서귀포시 대정읍 보성리 463-10","location":{"latitude":33.271878605014834,"longitude":126.27861718175214},"score":2.9,"businessHours":{"businessHours":"10:30 ~ 17:00","closedDaySet":[]},"costPerPerson":-1,"spendingTime":{"hour":1.0,"standardDeviation":0.05},"isRestaurant":true},{"id":9159798,"name":"순덕이네해산물장터","poiType":{"category":"음식점","subCategory":"양식","subSubCategory":"해산물"},"address":"제주특별자치도 서귀포시 성산읍 온평리 1664","location":{"latitude":33.4122222066663,"longitude":126.896577199828},"score":4.0,"businessHours":{"businessHours":"09:00 ~ 19:00","closedDaySet":[]},"costPerPerson":-1,"spendingTime":{"hour":1.0,"standardDeviation":0.05},"isRestaurant":true},{"id":26589589,"name":"어부와농부 본관","poiType":{"category":"음식점","subCategory":"한식","subSubCategory":"해물,생선"},"address":"제주특별자치도 서귀포시 색달동 2505-2","location":{"latitude":33.25509881131054,"longitude":126.4151661192914},"score":3.8,"businessHours":{"businessHours":"10:30 ~ 17:00","closedDaySet":[]},"costPerPerson":-1,"spendingTime":{"hour":1.0,"standardDeviation":0.05},"isRestaurant":true},{"id":7885885,"name":"버드나무집","poiType":{"category":"음식점","subCategory":"한식","subSubCategory":"해물,생선"},"address":"제주특별자치도 제주시 조천읍 함덕리 1002-9","location":{"latitude":33.5415025078071,"longitude":126.667479130642},"score":3.1,"businessHours":{"businessHours":"10:00 ~ 21:00","closedDaySet":["목요일"]},"costPerPerson":-1,"spendingTime":{"hour":1.0,"standardDeviation":0.05},"isRestaurant":true},{"id":12542076,"name":"돈향기","poiType":{"category":"음식점","subCategory":"한식","subSubCategory":"육류,고기"},"address":"제주특별자치도 제주시 건입동 1384","location":{"latitude":33.5158265083006,"longitude":126.527036161069},"score":4.6,"businessHours":{"businessHours":"13:00 ~ 23:30","closedDaySet":[]},"costPerPerson":-1,"spendingTime":{"hour":1.0,"standardDeviation":0.05},"isRestaurant":true},{"id":15383715,"name":"대기정","poiType":{"category":"음식점","subCategory":"한식","subSubCategory":"해물,생선"},"address":"제주특별자치도 서귀포시 대포동 1787","location":{"latitude":33.240291740558796,"longitude":126.4285651861772},"score":3.0,"businessHours":{"businessHours":"08:00 ~ 21:00","closedDaySet":[]},"costPerPerson":-1,"spendingTime":{"hour":1.0,"standardDeviation":0.05},"isRestaurant":true},{"id":21160271,"name":"중문수두리보말칼국수","poiType":{"category":"음식점","subCategory":"한식","subSubCategory":"국수"},"address":"제주특별자치도 서귀포시 중문동 2056-4","location":{"latitude":33.251585144505,"longitude":126.424864098482},"score":5.0,"businessHours":{"businessHours":"08:00 ~ 15:00","closedDaySet":["첫째 수요일","셋째 수요일"]},"costPerPerson":-1,"spendingTime":{"hour":1.0,"standardDeviation":0.05},"isRestaurant":true},{"id":26873228,"name":"춘심이네 3호점","poiType":{"category":"음식점","subCategory":"한식","subSubCategory":"국수"},"address":"제주특별자치도 제주시 조천읍 함덕리 산 14-1","location":{"latitude":33.5428347207351,"longitude":126.670725628567},"score":4.5,"businessHours":{"businessHours":"10:30 ~ 21:30","closedDaySet":[]},"costPerPerson":-1,"spendingTime":{"hour":1.0,"standardDeviation":0.05},"isRestaurant":true},{"id":15287484,"name":"칠돈가 서귀포점","poiType":{"category":"음식점","subCategory":"한식","subSubCategory":"육류,고기"},"address":"제주특별자치도 서귀포시 동홍동 1507-10","location":{"latitude":33.2540780881125,"longitude":126.564409645167},"score":4.2,"businessHours":{"businessHours":"17:00 ~ 22:00","closedDaySet":[]},"costPerPerson":-1,"spendingTime":{"hour":1.0,"standardDeviation":0.05},"isRestaurant":true},{"id":26931594,"name":"붉은제주","poiType":{"category":"음식점","subCategory":"한식","subSubCategory":"해물,생선"},"address":"제주특별자치도 제주시 애월읍 애월리 2482-1","location":{"latitude":33.462100055261786,"longitude":126.31220386953532},"score":2.8,"businessHours":{"businessHours":"12:00 ~ 18:00","closedDaySet":["일요일"]},"costPerPerson":-1,"spendingTime":{"hour":1.0,"standardDeviation":0.05},"isRestaurant":true},{"id":26981774,"name":"빨간모자마법사","poiType":{"category":"음식점","subCategory":"양식","subSubCategory":"햄버거"},"address":"제주특별자치도 서귀포시 안덕면 서광리 1419-5","location":{"latitude":33.290433603644985,"longitude":126.30130076015303},"score":3.3,"businessHours":{"businessHours":"10:00 ~ 20:00","closedDaySet":[]},"costPerPerson":-1,"spendingTime":{"hour":1.0,"standardDeviation":0.05},"isRestaurant":true},{"id":713350813,"name":"협재칼국수","poiType":{"category":"음식점","subCategory":"한식","subSubCategory":"한정식"},"address":"제주특별자치도 제주시 한림읍 협재리 1908-2","location":{"latitude":33.396809562405586,"longitude":126.24450517934258},"score":3.3,"businessHours":{"businessHours":"09:00 ~ 20:00","closedDaySet":[]},"costPerPerson":-1,"spendingTime":{"hour":1.0,"standardDeviation":0.05},"isRestaurant":true},{"id":444905118,"name":"문쏘","poiType":{"category":"음식점","subCategory":"한식","subSubCategory":"해물,생선"},"address":"제주특별자치도 제주시 한림읍 옹포리 326-3","location":{"latitude":33.4056865119289,"longitude":126.25671715235026},"score":2.3,"businessHours":{"businessHours":"10:30 ~ 17:00","closedDaySet":[]},"costPerPerson":-1,"spendingTime":{"hour":1.0,"standardDeviation":0.05},"isRestaurant":true},{"id":1113932348,"name":"꽃가람","poiType":{"category":"음식점","subCategory":"한식","subSubCategory":""},"address":"제주특별자치도 서귀포시 성산읍 고성리 306-1","location":{"latitude":33.4509045938447,"longitude":126.914966369269},"score":5.0,"businessHours":{"businessHours":"09:10 ~ 21:00","closedDaySet":[]},"costPerPerson":-1,"spendingTime":{"hour":1.0,"standardDeviation":0.05},"isRestaurant":true},{"id":25572772,"name":"참맛나김밥","poiType":{"category":"음식점","subCategory":"분식","subSubCategory":""},"address":"제주특별자치도 제주시 연동 283-6","location":{"latitude":33.48696299546563,"longitude":126.49218991940653},"score":5.0,"businessHours":{"businessHours":"10:30 ~ 17:00","closedDaySet":[]},"costPerPerson":-1,"spendingTime":{"hour":1.0,"standardDeviation":0.05},"isRestaurant":true},{"id":26397114,"name":"황금고팡","poiType":{"category":"음식점","subCategory":"한식","subSubCategory":"해물,생선"},"address":"제주특별자치도 제주시 조천읍 함덕리 1002-15","location":{"latitude":33.54163421676216,"longitude":126.66789992263102},"score":4.5,"businessHours":{"businessHours":"11:00 ~ 22:00","closedDaySet":[]},"costPerPerson":-1,"spendingTime":{"hour":1.0,"standardDeviation":0.05},"isRestaurant":true},{"id":24856855,"name":"섭지코지해녀밥상","poiType":{"category":"음식점","subCategory":"한식","subSubCategory":""},"address":"제주특별자치도 서귀포시 성산읍 고성리 565","location":{"latitude":33.43575592295984,"longitude":126.91748012459996},"score":5.0,"businessHours":{"businessHours":"10:00 ~ 20:00","closedDaySet":[]},"costPerPerson":-1,"spendingTime":{"hour":1.0,"standardDeviation":0.05},"isRestaurant":true},{"id":8238096,"name":"기억나는집","poiType":{"category":"음식점","subCategory":"한식","subSubCategory":"해물,생선"},"address":"제주특별자치도 서귀포시 정방동 486-4","location":{"latitude":33.2450792298239,"longitude":126.562188072497},"score":2.3,"businessHours":{"businessHours":"09:00 ~ 20:30","closedDaySet":[]},"costPerPerson":-1,"spendingTime":{"hour":1.0,"standardDeviation":0.05},"isRestaurant":true},{"id":23484693,"name":"돈대장","poiType":{"category":"음식점","subCategory":"한식","subSubCategory":"육류,고기"},"address":"제주특별자치도 제주시 용담2동 358-19","location":{"latitude":33.51106784173785,"longitude":126.51188250017249},"score":2.0,"businessHours":{"businessHours":"10:30 ~ 17:00","closedDaySet":[]},"costPerPerson":-1,"spendingTime":{"hour":1.0,"standardDeviation":0.05},"isRestaurant":true},{"id":549394637,"name":"영실국수","poiType":{"category":"음식점","subCategory":"한식","subSubCategory":"국수"},"address":"제주특별자치도 서귀포시 하원동 1335-1","location":{"latitude":33.2544187623737,"longitude":126.45835705757},"score":5.0,"businessHours":{"businessHours":"08:30 ~ 21:00","closedDaySet":[]},"costPerPerson":-1,"spendingTime":{"hour":1.0,"standardDeviation":0.05},"isRestaurant":true},{"id":263327685,"name":"흑돈오리","poiType":{"category":"음식점","subCategory":"한식","subSubCategory":"육류,고기"},"address":"제주특별자치도 서귀포시 서귀동 407-3","location":{"latitude":33.2478144219099,"longitude":126.564655330295},"score":5.0,"businessHours":{"businessHours":"10:30 ~ 17:00","closedDaySet":[]},"costPerPerson":-1,"spendingTime":{"hour":1.0,"standardDeviation":0.05},"isRestaurant":true},{"id":27107805,"name":"신의한모","poiType":{"category":"음식점","subCategory":"한식","subSubCategory":"두부전문점"},"address":"제주특별자치도 제주시 애월읍 하귀1리 1620-4","location":{"latitude":33.485421601483,"longitude":126.407945678342},"score":1.5,"businessHours":{"businessHours":"11:30 ~ 23:00","closedDaySet":["월요일"]},"costPerPerson":-1,"spendingTime":{"hour":1.0,"standardDeviation":0.05},"isRestaurant":true},{"id":7830516,"name":"대우정","poiType":{"category":"음식점","subCategory":"한식","subSubCategory":""},"address":"제주특별자치도 제주시 삼도1동 569-27","location":{"latitude":33.498923008531776,"longitude":126.51958708957986},"score":3.3,"businessHours":{"businessHours":"10:30 ~ 17:00","closedDaySet":[]},"costPerPerson":-1,"spendingTime":{"hour":1.0,"standardDeviation":0.05},"isRestaurant":true},{"id":26472918,"name":"면뽑는선생 만두빚는아내","poiType":{"category":"음식점","subCategory":"한식","subSubCategory":""},"address":"제주특별자치도 제주시 한림읍 옹포리 251","location":{"latitude":33.40482652486087,"longitude":126.25703837414113},"score":1.7,"businessHours":{"businessHours":"11:30 ~ 20:00","closedDaySet":[]},"costPerPerson":-1,"spendingTime":{"hour":1.0,"standardDeviation":0.05},"isRestaurant":true},{"id":212121773,"name":"밥깡패","poiType":{"category":"음식점","subCategory":"양식","subSubCategory":"이탈리안"},"address":"제주특별자치도 제주시 한림읍 한림리 1534-6","location":{"latitude":33.41009391853351,"longitude":126.26343494026113},"score":2.5,"businessHours":{"businessHours":"11:00 ~ 13:00","closedDaySet":["일요일","월요일"]},"costPerPerson":-1,"spendingTime":{"hour":1.0,"standardDeviation":0.05},"isRestaurant":true},{"id":16841033,"name":"홍성방","poiType":{"category":"음식점","subCategory":"중식","subSubCategory":"중화요리"},"address":"제주특별자치도 서귀포시 대정읍 하모리 938-4","location":{"latitude":33.2201710043809,"longitude":126.251661756016},"score":2.8,"businessHours":{"businessHours":"10:10 ~ 20:00","closedDaySet":["첫째 화요일","셋째 화요일"]},"costPerPerson":-1,"spendingTime":{"hour":1.0,"standardDeviation":0.05},"isRestaurant":true},{"id":232056222,"name":"고집돌우럭 제주공항점","poiType":{"category":"음식점","subCategory":"한식","subSubCategory":""},"address":"제주특별자치도 제주시 건입동 1319-124","location":{"latitude":33.5162487454061,"longitude":126.528058550357},"score":4.7,"businessHours":{"businessHours":"10:00 ~ 21:00","closedDaySet":[]},"costPerPerson":-1,"spendingTime":{"hour":1.0,"standardDeviation":0.05},"isRestaurant":true},{"id":8515788,"name":"제주바닷가의나루터","poiType":{"category":"음식점","subCategory":"한식","subSubCategory":"해물,생선"},"address":"제주특별자치도 제주시 용담3동 1003-1","location":{"latitude":33.51665836543113,"longitude":126.50480737932789},"score":3.6,"businessHours":{"businessHours":"08:30 ~ 21:00","closedDaySet":[]},"costPerPerson":-1,"spendingTime":{"hour":1.0,"standardDeviation":0.05},"isRestaurant":true},{"id":1648145963,"name":"섬마을청년회관","poiType":{"category":"음식점","subCategory":"양식","subSubCategory":""},"address":"제주특별자치도 제주시 용담2동 626-8","location":{"latitude":33.50928454211979,"longitude":126.50961517441826},"score":4.5,"businessHours":{"businessHours":"09:00 ~ 15:00","closedDaySet":[]},"costPerPerson":-1,"spendingTime":{"hour":1.0,"standardDeviation":0.05},"isRestaurant":true},{"id":16260200,"name":"만선식당","poiType":{"category":"음식점","subCategory":"한식","subSubCategory":"해물,생선"},"address":"제주특별자치도 서귀포시 대정읍 하모리 770-50","location":{"latitude":33.21786388344173,"longitude":126.2498123223828},"score":4.4,"businessHours":{"businessHours":"11:00 ~ 21:00","closedDaySet":[]},"costPerPerson":-1,"spendingTime":{"hour":1.0,"standardDeviation":0.05},"isRestaurant":true},{"id":10757125,"name":"이금돈지","poiType":{"category":"음식점","subCategory":"한식","subSubCategory":"해물,생선"},"address":"제주특별자치도 제주시 연동 293-44","location":{"latitude":33.48608884406954,"longitude":126.4953669988499},"score":4.9,"businessHours":{"businessHours":"10:00 ~ 22:00","closedDaySet":["추석당일","추석전날","설당일","설전날"]},"costPerPerson":-1,"spendingTime":{"hour":1.0,"standardDeviation":0.05},"isRestaurant":true},{"id":751399977,"name":"코코마마","poiType":{"category":"음식점","subCategory":"한식","subSubCategory":"해물,생선"},"address":"제주특별자치도 제주시 우도면 연평리 1290-2","location":{"latitude":33.51314508261631,"longitude":126.95774610902748},"score":3.5,"businessHours":{"businessHours":"10:30 ~ 17:00","closedDaySet":[]},"costPerPerson":-1,"spendingTime":{"hour":1.0,"standardDeviation":0.05},"isRestaurant":true},{"id":21297584,"name":"미도식당","poiType":{"category":"음식점","subCategory":"한식","subSubCategory":""},"address":"제주특별자치도 서귀포시 안덕면 사계리 129-3","location":{"latitude":33.23243706195398,"longitude":126.30941469755203},"score":5.0,"businessHours":{"businessHours":"10:30 ~ 17:00","closedDaySet":[]},"costPerPerson":-1,"spendingTime":{"hour":1.0,"standardDeviation":0.05},"isRestaurant":true},{"id":27316499,"name":"한돈가","poiType":{"category":"음식점","subCategory":"한식","subSubCategory":"육류,고기"},"address":"제주특별자치도 서귀포시 중문동 2446","location":{"latitude":33.24897579453001,"longitude":126.43005803374366},"score":2.0,"businessHours":{"businessHours":"11:30 ~ 22:30","closedDaySet":[]},"costPerPerson":-1,"spendingTime":{"hour":1.0,"standardDeviation":0.05},"isRestaurant":true},{"id":13113403,"name":"페닌슐라 롯데호텔제주","poiType":{"category":"음식점","subCategory":"양식","subSubCategory":""},"address":"제주특별자치도 서귀포시 색달동 2812-4","location":{"latitude":33.2486356600414,"longitude":126.41051790746273},"score":1.5,"businessHours":{"businessHours":"06:30 ~ 22:00","closedDaySet":[]},"costPerPerson":-1,"spendingTime":{"hour":1.0,"standardDeviation":0.05},"isRestaurant":true},{"id":17809788,"name":"색달식당","poiType":{"category":"음식점","subCategory":"한식","subSubCategory":"해물,생선"},"address":"제주특별자치도 서귀포시 색달동 2276-5","location":{"latitude":33.2575980383972,"longitude":126.413470654564},"score":4.7,"businessHours":{"businessHours":"09:00 ~ 21:00","closedDaySet":[]},"costPerPerson":-1,"spendingTime":{"hour":1.0,"standardDeviation":0.05},"isRestaurant":true},{"id":20233614,"name":"덕성원","poiType":{"category":"음식점","subCategory":"중식","subSubCategory":"중화요리"},"address":"제주특별자치도 제주시 아라2동 3008-3","location":{"latitude":33.49139410067222,"longitude":126.54465746911248},"score":2.9,"businessHours":{"businessHours":"10:30 ~ 17:00","closedDaySet":[]},"costPerPerson":-1,"spendingTime":{"hour":1.0,"standardDeviation":0.05},"isRestaurant":true},{"id":10478618,"name":"성미가든","poiType":{"category":"음식점","subCategory":"한식","subSubCategory":"육류,고기"},"address":"제주특별자치도 제주시 조천읍 교래리 532","location":{"latitude":33.437590800397,"longitude":126.676836160628},"score":3.4,"businessHours":{"businessHours":"11:00 ~ 20:00","closedDaySet":["목요일"]},"costPerPerson":-1,"spendingTime":{"hour":1.0,"standardDeviation":0.05},"isRestaurant":true},{"id":11939834,"name":"종달수다뜰","poiType":{"category":"음식점","subCategory":"한식","subSubCategory":""},"address":"제주특별자치도 제주시 구좌읍 종달리 2566-1","location":{"latitude":33.491885397697175,"longitude":126.89308988227498},"score":4.8,"businessHours":{"businessHours":"10:00 ~ 19:00","closedDaySet":["추석당일","설당일"]},"costPerPerson":-1,"spendingTime":{"hour":1.0,"standardDeviation":0.05},"isRestaurant":true},{"id":27344111,"name":"우도해녀식당","poiType":{"category":"음식점","subCategory":"한식","subSubCategory":"해물,생선"},"address":"제주특별자치도 제주시 우도면 연평리 2308-3","location":{"latitude":33.514566211186676,"longitude":126.9489796770441},"score":1.5,"businessHours":{"businessHours":"10:30 ~ 17:00","closedDaySet":[]},"costPerPerson":-1,"spendingTime":{"hour":1.0,"standardDeviation":0.05},"isRestaurant":true},{"id":22582730,"name":"청해일","poiType":{"category":"음식점","subCategory":"일식","subSubCategory":"일식집"},"address":"제주특별자치도 제주시 아라1동 2605-8","location":{"latitude":33.48447621305507,"longitude":126.53665854713546},"score":3.5,"businessHours":{"businessHours":"17:00 ~ 23:00","closedDaySet":["월요일"]},"costPerPerson":-1,"spendingTime":{"hour":1.0,"standardDeviation":0.05},"isRestaurant":true},{"id":1754127391,"name":"타쿠마","poiType":{"category":"음식점","subCategory":"일식","subSubCategory":"초밥,롤"},"address":"제주특별자치도 서귀포시 성산읍 고성리 489-4","location":{"latitude":33.439031248590666,"longitude":126.91849215721842},"score":5.0,"businessHours":{"businessHours":"10:30 ~ 17:00","closedDaySet":[]},"costPerPerson":-1,"spendingTime":{"hour":1.0,"standardDeviation":0.05},"isRestaurant":true},{"id":27525363,"name":"깡촌흑돼지","poiType":{"category":"음식점","subCategory":"한식","subSubCategory":"육류,고기"},"address":"제주특별자치도 제주시 조천읍 함덕리 1001","location":{"latitude":33.541274383213,"longitude":126.667135470078},"score":1.5,"businessHours":{"businessHours":"10:30 ~ 17:00","closedDaySet":[]},"costPerPerson":-1,"spendingTime":{"hour":1.0,"standardDeviation":0.05},"isRestaurant":true},{"id":26845442,"name":"올레삼다정","poiType":{"category":"음식점","subCategory":"한식","subSubCategory":"해물,생선"},"address":"제주특별자치도 서귀포시 동홍동 646-2","location":{"latitude":33.2531338267666,"longitude":126.569775621387},"score":3.1,"businessHours":{"businessHours":"11:00 ~ 22:00","closedDaySet":[]},"costPerPerson":-1,"spendingTime":{"hour":1.0,"standardDeviation":0.05},"isRestaurant":true},{"id":25666846,"name":"산내들맛집","poiType":{"category":"음식점","subCategory":"한식","subSubCategory":""},"address":"제주특별자치도 제주시 조천읍 와흘리 125-19","location":{"latitude":33.473157247659934,"longitude":126.6576495102469},"score":4.3,"businessHours":{"businessHours":"09:00 ~ 16:00","closedDaySet":[]},"costPerPerson":-1,"spendingTime":{"hour":1.0,"standardDeviation":0.05},"isRestaurant":true},{"id":1356679233,"name":"무거버거","poiType":{"category":"음식점","subCategory":"양식","subSubCategory":"햄버거"},"address":"제주특별자치도 제주시 조천읍 신흥리 15-4","location":{"latitude":33.548981193312464,"longitude":126.6550668767027},"score":4.0,"businessHours":{"businessHours":"11:00 ~ 19:00","closedDaySet":["수요일"]},"costPerPerson":-1,"spendingTime":{"hour":1.0,"standardDeviation":0.05},"isRestaurant":true},{"id":955621398,"name":"뱃도새기","poiType":{"category":"음식점","subCategory":"한식","subSubCategory":"한정식"},"address":"제주특별자치도 서귀포시 토평동 841-1","location":{"latitude":33.2553827694594,"longitude":126.579877914553},"score":4.0,"businessHours":{"businessHours":"12:00 ~ 22:50","closedDaySet":[]},"costPerPerson":-1,"spendingTime":{"hour":1.0,"standardDeviation":0.05},"isRestaurant":true},{"id":26065200,"name":"표선칼국수","poiType":{"category":"음식점","subCategory":"한식","subSubCategory":"국수"},"address":"제주특별자치도 서귀포시 표선면 표선리 40-52","location":{"latitude":33.3251285031137,"longitude":126.844212690033},"score":4.8,"businessHours":{"businessHours":"10:30 ~ 17:00","closedDaySet":[]},"costPerPerson":-1,"spendingTime":{"hour":1.0,"standardDeviation":0.05},"isRestaurant":true},{"id":11733078,"name":"뽈살집 제주본점","poiType":{"category":"음식점","subCategory":"한식","subSubCategory":"육류,고기"},"address":"제주특별자치도 서귀포시 서귀동 278-5","location":{"latitude":33.2506760174196,"longitude":126.56306155848},"score":4.1,"businessHours":{"businessHours":"16:00 ~ 02:00","closedDaySet":[]},"costPerPerson":-1,"spendingTime":{"hour":1.0,"standardDeviation":0.05},"isRestaurant":true},{"id":18653628,"name":"성읍칠십리식당","poiType":{"category":"음식점","subCategory":"한식","subSubCategory":"육류,고기"},"address":"제주특별자치도 서귀포시 표선면 성읍리 580","location":{"latitude":33.38922951476586,"longitude":126.80122800242124},"score":3.4,"businessHours":{"businessHours":"11:00 ~ 20:00","closedDaySet":[]},"costPerPerson":-1,"spendingTime":{"hour":1.0,"standardDeviation":0.05},"isRestaurant":true},{"id":11291724,"name":"마농치킨 본점","poiType":{"category":"음식점","subCategory":"치킨","subSubCategory":""},"address":"제주특별자치도 서귀포시 서귀동 275-27","location":{"latitude":33.24913045631655,"longitude":126.5632751347467},"score":3.0,"businessHours":{"businessHours":"10:30 ~ 17:00","closedDaySet":["화요일"]},"costPerPerson":-1,"spendingTime":{"hour":1.0,"standardDeviation":0.05},"isRestaurant":true},{"id":12749808,"name":"제주소드래","poiType":{"category":"음식점","subCategory":"퓨전요리","subSubCategory":"퓨전한식"},"address":"제주특별자치도 제주시 이도2동 314-4","location":{"latitude":33.5040522457776,"longitude":126.536717146753},"score":5.0,"businessHours":{"businessHours":"10:30 ~ 17:00","closedDaySet":[]},"costPerPerson":-1,"spendingTime":{"hour":1.0,"standardDeviation":0.05},"isRestaurant":true},{"id":8402990,"name":"사해방","poiType":{"category":"음식점","subCategory":"중식","subSubCategory":"중화요리"},"address":"제주특별자치도 서귀포시 대포동 747","location":{"latitude":33.250230478175006,"longitude":126.43145723523281},"score":4.5,"businessHours":{"businessHours":"10:30 ~ 17:00","closedDaySet":[]},"costPerPerson":-1,"spendingTime":{"hour":1.0,"standardDeviation":0.05},"isRestaurant":true},{"id":26412350,"name":"벵디","poiType":{"category":"음식점","subCategory":"한식","subSubCategory":"해물,생선"},"address":"제주특별자치도 제주시 구좌읍 평대리 2031-2","location":{"latitude":33.537718813411786,"longitude":126.83716878223038},"score":3.7,"businessHours":{"businessHours":"10:30 ~ 21:00","closedDaySet":["목요일"]},"costPerPerson":-1,"spendingTime":{"hour":1.0,"standardDeviation":0.05},"isRestaurant":true},{"id":18277817,"name":"그리운바다성산포 성산본점","poiType":{"category":"음식점","subCategory":"한식","subSubCategory":"해물,생선"},"address":"제주특별자치도 서귀포시 성산읍 성산리 360-10","location":{"latitude":33.4698550378572,"longitude":126.930043379887},"score":4.1,"businessHours":{"businessHours":"09:00 ~ 21:00","closedDaySet":[]},"costPerPerson":-1,"spendingTime":{"hour":1.0,"standardDeviation":0.05},"isRestaurant":true},{"id":10591316,"name":"앞뱅디식당","poiType":{"category":"음식점","subCategory":"한식","subSubCategory":""},"address":"제주특별자치도 제주시 연동 324-1","location":{"latitude":33.485328325996996,"longitude":126.49990767902727},"score":2.9,"businessHours":{"businessHours":"08:30 ~ 21:30","closedDaySet":["넷째 일요일","둘째 일요일"]},"costPerPerson":-1,"spendingTime":{"hour":1.0,"standardDeviation":0.05},"isRestaurant":true},{"id":12744696,"name":"예소담","poiType":{"category":"음식점","subCategory":"한식","subSubCategory":"국수"},"address":"제주특별자치도 제주시 이도2동 361-6","location":{"latitude":33.5024263469657,"longitude":126.537836428077},"score":3.1,"businessHours":{"businessHours":"09:00 ~ 21:00","closedDaySet":["월요일"]},"costPerPerson":-1,"spendingTime":{"hour":1.0,"standardDeviation":0.05},"isRestaurant":true},{"id":8577081,"name":"청운식당","poiType":{"category":"음식점","subCategory":"한식","subSubCategory":"해물,생선"},"address":"제주특별자치도 서귀포시 성산읍 성산리 192-2","location":{"latitude":33.4630487172462,"longitude":126.934872322221},"score":3.8,"businessHours":{"businessHours":"07:00 ~ 22:00","closedDaySet":[]},"costPerPerson":-1,"spendingTime":{"hour":1.0,"standardDeviation":0.05},"isRestaurant":true},{"id":20631993,"name":"제주곰집","poiType":{"category":"음식점","subCategory":"한식","subSubCategory":"육류,고기"},"address":"제주특별자치도 서귀포시 강정동 2623-1","location":{"latitude":33.2349111737016,"longitude":126.49075450398254},"score":1.5,"businessHours":{"businessHours":"10:00 ~ 22:00","closedDaySet":[]},"costPerPerson":-1,"spendingTime":{"hour":1.0,"standardDeviation":0.05},"isRestaurant":true},{"id":8517699,"name":"제주미향","poiType":{"category":"음식점","subCategory":"한식","subSubCategory":"해물,생선"},"address":"제주특별자치도 서귀포시 색달동 2477","location":{"latitude":33.2551375188328,"longitude":126.416345916445},"score":3.0,"businessHours":{"businessHours":"09:00 ~ 22:00","closedDaySet":[]},"costPerPerson":-1,"spendingTime":{"hour":1.0,"standardDeviation":0.05},"isRestaurant":true},{"id":25107836,"name":"짱아저씨","poiType":{"category":"음식점","subCategory":"한식","subSubCategory":"한정식"},"address":"제주특별자치도 서귀포시 성산읍 성산리 164-17","location":{"latitude":33.461832175518566,"longitude":126.93199402419204},"score":4.0,"businessHours":{"businessHours":"11:00 ~ 22:00","closedDaySet":["첫째 수요일","셋째 수요일"]},"costPerPerson":-1,"spendingTime":{"hour":1.0,"standardDeviation":0.05},"isRestaurant":true},{"id":9784404,"name":"뜰채","poiType":{"category":"음식점","subCategory":"한식","subSubCategory":"해물,생선"},"address":"제주특별자치도 제주시 조천읍 함덕리 산 14-58","location":{"latitude":33.5424044670264,"longitude":126.670313813769},"score":3.4,"businessHours":{"businessHours":"10:00 ~ 22:00","closedDaySet":[]},"costPerPerson":-1,"spendingTime":{"hour":1.0,"standardDeviation":0.05},"isRestaurant":true},{"id":285307335,"name":"옥만이네","poiType":{"category":"음식점","subCategory":"한식","subSubCategory":"해물,생선"},"address":"제주특별자치도 제주시 한림읍 한림리 1314-29","location":{"latitude":33.41650957036583,"longitude":126.26343228785203},"score":4.0,"businessHours":{"businessHours":"07:00 ~ 22:00","closedDaySet":[]},"costPerPerson":-1,"spendingTime":{"hour":1.0,"standardDeviation":0.05},"isRestaurant":true},{"id":13143043,"name":"닐모리동동","poiType":{"category":"음식점","subCategory":"양식","subSubCategory":""},"address":"제주특별자치도 제주시 용담3동 2396","location":{"latitude":33.5177985663204,"longitude":126.487880012578},"score":4.3,"businessHours":{"businessHours":"10:00 ~ 21:00","closedDaySet":["추석당일","설당일"]},"costPerPerson":-1,"spendingTime":{"hour":1.0,"standardDeviation":0.05},"isRestaurant":true},{"id":19613096,"name":"한림해촌","poiType":{"category":"음식점","subCategory":"한식","subSubCategory":"해물,생선"},"address":"제주특별자치도 제주시 한림읍 협재리 2447-39","location":{"latitude":33.393588591085,"longitude":126.239779049957},"score":1.8,"businessHours":{"businessHours":"08:00 ~ 21:00","closedDaySet":[]},"costPerPerson":-1,"spendingTime":{"hour":1.0,"standardDeviation":0.05},"isRestaurant":true},{"id":1754846295,"name":"흑돈가 제주본점","poiType":{"category":"음식점","subCategory":"한식","subSubCategory":"육류,고기"},"address":"제주특별자치도 제주시 노형동 1509","location":{"latitude":33.48000411008542,"longitude":126.47355308142431},"score":3.4,"businessHours":{"businessHours":"11:00 ~ 24:00","closedDaySet":[]},"costPerPerson":-1,"spendingTime":{"hour":1.0,"standardDeviation":0.05},"isRestaurant":true},{"id":381504045,"name":"월정해녀식당","poiType":{"category":"음식점","subCategory":"한식","subSubCategory":"한정식"},"address":"제주특별자치도 제주시 구좌읍 월정리 648","location":{"latitude":33.55780003097413,"longitude":126.79449087616518},"score":5.0,"businessHours":{"businessHours":"08:00 ~ 21:00","closedDaySet":[]},"costPerPerson":-1,"spendingTime":{"hour":1.0,"standardDeviation":0.05},"isRestaurant":true},{"id":16260074,"name":"사형제횟집","poiType":{"category":"음식점","subCategory":"한식","subSubCategory":"해물,생선"},"address":"제주특별자치도 제주시 한림읍 대림리 2015","location":{"latitude":33.42239434013196,"longitude":126.26634136776863},"score":3.4,"businessHours":{"businessHours":"11:00 ~ 21:00","closedDaySet":["둘째 수요일","넷째 수요일"]},"costPerPerson":-1,"spendingTime":{"hour":1.0,"standardDeviation":0.05},"isRestaurant":true},{"id":8294507,"name":"명리동식당","poiType":{"category":"음식점","subCategory":"한식","subSubCategory":"육류,고기"},"address":"제주특별자치도 제주시 한경면 저지리 3136","location":{"latitude":33.3166282619645,"longitude":126.270408793748},"score":3.9,"businessHours":{"businessHours":"11:30 ~ 21:00","closedDaySet":["월요일"]},"costPerPerson":-1,"spendingTime":{"hour":1.0,"standardDeviation":0.05},"isRestaurant":true},{"id":25854301,"name":"공새미59","poiType":{"category":"음식점","subCategory":"한식","subSubCategory":""},"address":"제주특별자치도 서귀포시 남원읍 신례리 60-3","location":{"latitude":33.2642623821977,"longitude":126.6404349897692},"score":2.9,"businessHours":{"businessHours":"09:30 ~ 21:00","closedDaySet":["화요일"]},"costPerPerson":-1,"spendingTime":{"hour":1.0,"standardDeviation":0.05},"isRestaurant":true},{"id":27125068,"name":"문동일셰프녹차고을","poiType":{"category":"음식점","subCategory":"한식","subSubCategory":""},"address":"제주특별자치도 제주시 애월읍 하귀1리 235-5","location":{"latitude":33.48185995296655,"longitude":126.41315712335782},"score":4.7,"businessHours":{"businessHours":"10:30 ~ 21:00","closedDaySet":[]},"costPerPerson":-1,"spendingTime":{"hour":1.0,"standardDeviation":0.05},"isRestaurant":true},{"id":193016664,"name":"엘마리노뷔페","poiType":{"category":"음식점","subCategory":"뷔페","subSubCategory":""},"address":"제주특별자치도 서귀포시 색달동 2950-4","location":{"latitude":33.2431640889973,"longitude":126.416369707611},"score":3.8,"businessHours":{"businessHours":"10:30 ~ 17:00","closedDaySet":[]},"costPerPerson":-1,"spendingTime":{"hour":1.0,"standardDeviation":0.05},"isRestaurant":true},{"id":17589720,"name":"제주명가두루치기","poiType":{"category":"음식점","subCategory":"한식","subSubCategory":"육류,고기"},"address":"제주특별자치도 서귀포시 동홍동 385","location":{"latitude":33.249574928674,"longitude":126.571033533377},"score":4.2,"businessHours":{"businessHours":"11:00 ~ 22:00","closedDaySet":["수요일"]},"costPerPerson":-1,"spendingTime":{"hour":1.0,"standardDeviation":0.05},"isRestaurant":true},{"id":9733194,"name":"네거리식당","poiType":{"category":"음식점","subCategory":"한식","subSubCategory":"해물,생선"},"address":"제주특별자치도 서귀포시 서귀동 320-9","location":{"latitude":33.2484915875436,"longitude":126.559290966856},"score":3.0,"businessHours":{"businessHours":"07:00 ~ 21:00","closedDaySet":["추석당일","설당일"]},"costPerPerson":-1,"spendingTime":{"hour":1.0,"standardDeviation":0.05},"isRestaurant":true},{"id":26867835,"name":"운정이네 본점","poiType":{"category":"음식점","subCategory":"한식","subSubCategory":""},"address":"제주특별자치도 서귀포시 중문동 1239-5","location":{"latitude":33.2635455050256,"longitude":126.437754696081},"score":3.4,"businessHours":{"businessHours":"10:00 ~ 24:00","closedDaySet":[]},"costPerPerson":-1,"spendingTime":{"hour":1.0,"standardDeviation":0.05},"isRestaurant":true},{"id":14527932,"name":"청어림향토음식점","poiType":{"category":"음식점","subCategory":"한식","subSubCategory":"해물,생선"},"address":"제주특별자치도 제주시 노형동 911-3","location":{"latitude":33.4867646762516,"longitude":126.483255244622},"score":5.0,"businessHours":{"businessHours":"09:30 ~ 22:00","closedDaySet":[]},"costPerPerson":-1,"spendingTime":{"hour":1.0,"standardDeviation":0.05},"isRestaurant":true},{"id":19316749,"name":"춘심이네 본점","poiType":{"category":"음식점","subCategory":"한식","subSubCategory":"해물,생선"},"address":"제주특별자치도 서귀포시 안덕면 창천리 160-4","location":{"latitude":33.2644640824624,"longitude":126.370550844059},"score":3.0,"businessHours":{"businessHours":"10:00 ~ 20:00","closedDaySet":[]},"costPerPerson":-1,"spendingTime":{"hour":1.0,"standardDeviation":0.05},"isRestaurant":true},{"id":11600257,"name":"쌍둥이횟집","poiType":{"category":"음식점","subCategory":"한식","subSubCategory":"해물,생선"},"address":"제주특별자치도 서귀포시 서귀동 496-18","location":{"latitude":33.2465686109221,"longitude":126.56292737608928},"score":3.0,"businessHours":{"businessHours":"11:00 ~ 24:00","closedDaySet":["첫째 수요일","셋째 수요일"]},"costPerPerson":-1,"spendingTime":{"hour":1.0,"standardDeviation":0.05},"isRestaurant":true},{"id":26088576,"name":"모닥식탁","poiType":{"category":"음식점","subCategory":"퓨전요리","subSubCategory":""},"address":"제주특별자치도 제주시 조천읍 함덕리 998-1","location":{"latitude":33.54048238590105,"longitude":126.6673789381649},"score":4.0,"businessHours":{"businessHours":"11:00 ~ 20:00","closedDaySet":["일요일","월요일"]},"costPerPerson":-1,"spendingTime":{"hour":1.0,"standardDeviation":0.05},"isRestaurant":true},{"id":26071163,"name":"올레안뜰","poiType":{"category":"음식점","subCategory":"양식","subSubCategory":""},"address":"제주특별자치도 서귀포시 법환동 229","location":{"latitude":33.23715683253308,"longitude":126.51291212600307},"score":2.0,"businessHours":{"businessHours":"11:30 ~ 20:00","closedDaySet":[]},"costPerPerson":-1,"spendingTime":{"hour":1.0,"standardDeviation":0.05},"isRestaurant":true},{"id":27520155,"name":"제주몬트락 제주본점","poiType":{"category":"음식점","subCategory":"한식","subSubCategory":"육류,고기"},"address":"제주특별자치도 제주시 건입동 1388-3","location":{"latitude":33.5163346656928,"longitude":126.526947287598},"score":3.0,"businessHours":{"businessHours":"11:30 ~ 23:00","closedDaySet":[]},"costPerPerson":-1,"spendingTime":{"hour":1.0,"standardDeviation":0.05},"isRestaurant":true},{"id":20315151,"name":"황금손가락","poiType":{"category":"음식점","subCategory":"일식","subSubCategory":"초밥,롤"},"address":"제주특별자치도 제주시 노형동 289-23","location":{"latitude":33.4512744016467,"longitude":126.485879353879},"score":2.9,"businessHours":{"businessHours":"11:30 ~ 21:00","closedDaySet":["월요일"]},"costPerPerson":-1,"spendingTime":{"hour":1.0,"standardDeviation":0.05},"isRestaurant":true},{"id":26586223,"name":"돈이랑","poiType":{"category":"음식점","subCategory":"한식","subSubCategory":"육류,고기"},"address":"제주특별자치도 서귀포시 색달동 2182","location":{"latitude":33.257710047500055,"longitude":126.40910895089368},"score":5.0,"businessHours":{"businessHours":"11:30 ~ 24:00","closedDaySet":[]},"costPerPerson":-1,"spendingTime":{"hour":1.0,"standardDeviation":0.05},"isRestaurant":true},{"id":24213584,"name":"섬소나이","poiType":{"category":"음식점","subCategory":"퓨전요리","subSubCategory":""},"address":"제주특별자치도 제주시 우도면 연평리 1290-1","location":{"latitude":33.51341187213414,"longitude":126.95750918332888},"score":4.5,"businessHours":{"businessHours":"10:00 ~ 17:00","closedDaySet":[]},"costPerPerson":-1,"spendingTime":{"hour":1.0,"standardDeviation":0.05},"isRestaurant":true},{"id":8450432,"name":"오르막가든","poiType":{"category":"음식점","subCategory":"한식","subSubCategory":"육류,고기"},"address":"제주특별자치도 서귀포시 대포동 743-3","location":{"latitude":33.2502600049504,"longitude":126.433165483085},"score":4.3,"businessHours":{"businessHours":"10:00 ~ 22:00","closedDaySet":["둘째 수요일","넷째 수요일"]},"costPerPerson":-1,"spendingTime":{"hour":1.0,"standardDeviation":0.05},"isRestaurant":true},{"id":20158449,"name":"웅스키친","poiType":{"category":"음식점","subCategory":"양식","subSubCategory":"이탈리안"},"address":"제주특별자치도 제주시 이호2동 116-3","location":{"latitude":33.4933673048073,"longitude":126.463588598353},"score":3.3,"businessHours":{"businessHours":"11:30 ~ 19:30","closedDaySet":["수요일"]},"costPerPerson":-1,"spendingTime":{"hour":1.0,"standardDeviation":0.05},"isRestaurant":true},{"id":10312092,"name":"대포횟집","poiType":{"category":"음식점","subCategory":"한식","subSubCategory":"해물,생선"},"address":"제주특별자치도 서귀포시 대포동 2184","location":{"latitude":33.2391642228883,"longitude":126.439043835718},"score":3.2,"businessHours":{"businessHours":"12:00 ~ 22:00","closedDaySet":[]},"costPerPerson":-1,"spendingTime":{"hour":1.0,"standardDeviation":0.05},"isRestaurant":true},{"id":8526214,"name":"용이식당","poiType":{"category":"음식점","subCategory":"한식","subSubCategory":"육류,고기"},"address":"제주특별자치도 서귀포시 서귀동 297-6","location":{"latitude":33.2510816699144,"longitude":126.560479828192},"score":3.9,"businessHours":{"businessHours":"09:00 ~ 22:00","closedDaySet":["첫째 일요일","셋째 일요일"]},"costPerPerson":-1,"spendingTime":{"hour":1.0,"standardDeviation":0.05},"isRestaurant":true},{"id":21531714,"name":"놀맨","poiType":{"category":"음식점","subCategory":"분식","subSubCategory":""},"address":"제주특별자치도 제주시 애월읍 애월리 2530","location":{"latitude":33.46246770907767,"longitude":126.31022603852026},"score":1.7,"businessHours":{"businessHours":"10:00 ~ 16:00","closedDaySet":["화요일"]},"costPerPerson":-1,"spendingTime":{"hour":1.0,"standardDeviation":0.05},"isRestaurant":true},{"id":21486668,"name":"롯데호텔제주 레이크플라자","poiType":{"category":"음식점","subCategory":"뷔페","subSubCategory":""},"address":"제주특별자치도 서귀포시 색달동 2812-4","location":{"latitude":33.248495114076086,"longitude":126.41054031402095},"score":1.5,"businessHours":{"businessHours":"11:30 ~ 21:30","closedDaySet":[]},"costPerPerson":-1,"spendingTime":{"hour":1.0,"standardDeviation":0.05},"isRestaurant":true},{"id":16672180,"name":"제주할망뚝배기","poiType":{"category":"음식점","subCategory":"한식","subSubCategory":""},"address":"제주특별자치도 서귀포시 서귀동 759-10","location":{"latitude":33.2405326093607,"longitude":126.565618466025},"score":3.8,"businessHours":{"businessHours":"10:30 ~ 17:00","closedDaySet":[]},"costPerPerson":-1,"spendingTime":{"hour":1.0,"standardDeviation":0.05},"isRestaurant":true},{"id":17143819,"name":"오라오거리정식","poiType":{"category":"음식점","subCategory":"한식","subSubCategory":""},"address":"제주특별자치도 제주시 용담2동 2587","location":{"latitude":33.50044377499251,"longitude":126.50739664156765},"score":2.9,"businessHours":{"businessHours":"08:00 ~ 16:00","closedDaySet":[]},"costPerPerson":-1,"spendingTime":{"hour":1.0,"standardDeviation":0.05},"isRestaurant":true},{"id":8491412,"name":"삼미횟집","poiType":{"category":"음식점","subCategory":"한식","subSubCategory":"해물,생선"},"address":"제주특별자치도 제주시 도두1동 2617-1","location":{"latitude":33.50459087943616,"longitude":126.46372600121651},"score":3.9,"businessHours":{"businessHours":"11:00 ~ 22:30","closedDaySet":[]},"costPerPerson":-1,"spendingTime":{"hour":1.0,"standardDeviation":0.05},"isRestaurant":true},{"id":10726776,"name":"재벌식당","poiType":{"category":"음식점","subCategory":"한식","subSubCategory":"곰탕"},"address":"제주특별자치도 제주시 연동 1965-4","location":{"latitude":33.49076404106681,"longitude":126.48433848786995},"score":2.1,"businessHours":{"businessHours":"07:00 ~ 13:00","closedDaySet":[]},"costPerPerson":-1,"spendingTime":{"hour":1.0,"standardDeviation":0.05},"isRestaurant":true},{"id":12084589,"name":"조림명가","poiType":{"category":"음식점","subCategory":"한식","subSubCategory":"해물,생선"},"address":"제주특별자치도 서귀포시 서귀동 311-5","location":{"latitude":33.24828449522731,"longitude":126.55963956055768},"score":3.3,"businessHours":{"businessHours":"07:30 ~ 23:30","closedDaySet":[]},"costPerPerson":-1,"spendingTime":{"hour":1.0,"standardDeviation":0.05},"isRestaurant":true},{"id":2130013103,"name":"옹포횟집","poiType":{"category":"음식점","subCategory":"한식","subSubCategory":"해물,생선"},"address":"제주특별자치도 제주시 한림읍 협재리 1398","location":{"latitude":33.39984894258921,"longitude":126.24971998172093},"score":1.5,"businessHours":{"businessHours":"11:00 ~ 22:00","closedDaySet":[]},"costPerPerson":-1,"spendingTime":{"hour":1.0,"standardDeviation":0.05},"isRestaurant":true},{"id":8636832,"name":"가시식당","poiType":{"category":"음식점","subCategory":"한식","subSubCategory":"순대"},"address":"제주특별자치도 서귀포시 표선면 가시리 1898-5","location":{"latitude":33.3530600681391,"longitude":126.771437983288},"score":3.4,"businessHours":{"businessHours":"08:00 ~ 19:00","closedDaySet":["설다음날","추석당일","추석다음날","넷째 일요일","설당일","둘째 일요일","1월1일"]},"costPerPerson":-1,"spendingTime":{"hour":1.0,"standardDeviation":0.05},"isRestaurant":true},{"id":26585270,"name":"성산수구레국밥","poiType":{"category":"음식점","subCategory":"한식","subSubCategory":"국밥"},"address":"제주특별자치도 서귀포시 안덕면 서광리 956-4","location":{"latitude":33.28986798713744,"longitude":126.31433378698807},"score":4.3,"businessHours":{"businessHours":"08:00 ~ 16:00","closedDaySet":["둘째 목요일","넷째 목요일"]},"costPerPerson":-1,"spendingTime":{"hour":1.0,"standardDeviation":0.05},"isRestaurant":true},{"id":24839193,"name":"국수바다 본점","poiType":{"category":"음식점","subCategory":"한식","subSubCategory":"국수"},"address":"제주특별자치도 서귀포시 색달동 2130","location":{"latitude":33.25855339597807,"longitude":126.40596961127281},"score":3.0,"businessHours":{"businessHours":"08:00 ~ 21:00","closedDaySet":[]},"costPerPerson":-1,"spendingTime":{"hour":1.0,"standardDeviation":0.05},"isRestaurant":true},{"id":20307028,"name":"제주마당","poiType":{"category":"음식점","subCategory":"한식","subSubCategory":"해물,생선"},"address":"제주특별자치도 제주시 노형동 914-2","location":{"latitude":33.48642554725621,"longitude":126.4843255313676},"score":3.1,"businessHours":{"businessHours":"08:30 ~ 20:00","closedDaySet":[]},"costPerPerson":-1,"spendingTime":{"hour":1.0,"standardDeviation":0.05},"isRestaurant":true},{"id":26411189,"name":"칠돈가 성산점","poiType":{"category":"음식점","subCategory":"한식","subSubCategory":"육류,고기"},"address":"제주특별자치도 서귀포시 성산읍 오조리 1010-1","location":{"latitude":33.4558838404226,"longitude":126.91289153766166},"score":3.1,"businessHours":{"businessHours":"12:00 ~ 22:00","closedDaySet":[]},"costPerPerson":-1,"spendingTime":{"hour":1.0,"standardDeviation":0.05},"isRestaurant":true},{"id":8258838,"name":"덤장 중문점","poiType":{"category":"음식점","subCategory":"한식","subSubCategory":"해물,생선"},"address":"제주특별자치도 서귀포시 색달동 2119","location":{"latitude":33.25773425407906,"longitude":126.40813436036868},"score":3.1,"businessHours":{"businessHours":"08:00 ~ 22:00","closedDaySet":[]},"costPerPerson":-1,"spendingTime":{"hour":1.0,"standardDeviation":0.05},"isRestaurant":true},{"id":20017246,"name":"서울촌놈인제주","poiType":{"category":"음식점","subCategory":"일식","subSubCategory":"돈까스,우동"},"address":"제주특별자치도 제주시 한림읍 귀덕리 3198","location":{"latitude":33.44217650710134,"longitude":126.28072706544447},"score":2.5,"businessHours":{"businessHours":"11:00 ~ 13:00","closedDaySet":["화요일"]},"costPerPerson":-1,"spendingTime":{"hour":1.0,"standardDeviation":0.05},"isRestaurant":true},{"id":10207672,"name":"기원뚝배기","poiType":{"category":"음식점","subCategory":"한식","subSubCategory":""},"address":"제주특별자치도 서귀포시 색달동 2277-3","location":{"latitude":33.2574013882755,"longitude":126.413832549916},"score":3.6,"businessHours":{"businessHours":"10:30 ~ 17:00","closedDaySet":[]},"costPerPerson":-1,"spendingTime":{"hour":1.0,"standardDeviation":0.05},"isRestaurant":true},{"id":27477200,"name":"양가형제평화동회관 제주본점","poiType":{"category":"음식점","subCategory":"양식","subSubCategory":"햄버거"},"address":"제주특별자치도 제주시 한경면 청수리 746-8","location":{"latitude":33.30738928979912,"longitude":126.25395448403047},"score":2.0,"businessHours":{"businessHours":"11:00 ~ 18:30","closedDaySet":["목요일"]},"costPerPerson":-1,"spendingTime":{"hour":1.0,"standardDeviation":0.05},"isRestaurant":true},{"id":7910666,"name":"삼대국수회관 신제주점","poiType":{"category":"음식점","subCategory":"한식","subSubCategory":"국수"},"address":"제주특별자치도 제주시 연동 295","location":{"latitude":33.4838558090031,"longitude":126.493218586472},"score":3.9,"businessHours":{"businessHours":"10:00 ~ 06:00","closedDaySet":[]},"costPerPerson":-1,"spendingTime":{"hour":1.0,"standardDeviation":0.05},"isRestaurant":true},{"id":1697090646,"name":"살아있는해물뚝배기어마장장","poiType":{"category":"음식점","subCategory":"한식","subSubCategory":"한정식"},"address":"제주특별자치도 제주시 일도2동 1028-49","location":{"latitude":33.511080467449,"longitude":126.529860332811},"score":5.0,"businessHours":{"businessHours":"10:00 ~ 20:30","closedDaySet":[]},"costPerPerson":-1,"spendingTime":{"hour":1.0,"standardDeviation":0.05},"isRestaurant":true},{"id":21350388,"name":"남경미락","poiType":{"category":"음식점","subCategory":"한식","subSubCategory":"해물,생선"},"address":"제주특별자치도 서귀포시 안덕면 사계리 2032-3","location":{"latitude":33.23021288648271,"longitude":126.30894730067321},"score":3.4,"businessHours":{"businessHours":"11:30 ~ 21:00","closedDaySet":[]},"costPerPerson":-1,"spendingTime":{"hour":1.0,"standardDeviation":0.05},"isRestaurant":true},{"id":26498212,"name":"잇수다","poiType":{"category":"음식점","subCategory":"양식","subSubCategory":""},"address":"제주특별자치도 제주시 애월읍 고내리 1113","location":{"latitude":33.466944140161175,"longitude":126.33746221646058},"score":3.3,"businessHours":{"businessHours":"11:00 ~ 20:30","closedDaySet":[]},"costPerPerson":-1,"spendingTime":{"hour":1.0,"standardDeviation":0.05},"isRestaurant":true},{"id":9940398,"name":"옥돔식당","poiType":{"category":"음식점","subCategory":"한식","subSubCategory":"국수"},"address":"제주특별자치도 서귀포시 대정읍 하모리 1067-23","location":{"latitude":33.2199710821565,"longitude":126.249007485159},"score":3.9,"businessHours":{"businessHours":"11:00 ~ 16:00","closedDaySet":["수요일"]},"costPerPerson":-1,"spendingTime":{"hour":1.0,"standardDeviation":0.05},"isRestaurant":true},{"id":7972099,"name":"신설오름","poiType":{"category":"음식점","subCategory":"한식","subSubCategory":""},"address":"제주특별자치도 제주시 일도2동 409-5","location":{"latitude":33.505411850704,"longitude":126.541565800061},"score":4.4,"businessHours":{"businessHours":"11:00 ~ 06:00","closedDaySet":["넷째 월요일","둘째 월요일"]},"costPerPerson":-1,"spendingTime":{"hour":1.0,"standardDeviation":0.05},"isRestaurant":true},{"id":1762863151,"name":"착한집","poiType":{"category":"음식점","subCategory":"한식","subSubCategory":""},"address":"제주특별자치도 제주시 노형동 3601","location":{"latitude":33.47875392064373,"longitude":126.46293527845977},"score":5.0,"businessHours":{"businessHours":"11:00 ~ 21:00","closedDaySet":[]},"costPerPerson":-1,"spendingTime":{"hour":1.0,"standardDeviation":0.05},"isRestaurant":true},{"id":7976186,"name":"쉬는팡가든","poiType":{"category":"음식점","subCategory":"한식","subSubCategory":"육류,고기"},"address":"제주특별자치도 서귀포시 상예동 1765-1","location":{"latitude":33.26674141398448,"longitude":126.3943141898612},"score":3.4,"businessHours":{"businessHours":"11:30 ~ 21:00","closedDaySet":["수요일"]},"costPerPerson":-1,"spendingTime":{"hour":1.0,"standardDeviation":0.05},"isRestaurant":true},{"id":8244466,"name":"남춘식당","poiType":{"category":"음식점","subCategory":"한식","subSubCategory":""},"address":"제주특별자치도 제주시 이도2동 379-3","location":{"latitude":33.4996410953714,"longitude":126.537532690232},"score":4.5,"businessHours":{"businessHours":"11:00 ~ 15:00","closedDaySet":["다섯째 일요일","첫째 일요일","셋째 일요일"]},"costPerPerson":-1,"spendingTime":{"hour":1.0,"standardDeviation":0.05},"isRestaurant":true},{"id":27462832,"name":"우도아름다운소풍","poiType":{"category":"음식점","subCategory":"양식","subSubCategory":""},"address":"제주특별자치도 제주시 우도면 연평리 988-1","location":{"latitude":33.514876569305926,"longitude":126.94947460848104},"score":4.0,"businessHours":{"businessHours":"08:00 ~ 20:00","closedDaySet":[]},"costPerPerson":-1,"spendingTime":{"hour":1.0,"standardDeviation":0.05},"isRestaurant":true},{"id":20031551,"name":"명진전복","poiType":{"category":"음식점","subCategory":"한식","subSubCategory":"해물,생선"},"address":"제주특별자치도 제주시 구좌읍 평대리 515-28","location":{"latitude":33.5324709034017,"longitude":126.850184971014},"score":2.7,"businessHours":{"businessHours":"09:30 ~ 21:30","closedDaySet":["화요일"]},"costPerPerson":-1,"spendingTime":{"hour":1.0,"standardDeviation":0.05},"isRestaurant":true},{"id":11195814,"name":"용두암해촌","poiType":{"category":"음식점","subCategory":"한식","subSubCategory":"해물,생선"},"address":"제주특별자치도 제주시 용담3동 1026-3","location":{"latitude":33.517022014867,"longitude":126.502635017631},"score":2.1,"businessHours":{"businessHours":"07:00 ~ 22:00","closedDaySet":[]},"costPerPerson":-1,"spendingTime":{"hour":1.0,"standardDeviation":0.05},"isRestaurant":true},{"id":22986766,"name":"제주칼국수제주해물탕","poiType":{"category":"음식점","subCategory":"한식","subSubCategory":"해물,생선"},"address":"제주특별자치도 서귀포시 성산읍 오조리 398-10","location":{"latitude":33.4720620262242,"longitude":126.912746736316},"score":3.0,"businessHours":{"businessHours":"08:00 ~ 22:00","closedDaySet":[]},"costPerPerson":-1,"spendingTime":{"hour":1.0,"standardDeviation":0.05},"isRestaurant":true},{"id":22377487,"name":"섭지골흑돼지","poiType":{"category":"음식점","subCategory":"한식","subSubCategory":"육류,고기"},"address":"제주특별자치도 서귀포시 성산읍 고성리 208-7","location":{"latitude":33.436890890641195,"longitude":126.92133319636208},"score":4.0,"businessHours":{"businessHours":"10:00 ~ 22:00","closedDaySet":[]},"costPerPerson":-1,"spendingTime":{"hour":1.0,"standardDeviation":0.05},"isRestaurant":true},{"id":2185536,"name":"제주김만복김밥 서귀포점","poiType":{"category":"음식점","subCategory":"분식","subSubCategory":""},"address":"제주특별자치도 서귀포시 강정동 707-2","location":{"latitude":33.232539004507,"longitude":126.506234243806},"score":2.0,"businessHours":{"businessHours":"09:00 ~ 13:00","closedDaySet":[]},"costPerPerson":-1,"spendingTime":{"hour":1.0,"standardDeviation":0.05},"isRestaurant":true},{"id":10411458,"name":"바다의집","poiType":{"category":"음식점","subCategory":"한식","subSubCategory":"해물,생선"},"address":"제주특별자치도 서귀포시 성산읍 오조리 366-1","location":{"latitude":33.46953130346978,"longitude":126.91923770498585},"score":3.3,"businessHours":{"businessHours":"08:00 ~ 13:00","closedDaySet":[]},"costPerPerson":-1,"spendingTime":{"hour":1.0,"standardDeviation":0.05},"isRestaurant":true},{"id":10313982,"name":"돌집식당","poiType":{"category":"음식점","subCategory":"한식","subSubCategory":""},"address":"제주특별자치도 서귀포시 표선면 성읍리 1624-3","location":{"latitude":33.3940008499886,"longitude":126.8007431831},"score":3.1,"businessHours":{"businessHours":"10:00 ~ 21:00","closedDaySet":[]},"costPerPerson":-1,"spendingTime":{"hour":1.0,"standardDeviation":0.05},"isRestaurant":true},{"id":257895104,"name":"멋진녀석들","poiType":{"category":"음식점","subCategory":"한식","subSubCategory":"육류,고기"},"address":"제주특별자치도 서귀포시 표선면 표선리 41","location":{"latitude":33.3247648484331,"longitude":126.844694491156},"score":4.3,"businessHours":{"businessHours":"10:30 ~ 17:00","closedDaySet":[]},"costPerPerson":-1,"spendingTime":{"hour":1.0,"standardDeviation":0.05},"isRestaurant":true},{"id":1387964178,"name":"올래국수","poiType":{"category":"음식점","subCategory":"한식","subSubCategory":"국수"},"address":"제주특별자치도 제주시 연동 301-19","location":{"latitude":33.491520510903,"longitude":126.49725936902047},"score":4.0,"businessHours":{"businessHours":"08:30 ~ 19:00","closedDaySet":["일요일","설연휴","추석연휴"]},"costPerPerson":-1,"spendingTime":{"hour":1.0,"standardDeviation":0.05},"isRestaurant":true},{"id":1639836690,"name":"대돈","poiType":{"category":"음식점","subCategory":"한식","subSubCategory":"육류,고기"},"address":"제주특별자치도 제주시 건입동 1399-1","location":{"latitude":33.5158651251043,"longitude":126.52676040608},"score":5.0,"businessHours":{"businessHours":"13:00 ~ 23:30","closedDaySet":[]},"costPerPerson":-1,"spendingTime":{"hour":1.0,"standardDeviation":0.05},"isRestaurant":true},{"id":19157131,"name":"해녀촌","poiType":{"category":"음식점","subCategory":"한식","subSubCategory":"해물,생선"},"address":"제주특별자치도 제주시 구좌읍 동복리 1502-1","location":{"latitude":33.55365557257402,"longitude":126.70989275723136},"score":3.9,"businessHours":{"businessHours":"09:00 ~ 19:00","closedDaySet":["넷째 화요일"]},"costPerPerson":-1,"spendingTime":{"hour":1.0,"standardDeviation":0.05},"isRestaurant":true},{"id":19644570,"name":"어멍횟집","poiType":{"category":"음식점","subCategory":"한식","subSubCategory":"해물,생선"},"address":"제주특별자치도 서귀포시 성산읍 고성리 330-1","location":{"latitude":33.4479624107985,"longitude":126.91595872021},"score":3.2,"businessHours":{"businessHours":"10:30 ~ 17:00","closedDaySet":[]},"costPerPerson":-1,"spendingTime":{"hour":1.0,"standardDeviation":0.05},"isRestaurant":true},{"id":13316410,"name":"흑돼지고을","poiType":{"category":"음식점","subCategory":"한식","subSubCategory":"육류,고기"},"address":"제주특별자치도 서귀포시 표선면 표선리 40-38","location":{"latitude":33.32496193209223,"longitude":126.84369500447804},"score":4.1,"businessHours":{"businessHours":"10:30 ~ 17:00","closedDaySet":[]},"costPerPerson":-1,"spendingTime":{"hour":1.0,"standardDeviation":0.05},"isRestaurant":true},{"id":20151430,"name":"제주광해","poiType":{"category":"음식점","subCategory":"한식","subSubCategory":"해물,생선"},"address":"제주특별자치도 제주시 일도2동 71-9","location":{"latitude":33.499787863965,"longitude":126.545030515322},"score":3.0,"businessHours":{"businessHours":"09:30 ~ 21:00","closedDaySet":[]},"costPerPerson":-1,"spendingTime":{"hour":1.0,"standardDeviation":0.05},"isRestaurant":true},{"id":26927131,"name":"자매국수 노형점","poiType":{"category":"음식점","subCategory":"한식","subSubCategory":"국수"},"address":"제주특별자치도 제주시 노형동 1279-1","location":{"latitude":33.4878044020598,"longitude":126.478351132161},"score":3.2,"businessHours":{"businessHours":"08:00 ~ 03:00","closedDaySet":[]},"costPerPerson":-1,"spendingTime":{"hour":1.0,"standardDeviation":0.05},"isRestaurant":true},{"id":18311320,"name":"꽃밥","poiType":{"category":"음식점","subCategory":"한식","subSubCategory":""},"address":"제주특별자치도 제주시 애월읍 곽지리 1540-2","location":{"latitude":33.451512895917816,"longitude":126.30850175121691},"score":3.6,"businessHours":{"businessHours":"11:00 ~ 18:45","closedDaySet":["화요일"]},"costPerPerson":-1,"spendingTime":{"hour":1.0,"standardDeviation":0.05},"isRestaurant":true},{"id":284454194,"name":"로컬크랩","poiType":{"category":"음식점","subCategory":"양식","subSubCategory":"해산물"},"address":"제주특별자치도 제주시 구좌읍 김녕리 4213","location":{"latitude":33.558244360125684,"longitude":126.73455506321332},"score":4.5,"businessHours":{"businessHours":"10:30 ~ 17:00","closedDaySet":[]},"costPerPerson":-1,"spendingTime":{"hour":1.0,"standardDeviation":0.05},"isRestaurant":true},{"id":8204729,"name":"공천포식당","poiType":{"category":"음식점","subCategory":"한식","subSubCategory":"해물,생선"},"address":"제주특별자치도 서귀포시 남원읍 신례리 27-5","location":{"latitude":33.266389234367935,"longitude":126.64258567822804},"score":3.9,"businessHours":{"businessHours":"10:00 ~ 19:30","closedDaySet":["목요일"]},"costPerPerson":-1,"spendingTime":{"hour":1.0,"standardDeviation":0.05},"isRestaurant":true},{"id":8874256,"name":"낭뜰에쉼팡","poiType":{"category":"음식점","subCategory":"한식","subSubCategory":""},"address":"제주특별자치도 제주시 조천읍 와흘리 125","location":{"latitude":33.4735299531309,"longitude":126.657135607347},"score":3.7,"businessHours":{"businessHours":"09:00 ~ 19:50","closedDaySet":[]},"costPerPerson":-1,"spendingTime":{"hour":1.0,"standardDeviation":0.05},"isRestaurant":true},{"id":380750588,"name":"은혜전복","poiType":{"category":"음식점","subCategory":"한식","subSubCategory":"해물,생선"},"address":"제주특별자치도 제주시 애월읍 애월리 2528","location":{"latitude":33.46295783505239,"longitude":126.31016621428901},"score":5.0,"businessHours":{"businessHours":"10:00 ~ 20:00","closedDaySet":["둘째 수요일","넷째 수요일"]},"costPerPerson":-1,"spendingTime":{"hour":1.0,"standardDeviation":0.05},"isRestaurant":true},{"id":23463086,"name":"제주바다바다","poiType":{"category":"음식점","subCategory":"한식","subSubCategory":"해물,생선"},"address":"제주특별자치도 제주시 노형동 2519-22","location":{"latitude":33.481584011910826,"longitude":126.4727817530538},"score":4.2,"businessHours":{"businessHours":"17:00 ~ 22:00","closedDaySet":["월요일"]},"costPerPerson":-1,"spendingTime":{"hour":1.0,"standardDeviation":0.05},"isRestaurant":true},{"id":8687883,"name":"국수마당","poiType":{"category":"음식점","subCategory":"한식","subSubCategory":"국수"},"address":"제주특별자치도 서귀포시 표선면 표선리 624-2","location":{"latitude":33.32596558900861,"longitude":126.83348576079703},"score":4.0,"businessHours":{"businessHours":"10:30 ~ 17:00","closedDaySet":[]},"costPerPerson":-1,"spendingTime":{"hour":1.0,"standardDeviation":0.05},"isRestaurant":true},{"id":26429444,"name":"제주정지","poiType":{"category":"음식점","subCategory":"한식","subSubCategory":"해물,생선"},"address":"제주특별자치도 제주시 용담3동 2367-6","location":{"latitude":33.51896225157415,"longitude":126.49047837914785},"score":4.5,"businessHours":{"businessHours":"07:30 ~ 22:00","closedDaySet":[]},"costPerPerson":-1,"spendingTime":{"hour":1.0,"standardDeviation":0.05},"isRestaurant":true},{"id":27462641,"name":"옛날옛적","poiType":{"category":"음식점","subCategory":"한식","subSubCategory":"한정식"},"address":"제주특별자치도 서귀포시 성산읍 온평리 486-1","location":{"latitude":33.4143564392697,"longitude":126.900006411523},"score":3.6,"businessHours":{"businessHours":"11:00 ~ 20:30","closedDaySet":[]},"costPerPerson":-1,"spendingTime":{"hour":1.0,"standardDeviation":0.05},"isRestaurant":true},{"id":26982415,"name":"모구리","poiType":{"category":"음식점","subCategory":"한식","subSubCategory":"육류,고기"},"address":"제주특별자치도 서귀포시 성산읍 난산리 2968-16","location":{"latitude":33.4062860489174,"longitude":126.818207636069},"score":5.0,"businessHours":{"businessHours":"10:30 ~ 17:00","closedDaySet":[]},"costPerPerson":-1,"spendingTime":{"hour":1.0,"standardDeviation":0.05},"isRestaurant":true},{"id":22538448,"name":"해마루","poiType":{"category":"음식점","subCategory":"한식","subSubCategory":""},"address":"제주특별자치도 서귀포시 성산읍 고성리 236","location":{"latitude":33.44987393191208,"longitude":126.92114488586388},"score":3.7,"businessHours":{"businessHours":"09:00 ~ 21:00","closedDaySet":[]},"costPerPerson":-1,"spendingTime":{"hour":1.0,"standardDeviation":0.05},"isRestaurant":true},{"id":8026532,"name":"용출횟집","poiType":{"category":"음식점","subCategory":"한식","subSubCategory":"해물,생선"},"address":"제주특별자치도 제주시 용담3동 505","location":{"latitude":33.516220112387,"longitude":126.507728589866},"score":3.9,"businessHours":{"businessHours":"12:00 ~ 21:00","closedDaySet":[]},"costPerPerson":-1,"spendingTime":{"hour":1.0,"standardDeviation":0.05},"isRestaurant":true},{"id":9648399,"name":"해녀잠수촌","poiType":{"category":"음식점","subCategory":"한식","subSubCategory":"해물,생선"},"address":"제주특별자치도 제주시 용담3동 1020-1","location":{"latitude":33.5167621422891,"longitude":126.503480368423},"score":2.4,"businessHours":{"businessHours":"08:00 ~ 22:00","closedDaySet":[]},"costPerPerson":-1,"spendingTime":{"hour":1.0,"standardDeviation":0.05},"isRestaurant":true},{"id":10954053,"name":"가람돌솥밥","poiType":{"category":"음식점","subCategory":"한식","subSubCategory":""},"address":"제주특별자치도 서귀포시 대포동 747-3","location":{"latitude":33.2496491362282,"longitude":126.431285124288},"score":2.5,"businessHours":{"businessHours":"09:00 ~ 22:00","closedDaySet":[]},"costPerPerson":-1,"spendingTime":{"hour":1.0,"standardDeviation":0.05},"isRestaurant":true},{"id":8615207,"name":"해월정","poiType":{"category":"음식점","subCategory":"한식","subSubCategory":"국수"},"address":"제주특별자치도 제주시 구좌읍 종달리 608","location":{"latitude":33.49225578165504,"longitude":126.9096317143417},"score":3.0,"businessHours":{"businessHours":"08:30 ~ 17:00","closedDaySet":[]},"costPerPerson":-1,"spendingTime":{"hour":1.0,"standardDeviation":0.05},"isRestaurant":true},{"id":2097220773,"name":"반딧불한담","poiType":{"category":"음식점","subCategory":"퓨전요리","subSubCategory":""},"address":"제주특별자치도 제주시 애월읍 애월리 2527-12","location":{"latitude":33.46331725259,"longitude":126.31010539641},"score":1.5,"businessHours":{"businessHours":"09:30 ~ 21:00","closedDaySet":[]},"costPerPerson":-1,"spendingTime":{"hour":1.0,"standardDeviation":0.05},"isRestaurant":true},{"id":27070524,"name":"마리조아","poiType":{"category":"음식점","subCategory":"한식","subSubCategory":"육류,고기"},"address":"제주특별자치도 제주시 도련1동 1777-5","location":{"latitude":33.512507399319,"longitude":126.58937245064205},"score":5.0,"businessHours":{"businessHours":"10:30 ~ 10:00","closedDaySet":[]},"costPerPerson":-1,"spendingTime":{"hour":1.0,"standardDeviation":0.05},"isRestaurant":true},{"id":26890291,"name":"장수애섬식당","poiType":{"category":"음식점","subCategory":"한식","subSubCategory":"해물,생선"},"address":"제주특별자치도 서귀포시 서귀동 644-11","location":{"latitude":33.2423994933361,"longitude":126.563188577841},"score":5.0,"businessHours":{"businessHours":"10:30 ~ 21:00","closedDaySet":[]},"costPerPerson":-1,"spendingTime":{"hour":1.0,"standardDeviation":0.05},"isRestaurant":true},{"id":7957911,"name":"솔향","poiType":{"category":"음식점","subCategory":"한식","subSubCategory":"육류,고기"},"address":"제주특별자치도 제주시 애월읍 곽지리 1380","location":{"latitude":33.456654065714,"longitude":126.309048154989},"score":4.4,"businessHours":{"businessHours":"11:00 ~ 22:00","closedDaySet":[]},"costPerPerson":-1,"spendingTime":{"hour":1.0,"standardDeviation":0.05},"isRestaurant":true},{"id":22377574,"name":"하얀성더돈","poiType":{"category":"음식점","subCategory":"한식","subSubCategory":"육류,고기"},"address":"제주특별자치도 제주시 애월읍 신엄리 989-2","location":{"latitude":33.4780129471527,"longitude":126.366841939937},"score":3.4,"businessHours":{"businessHours":"11:00 ~ 23:00","closedDaySet":[]},"costPerPerson":-1,"spendingTime":{"hour":1.0,"standardDeviation":0.05},"isRestaurant":true},{"id":25737267,"name":"숲애","poiType":{"category":"음식점","subCategory":"한식","subSubCategory":""},"address":"제주특별자치도 제주시 조천읍 교래리 296","location":{"latitude":33.4300995297177,"longitude":126.673810088527},"score":5.0,"businessHours":{"businessHours":"10:00 ~ 19:00","closedDaySet":["넷째 화요일","둘째 화요일"]},"costPerPerson":-1,"spendingTime":{"hour":1.0,"standardDeviation":0.05},"isRestaurant":true},{"id":12640510,"name":"삼무국수","poiType":{"category":"음식점","subCategory":"한식","subSubCategory":"국수"},"address":"제주특별자치도 제주시 연동 271-10","location":{"latitude":33.4905616413749,"longitude":126.490967206434},"score":4.8,"businessHours":{"businessHours":"08:30 ~ 23:00","closedDaySet":["둘째 수요일","넷째 수요일"]},"costPerPerson":-1,"spendingTime":{"hour":1.0,"standardDeviation":0.05},"isRestaurant":true},{"id":844447638,"name":"연북로해물탕","poiType":{"category":"음식점","subCategory":"한식","subSubCategory":"해물,생선"},"address":"제주특별자치도 제주시 오라2동 3100-3","location":{"latitude":33.481815256403856,"longitude":126.5051654965041},"score":4.5,"businessHours":{"businessHours":"11:30 ~ 21:30","closedDaySet":[]},"costPerPerson":-1,"spendingTime":{"hour":1.0,"standardDeviation":0.05},"isRestaurant":true},{"id":810359184,"name":"뚱이랑","poiType":{"category":"음식점","subCategory":"분식","subSubCategory":""},"address":"제주특별자치도 제주시 구좌읍 김녕리 1206-4","location":{"latitude":33.55580484073668,"longitude":126.75463931110724},"score":5.0,"businessHours":{"businessHours":"10:30 ~ 17:00","closedDaySet":[]},"costPerPerson":-1,"spendingTime":{"hour":1.0,"standardDeviation":0.05},"isRestaurant":true},{"id":12810503,"name":"착한전복 제주중문점","poiType":{"category":"음식점","subCategory":"한식","subSubCategory":"해물,생선"},"address":"제주특별자치도 서귀포시 색달동 2481-10","location":{"latitude":33.2546667612253,"longitude":126.418246332203},"score":2.6,"businessHours":{"businessHours":"11:00 ~ 22:00","closedDaySet":[]},"costPerPerson":-1,"spendingTime":{"hour":1.0,"standardDeviation":0.05},"isRestaurant":true},{"id":9812307,"name":"삼원정","poiType":{"category":"음식점","subCategory":"한식","subSubCategory":""},"address":"제주특별자치도 서귀포시 색달동 2282","location":{"latitude":33.2576803531843,"longitude":126.414101123781},"score":3.9,"businessHours":{"businessHours":"09:00 ~ 22:00","closedDaySet":[]},"costPerPerson":-1,"spendingTime":{"hour":1.0,"standardDeviation":0.05},"isRestaurant":true},{"id":24937583,"name":"천해천","poiType":{"category":"음식점","subCategory":"샤브샤브","subSubCategory":""},"address":"제주특별자치도 제주시 노형동 3813","location":{"latitude":33.47921421183955,"longitude":126.47437554411765},"score":4.2,"businessHours":{"businessHours":"11:00 ~ 21:30","closedDaySet":[]},"costPerPerson":-1,"spendingTime":{"hour":1.0,"standardDeviation":0.05},"isRestaurant":true},{"id":20034726,"name":"성산바다","poiType":{"category":"음식점","subCategory":"한식","subSubCategory":"해물,생선"},"address":"제주특별자치도 서귀포시 성산읍 고성리 864-1","location":{"latitude":33.4358535649592,"longitude":126.913066889813},"score":4.3,"businessHours":{"businessHours":"09:00 ~ 21:00","closedDaySet":[]},"costPerPerson":-1,"spendingTime":{"hour":1.0,"standardDeviation":0.05},"isRestaurant":true},{"id":11594022,"name":"청진동뚝배기","poiType":{"category":"음식점","subCategory":"한식","subSubCategory":"해물,생선"},"address":"제주특별자치도 서귀포시 성산읍 성산리 158-4","location":{"latitude":33.462327494056964,"longitude":126.9342439827713},"score":3.0,"businessHours":{"businessHours":"10:00 ~ 20:00","closedDaySet":["둘째 수요일"]},"costPerPerson":-1,"spendingTime":{"hour":1.0,"standardDeviation":0.05},"isRestaurant":true},{"id":8448342,"name":"수희식당","poiType":{"category":"음식점","subCategory":"한식","subSubCategory":""},"address":"제주특별자치도 서귀포시 서귀동 447","location":{"latitude":33.2454727795697,"longitude":126.561289063418},"score":3.4,"businessHours":{"businessHours":"08:00 ~ 21:00","closedDaySet":["설연휴","추석연휴"]},"costPerPerson":-1,"spendingTime":{"hour":1.0,"standardDeviation":0.05},"isRestaurant":true},{"id":8217963,"name":"다미진횟집","poiType":{"category":"음식점","subCategory":"한식","subSubCategory":"해물,생선"},"address":"제주특별자치도 서귀포시 표선면 표선리 40-51","location":{"latitude":33.3251030257766,"longitude":126.84402800587},"score":3.3,"businessHours":{"businessHours":"11:30 ~ 23:30","closedDaySet":[]},"costPerPerson":-1,"spendingTime":{"hour":1.0,"standardDeviation":0.05},"isRestaurant":true},{"id":2130513640,"name":"광치기 흑돼지정육식당","poiType":{"category":"음식점","subCategory":"한식","subSubCategory":"육류,고기"},"address":"제주특별자치도 서귀포시 성산읍 고성리 235","location":{"latitude":33.45002566008067,"longitude":126.92154484803011},"score":3.7,"businessHours":{"businessHours":"11:00 ~ 22:00","closedDaySet":[]},"costPerPerson":-1,"spendingTime":{"hour":1.0,"standardDeviation":0.05},"isRestaurant":true},{"id":11188530,"name":"용연횟집","poiType":{"category":"음식점","subCategory":"한식","subSubCategory":"해물,생선"},"address":"제주특별자치도 제주시 용담1동 408","location":{"latitude":33.516512762388,"longitude":126.515179608334},"score":3.9,"businessHours":{"businessHours":"11:00 ~ 23:00","closedDaySet":[]},"costPerPerson":-1,"spendingTime":{"hour":1.0,"standardDeviation":0.05},"isRestaurant":true},{"id":17177319,"name":"불난디깡통구이","poiType":{"category":"음식점","subCategory":"한식","subSubCategory":"육류,고기"},"address":"제주특별자치도 제주시 이도1동 1271-9","location":{"latitude":33.50592736047625,"longitude":126.52822261098333},"score":4.3,"businessHours":{"businessHours":"16:00 ~ 24:00","closedDaySet":[]},"costPerPerson":-1,"spendingTime":{"hour":1.0,"standardDeviation":0.05},"isRestaurant":true},{"id":13332138,"name":"아루요","poiType":{"category":"음식점","subCategory":"일식","subSubCategory":""},"address":"제주특별자치도 제주시 애월읍 유수암리 1040-5","location":{"latitude":33.42376725669859,"longitude":126.40527875997509},"score":2.8,"businessHours":{"businessHours":"11:30 ~ 20:00","closedDaySet":["일요일","공휴일"]},"costPerPerson":-1,"spendingTime":{"hour":1.0,"standardDeviation":0.05},"isRestaurant":true},{"id":24513366,"name":"흑돼지삼형제","poiType":{"category":"음식점","subCategory":"한식","subSubCategory":"육류,고기"},"address":"제주특별자치도 서귀포시 표선면 표선리 44-9","location":{"latitude":33.3254544065554,"longitude":126.84242678752965},"score":4.5,"businessHours":{"businessHours":"09:00 ~ 22:00","closedDaySet":[]},"costPerPerson":-1,"spendingTime":{"hour":1.0,"standardDeviation":0.05},"isRestaurant":true},{"id":17705710,"name":"어애랑","poiType":{"category":"음식점","subCategory":"한식","subSubCategory":"해물,생선"},"address":"제주특별자치도 제주시 한림읍 협재리 1510","location":{"latitude":33.39894740661821,"longitude":126.24675678529191},"score":4.9,"businessHours":{"businessHours":"07:30 ~ 21:00","closedDaySet":[]},"costPerPerson":-1,"spendingTime":{"hour":1.0,"standardDeviation":0.05},"isRestaurant":true},{"id":26202989,"name":"후거키친","poiType":{"category":"음식점","subCategory":"양식","subSubCategory":""},"address":"제주특별자치도 제주시 애월읍 하귀1리 379-1","location":{"latitude":33.4893455970896,"longitude":126.411792615674},"score":3.3,"businessHours":{"businessHours":"11:00 ~ 22:00","closedDaySet":["수요일"]},"costPerPerson":-1,"spendingTime":{"hour":1.0,"standardDeviation":0.05},"isRestaurant":true},{"id":19180292,"name":"나원횟집","poiType":{"category":"음식점","subCategory":"한식","subSubCategory":"해물,생선"},"address":"제주특별자치도 서귀포시 서귀동 254-6","location":{"latitude":33.24971855045049,"longitude":126.567457175248},"score":5.0,"businessHours":{"businessHours":"17:00 ~ 04:00","closedDaySet":[]},"costPerPerson":-1,"spendingTime":{"hour":1.0,"standardDeviation":0.05},"isRestaurant":true},{"id":11892377,"name":"큰갯물횟집","poiType":{"category":"음식점","subCategory":"한식","subSubCategory":"해물,생선"},"address":"제주특별자치도 서귀포시 대포동 2070","location":{"latitude":33.23940864026174,"longitude":126.43815011413965},"score":3.3,"businessHours":{"businessHours":"10:30 ~ 17:00","closedDaySet":[]},"costPerPerson":-1,"spendingTime":{"hour":1.0,"standardDeviation":0.05},"isRestaurant":true},{"id":24334148,"name":"풍원","poiType":{"category":"음식점","subCategory":"한식","subSubCategory":""},"address":"제주특별자치도 제주시 우도면 연평리 2427-1","location":{"latitude":33.508306905251345,"longitude":126.94398958765953},"score":3.4,"businessHours":{"businessHours":"09:00 ~ 18:00","closedDaySet":[]},"costPerPerson":-1,"spendingTime":{"hour":1.0,"standardDeviation":0.05},"isRestaurant":true},{"id":19065619,"name":"어머니와고등어 본점","poiType":{"category":"음식점","subCategory":"한식","subSubCategory":"해물,생선"},"address":"제주특별자치도 제주시 도두1동 1705-2","location":{"latitude":33.506235346996846,"longitude":126.47324324214206},"score":3.3,"businessHours":{"businessHours":"08:00 ~ 21:00","closedDaySet":[]},"costPerPerson":-1,"spendingTime":{"hour":1.0,"standardDeviation":0.05},"isRestaurant":true},{"id":24119106,"name":"태광식당","poiType":{"category":"음식점","subCategory":"한식","subSubCategory":"해물,생선"},"address":"제주특별자치도 제주시 용담1동 119","location":{"latitude":33.51262766127405,"longitude":126.51879648871406},"score":4.0,"businessHours":{"businessHours":"11:30 ~ 22:00","closedDaySet":["일요일"]},"costPerPerson":-1,"spendingTime":{"hour":1.0,"standardDeviation":0.05},"isRestaurant":true},{"id":12974776,"name":"산방산초가집","poiType":{"category":"음식점","subCategory":"한식","subSubCategory":""},"address":"제주특별자치도 서귀포시 안덕면 화순리 421-1","location":{"latitude":33.2454802462602,"longitude":126.338702729046},"score":4.4,"businessHours":{"businessHours":"10:00 ~ 21:00","closedDaySet":["첫째 수요일","셋째 수요일"]},"costPerPerson":-1,"spendingTime":{"hour":1.0,"standardDeviation":0.05},"isRestaurant":true},{"id":14683864,"name":"산지물 신제주점","poiType":{"category":"음식점","subCategory":"한식","subSubCategory":"해물,생선"},"address":"제주특별자치도 제주시 연동 271-9","location":{"latitude":33.4907817835863,"longitude":126.491004655607},"score":4.3,"businessHours":{"businessHours":"10:30 ~ 17:00","closedDaySet":[]},"costPerPerson":-1,"spendingTime":{"hour":1.0,"standardDeviation":0.05},"isRestaurant":true},{"id":8268353,"name":"돔베돈","poiType":{"category":"음식점","subCategory":"한식","subSubCategory":"육류,고기"},"address":"제주특별자치도 제주시 건입동 1399-3","location":{"latitude":33.5155870792765,"longitude":126.526667201739},"score":3.4,"businessHours":{"businessHours":"12:00 ~ 02:00","closedDaySet":[]},"costPerPerson":-1,"spendingTime":{"hour":1.0,"standardDeviation":0.05},"isRestaurant":true},{"id":11170411,"name":"장수물식당","poiType":{"category":"음식점","subCategory":"한식","subSubCategory":"국수"},"address":"제주특별자치도 제주시 연동 310-79","location":{"latitude":33.49191549525329,"longitude":126.49861289588591},"score":3.9,"businessHours":{"businessHours":"10:00 ~ 19:30","closedDaySet":["둘째 화요일"]},"costPerPerson":-1,"spendingTime":{"hour":1.0,"standardDeviation":0.05},"isRestaurant":true},{"id":9818773,"name":"백양닭집","poiType":{"category":"음식점","subCategory":"치킨","subSubCategory":""},"address":"제주특별자치도 제주시 용담1동 157-6","location":{"latitude":33.51135005335557,"longitude":126.51854957707415},"score":1.5,"businessHours":{"businessHours":"08:30 ~ 19:30","closedDaySet":[]},"costPerPerson":-1,"spendingTime":{"hour":1.0,"standardDeviation":0.05},"isRestaurant":true},{"id":17910545,"name":"제주흑돈세상수라간 본점","poiType":{"category":"음식점","subCategory":"한식","subSubCategory":"육류,고기"},"address":"제주특별자치도 서귀포시 서홍동 265-1","location":{"latitude":33.26395451002703,"longitude":126.55653845217526},"score":4.6,"businessHours":{"businessHours":"12:00 ~ 22:00","closedDaySet":["둘째 수요일","넷째 수요일"]},"costPerPerson":-1,"spendingTime":{"hour":1.0,"standardDeviation":0.05},"isRestaurant":true},{"id":21931852,"name":"경미휴게소","poiType":{"category":"음식점","subCategory":"한식","subSubCategory":"해물,생선"},"address":"제주특별자치도 서귀포시 성산읍 성산리 145-4","location":{"latitude":33.46122347412817,"longitude":126.93341010512097},"score":2.7,"businessHours":{"businessHours":"05:00 ~ 18:30","closedDaySet":[]},"costPerPerson":-1,"spendingTime":{"hour":1.0,"standardDeviation":0.05},"isRestaurant":true},{"id":7875124,"name":"물항식당 본점","poiType":{"category":"음식점","subCategory":"한식","subSubCategory":"해물,생선"},"address":"제주특별자치도 제주시 건입동 1319-14","location":{"latitude":33.51690836767581,"longitude":126.52908420484432},"score":3.4,"businessHours":{"businessHours":"08:00 ~ 21:00","closedDaySet":["화요일","넷째 화요일","둘째 화요일"]},"costPerPerson":-1,"spendingTime":{"hour":1.0,"standardDeviation":0.05},"isRestaurant":true},{"id":24335167,"name":"조개까는날","poiType":{"category":"음식점","subCategory":"한식","subSubCategory":"해물,생선"},"address":"제주특별자치도 서귀포시 서귀동 326-27","location":{"latitude":33.25033279046571,"longitude":126.5585690561951},"score":2.3,"businessHours":{"businessHours":"11:00 ~ 23:00","closedDaySet":["첫째 화요일","셋째 화요일"]},"costPerPerson":-1,"spendingTime":{"hour":1.0,"standardDeviation":0.05},"isRestaurant":true},{"id":24910644,"name":"수우동","poiType":{"category":"음식점","subCategory":"일식","subSubCategory":"돈까스,우동"},"address":"제주특별자치도 제주시 한림읍 협재리 1706-1","location":{"latitude":33.3966233802686,"longitude":126.242439755379},"score":3.2,"businessHours":{"businessHours":"11:00 ~ 15:30","closedDaySet":["화요일"]},"costPerPerson":-1,"spendingTime":{"hour":1.0,"standardDeviation":0.05},"isRestaurant":true},{"id":8214067,"name":"규태네양곱창 본점","poiType":{"category":"음식점","subCategory":"한식","subSubCategory":"육류,고기"},"address":"제주특별자치도 제주시 노형동 917-10","location":{"latitude":33.4862281727332,"longitude":126.486060276427},"score":4.8,"businessHours":{"businessHours":"16:00 ~ 01:00","closedDaySet":["넷째 일요일","둘째 일요일"]},"costPerPerson":-1,"spendingTime":{"hour":1.0,"standardDeviation":0.05},"isRestaurant":true},{"id":10333833,"name":"물질식육식당","poiType":{"category":"음식점","subCategory":"한식","subSubCategory":"해물,생선"},"address":"제주특별자치도 서귀포시 강정동 4521-8","location":{"latitude":33.2353653381333,"longitude":126.480271465726},"score":2.9,"businessHours":{"businessHours":"10:30 ~ 15:00","closedDaySet":["일요일"]},"costPerPerson":-1,"spendingTime":{"hour":1.0,"standardDeviation":0.05},"isRestaurant":true},{"id":10447497,"name":"사계바다","poiType":{"category":"음식점","subCategory":"한식","subSubCategory":"해물,생선"},"address":"제주특별자치도 서귀포시 안덕면 사계리 2147-13","location":{"latitude":33.2278741425682,"longitude":126.303797931935},"score":3.8,"businessHours":{"businessHours":"10:30 ~ 17:00","closedDaySet":[]},"costPerPerson":-1,"spendingTime":{"hour":1.0,"standardDeviation":0.05},"isRestaurant":true},{"id":9982608,"name":"만덕이네","poiType":{"category":"음식점","subCategory":"한식","subSubCategory":"육류,고기"},"address":"제주특별자치도 서귀포시 표선면 성읍리 1623-3","location":{"latitude":33.39334064576098,"longitude":126.80108530106813},"score":3.0,"businessHours":{"businessHours":"10:30 ~ 17:00","closedDaySet":[]},"costPerPerson":-1,"spendingTime":{"hour":1.0,"standardDeviation":0.05},"isRestaurant":true},{"id":14491336,"name":"산지물 본점","poiType":{"category":"음식점","subCategory":"한식","subSubCategory":"해물,생선"},"address":"제주특별자치도 제주시 건입동 1388-1","location":{"latitude":33.51630366043478,"longitude":126.5274988011771},"score":3.1,"businessHours":{"businessHours":"08:00 ~ 23:00","closedDaySet":[]},"costPerPerson":-1,"spendingTime":{"hour":1.0,"standardDeviation":0.05},"isRestaurant":true},{"id":7997989,"name":"어우늘","poiType":{"category":"음식점","subCategory":"한식","subSubCategory":"해물,생선"},"address":"제주특별자치도 제주시 오라2동 3103-1","location":{"latitude":33.4810688184608,"longitude":126.505001019494},"score":4.4,"businessHours":{"businessHours":"11:00 ~ 21:00","closedDaySet":["일요일","화요일","추석당일","추석전날","설당일","설전날"]},"costPerPerson":-1,"spendingTime":{"hour":1.0,"standardDeviation":0.05},"isRestaurant":true},{"id":23319358,"name":"산포식당","poiType":{"category":"음식점","subCategory":"한식","subSubCategory":"해물,생선"},"address":"제주특별자치도 서귀포시 성산읍 고성리 2129-1","location":{"latitude":33.4451228716323,"longitude":126.89970010356},"score":3.8,"businessHours":{"businessHours":"10:30 ~ 17:00","closedDaySet":[]},"costPerPerson":-1,"spendingTime":{"hour":1.0,"standardDeviation":0.05},"isRestaurant":true},{"id":12397273,"name":"상춘재","poiType":{"category":"음식점","subCategory":"한식","subSubCategory":"해물,생선"},"address":"제주특별자치도 제주시 조천읍 선흘리 1829-11","location":{"latitude":33.45868016826317,"longitude":126.70474666714892},"score":5.0,"businessHours":{"businessHours":"10:30 ~ 17:00","closedDaySet":["월요일"]},"costPerPerson":-1,"spendingTime":{"hour":1.0,"standardDeviation":0.05},"isRestaurant":true},{"id":9251493,"name":"연정식당","poiType":{"category":"음식점","subCategory":"한식","subSubCategory":""},"address":"제주특별자치도 제주시 연동 256","location":{"latitude":33.4837678651428,"longitude":126.486746198323},"score":2.8,"businessHours":{"businessHours":"09:00 ~ 22:00","closedDaySet":["첫째 일요일","셋째 일요일"]},"costPerPerson":-1,"spendingTime":{"hour":1.0,"standardDeviation":0.05},"isRestaurant":true},{"id":300984218,"name":"스시권","poiType":{"category":"음식점","subCategory":"일식","subSubCategory":"초밥,롤"},"address":"제주특별자치도 제주시 노형동 1287-3","location":{"latitude":33.48541402978769,"longitude":126.47789728550134},"score":5.0,"businessHours":{"businessHours":"11:30 ~ 22:00","closedDaySet":["화요일"]},"costPerPerson":-1,"spendingTime":{"hour":1.0,"standardDeviation":0.05},"isRestaurant":true},{"id":7919123,"name":"살아있는 삼성혈해물탕","poiType":{"category":"음식점","subCategory":"한식","subSubCategory":"해물,생선"},"address":"제주특별자치도 제주시 연동 312-27","location":{"latitude":33.4879754012046,"longitude":126.499706544843},"score":3.5,"businessHours":{"businessHours":"09:00 ~ 22:30","closedDaySet":[]},"costPerPerson":-1,"spendingTime":{"hour":1.0,"standardDeviation":0.05},"isRestaurant":true},{"id":25047828,"name":"우정회센타","poiType":{"category":"음식점","subCategory":"한식","subSubCategory":"해물,생선"},"address":"제주특별자치도 서귀포시 서귀동 276-20","location":{"latitude":33.2496523261679,"longitude":126.563221175501},"score":2.5,"businessHours":{"businessHours":"11:00 ~ 20:30","closedDaySet":[]},"costPerPerson":-1,"spendingTime":{"hour":1.0,"standardDeviation":0.05},"isRestaurant":true},{"id":10912458,"name":"해원앙","poiType":{"category":"음식점","subCategory":"한식","subSubCategory":"한정식"},"address":"제주특별자치도 제주시 이도2동 387-2","location":{"latitude":33.49855013872968,"longitude":126.53909720501323},"score":3.1,"businessHours":{"businessHours":"10:30 ~ 17:00","closedDaySet":[]},"costPerPerson":-1,"spendingTime":{"hour":1.0,"standardDeviation":0.05},"isRestaurant":true},{"id":11486940,"name":"삼보식당","poiType":{"category":"음식점","subCategory":"한식","subSubCategory":"해물,생선"},"address":"제주특별자치도 서귀포시 서귀동 319-8","location":{"latitude":33.247669371531224,"longitude":126.5590717947419},"score":2.3,"businessHours":{"businessHours":"08:00 ~ 21:00","closedDaySet":[]},"costPerPerson":-1,"spendingTime":{"hour":1.0,"standardDeviation":0.05},"isRestaurant":true},{"id":19224401,"name":"광평도새기촌 본점","poiType":{"category":"음식점","subCategory":"한식","subSubCategory":"육류,고기"},"address":"제주특별자치도 제주시 이도2동 2007-4","location":{"latitude":33.4895490918182,"longitude":126.538132961092},"score":4.0,"businessHours":{"businessHours":"10:30 ~ 17:00","closedDaySet":[]},"costPerPerson":-1,"spendingTime":{"hour":1.0,"standardDeviation":0.05},"isRestaurant":true},{"id":1258744113,"name":"중문칠돈가","poiType":{"category":"음식점","subCategory":"한식","subSubCategory":"육류,고기"},"address":"제주특별자치도 서귀포시 색달동 2312-1","location":{"latitude":33.25747566509502,"longitude":126.41444196528224},"score":3.1,"businessHours":{"businessHours":"10:30 ~ 17:00","closedDaySet":[]},"costPerPerson":-1,"spendingTime":{"hour":1.0,"standardDeviation":0.05},"isRestaurant":true},{"id":10437289,"name":"산방식당","poiType":{"category":"음식점","subCategory":"한식","subSubCategory":"냉면"},"address":"제주특별자치도 서귀포시 대정읍 하모리 864-3","location":{"latitude":33.22346234338622,"longitude":126.25421411987898},"score":4.0,"businessHours":{"businessHours":"11:00 ~ 18:00","closedDaySet":["설연휴","추석연휴"]},"costPerPerson":-1,"spendingTime":{"hour":1.0,"standardDeviation":0.05},"isRestaurant":true},{"id":14719640,"name":"저팔계깡통연탄구이","poiType":{"category":"음식점","subCategory":"한식","subSubCategory":"육류,고기"},"address":"제주특별자치도 제주시 조천읍 함덕리 1271","location":{"latitude":33.541721145000096,"longitude":126.66670233174179},"score":3.3,"businessHours":{"businessHours":"10:30 ~ 17:00","closedDaySet":[]},"costPerPerson":-1,"spendingTime":{"hour":1.0,"standardDeviation":0.05},"isRestaurant":true},{"id":12501703,"name":"천짓골","poiType":{"category":"음식점","subCategory":"한식","subSubCategory":"육류,고기"},"address":"제주특별자치도 서귀포시 서귀동 294-10","location":{"latitude":33.248218117592025,"longitude":126.5612623487113},"score":3.7,"businessHours":{"businessHours":"18:00 ~ 22:00","closedDaySet":["일요일"]},"costPerPerson":-1,"spendingTime":{"hour":1.0,"standardDeviation":0.05},"isRestaurant":true},{"id":23166746,"name":"제주흑돼지와전복","poiType":{"category":"음식점","subCategory":"한식","subSubCategory":"육류,고기"},"address":"제주특별자치도 서귀포시 대포동 2211","location":{"latitude":33.23953474159646,"longitude":126.44211917511663},"score":3.7,"businessHours":{"businessHours":"12:00 ~ 22:00","closedDaySet":[]},"costPerPerson":-1,"spendingTime":{"hour":1.0,"standardDeviation":0.05},"isRestaurant":true},{"id":12787321,"name":"성산진미식당","poiType":{"category":"음식점","subCategory":"한식","subSubCategory":"해물,생선"},"address":"제주특별자치도 서귀포시 성산읍 성산리 204","location":{"latitude":33.4634528005261,"longitude":126.935181825394},"score":3.7,"businessHours":{"businessHours":"10:30 ~ 17:00","closedDaySet":[]},"costPerPerson":-1,"spendingTime":{"hour":1.0,"standardDeviation":0.05},"isRestaurant":true},{"id":11092691,"name":"해녀와바다","poiType":{"category":"음식점","subCategory":"한식","subSubCategory":"해물,생선"},"address":"제주특별자치도 제주시 도두1동 2635-1","location":{"latitude":33.5064410064123,"longitude":126.465410722828},"score":3.1,"businessHours":{"businessHours":"10:00 ~ 22:00","closedDaySet":[]},"costPerPerson":-1,"spendingTime":{"hour":1.0,"standardDeviation":0.05},"isRestaurant":true},{"id":811614689,"name":"함덕찜","poiType":{"category":"음식점","subCategory":"한식","subSubCategory":"해물,생선"},"address":"제주특별자치도 제주시 조천읍 함덕리 955-8","location":{"latitude":33.541694267478356,"longitude":126.67282653317423},"score":4.2,"businessHours":{"businessHours":"12:00 ~ 22:00","closedDaySet":["화요일"]},"costPerPerson":-1,"spendingTime":{"hour":1.0,"standardDeviation":0.05},"isRestaurant":true},{"id":2028723819,"name":"신우성흑돼지","poiType":{"category":"음식점","subCategory":"한식","subSubCategory":"한정식"},"address":"제주특별자치도 서귀포시 색달동 2822-2","location":{"latitude":33.249682908344504,"longitude":126.41156675140387},"score":4.0,"businessHours":{"businessHours":"10:30 ~ 17:00","closedDaySet":[]},"costPerPerson":-1,"spendingTime":{"hour":1.0,"standardDeviation":0.05},"isRestaurant":true},{"id":1580890176,"name":"고집돌우럭 중문점","poiType":{"category":"음식점","subCategory":"한식","subSubCategory":""},"address":"제주특별자치도 서귀포시 색달동 2351","location":{"latitude":33.2579811121134,"longitude":126.416704762779},"score":5.0,"businessHours":{"businessHours":"10:00 ~ 21:00","closedDaySet":[]},"costPerPerson":-1,"spendingTime":{"hour":1.0,"standardDeviation":0.05},"isRestaurant":true},{"id":10915490,"name":"해오름식당","poiType":{"category":"음식점","subCategory":"한식","subSubCategory":"육류,고기"},"address":"제주특별자치도 제주시 도두1동 1181-5","location":{"latitude":33.4949531552069,"longitude":126.476009747293},"score":4.2,"businessHours":{"businessHours":"10:30 ~ 22:30","closedDaySet":["첫째 화요일","셋째 화요일"]},"costPerPerson":-1,"spendingTime":{"hour":1.0,"standardDeviation":0.05},"isRestaurant":true},{"id":18212691,"name":"돈가마을","poiType":{"category":"음식점","subCategory":"한식","subSubCategory":"육류,고기"},"address":"제주특별자치도 서귀포시 회수동 973-2","location":{"latitude":33.2550968503103,"longitude":126.43725507941},"score":3.0,"businessHours":{"businessHours":"12:00 ~ 22:00","closedDaySet":[]},"costPerPerson":-1,"spendingTime":{"hour":1.0,"standardDeviation":0.05},"isRestaurant":true},{"id":24265468,"name":"동문올레식당","poiType":{"category":"음식점","subCategory":"한식","subSubCategory":"해물,생선"},"address":"제주특별자치도 제주시 이도1동 1349-5","location":{"latitude":33.51230304969379,"longitude":126.52625057727452},"score":5.0,"businessHours":{"businessHours":"09:00 ~ 22:00","closedDaySet":[]},"costPerPerson":-1,"spendingTime":{"hour":1.0,"standardDeviation":0.05},"isRestaurant":true},{"id":21499653,"name":"은희네소고기해장국 본점","poiType":{"category":"음식점","subCategory":"한식","subSubCategory":"해장국"},"address":"제주특별자치도 제주시 일도2동 357-4","location":{"latitude":33.50852777799752,"longitude":126.54072742265255},"score":4.6,"businessHours":{"businessHours":"06:00 ~ 14:00","closedDaySet":["목요일"]},"costPerPerson":-1,"spendingTime":{"hour":1.0,"standardDeviation":0.05},"isRestaurant":true},{"id":10305235,"name":"덤장","poiType":{"category":"음식점","subCategory":"한식","subSubCategory":""},"address":"제주특별자치도 제주시 용담2동 731","location":{"latitude":33.5039549131465,"longitude":126.501422638997},"score":3.7,"businessHours":{"businessHours":"08:00 ~ 21:00","closedDaySet":[]},"costPerPerson":-1,"spendingTime":{"hour":1.0,"standardDeviation":0.05},"isRestaurant":true},{"id":8608467,"name":"해심가든","poiType":{"category":"음식점","subCategory":"한식","subSubCategory":"육류,고기"},"address":"제주특별자치도 서귀포시 중문동 2018-8","location":{"latitude":33.25192044470256,"longitude":126.4265277298777},"score":3.0,"businessHours":{"businessHours":"15:00 ~ 20:30","closedDaySet":[]},"costPerPerson":-1,"spendingTime":{"hour":1.0,"standardDeviation":0.05},"isRestaurant":true},{"id":11417273,"name":"다가미","poiType":{"category":"음식점","subCategory":"분식","subSubCategory":""},"address":"제주특별자치도 제주시 도남동 68-2","location":{"latitude":33.49042534398836,"longitude":126.528668473574},"score":3.8,"businessHours":{"businessHours":"06:30 ~ 15:00","closedDaySet":["일요일"]},"costPerPerson":-1,"spendingTime":{"hour":1.0,"standardDeviation":0.05},"isRestaurant":true},{"id":24506094,"name":"짬뽕에취한날","poiType":{"category":"음식점","subCategory":"중식","subSubCategory":"중화요리"},"address":"제주특별자치도 제주시 연동 311-21","location":{"latitude":33.49118742026539,"longitude":126.49782514131292},"score":2.6,"businessHours":{"businessHours":"11:00 ~ 20:30","closedDaySet":["일요일"]},"costPerPerson":-1,"spendingTime":{"hour":1.0,"standardDeviation":0.05},"isRestaurant":true},{"id":26908614,"name":"거멍국수","poiType":{"category":"음식점","subCategory":"한식","subSubCategory":"국수"},"address":"제주특별자치도 서귀포시 안덕면 사계리 522-1","location":{"latitude":33.244375321719076,"longitude":126.30441067196145},"score":3.2,"businessHours":{"businessHours":"08:00 ~ 21:00","closedDaySet":[]},"costPerPerson":-1,"spendingTime":{"hour":1.0,"standardDeviation":0.05},"isRestaurant":true},{"id":17079132,"name":"중문신라원","poiType":{"category":"음식점","subCategory":"한식","subSubCategory":"육류,고기"},"address":"제주특별자치도 서귀포시 색달동 2480-4","location":{"latitude":33.254856058185,"longitude":126.417081807187},"score":3.8,"businessHours":{"businessHours":"09:30 ~ 22:00","closedDaySet":[]},"costPerPerson":-1,"spendingTime":{"hour":1.0,"standardDeviation":0.05},"isRestaurant":true},{"id":27465479,"name":"슬슬슬로우","poiType":{"category":"음식점","subCategory":"한식","subSubCategory":""},"address":"제주특별자치도 제주시 구좌읍 행원리 1482","location":{"latitude":33.55625488176886,"longitude":126.80683531688709},"score":4.0,"businessHours":{"businessHours":"11:30 ~ 18:30","closedDaySet":[]},"costPerPerson":-1,"spendingTime":{"hour":1.0,"standardDeviation":0.05},"isRestaurant":true},{"id":8541672,"name":"천제연토속음식점","poiType":{"category":"음식점","subCategory":"한식","subSubCategory":""},"address":"제주특별자치도 서귀포시 색달동 2539","location":{"latitude":33.2567918730645,"longitude":126.410775993489},"score":3.3,"businessHours":{"businessHours":"08:00 ~ 22:00","closedDaySet":[]},"costPerPerson":-1,"spendingTime":{"hour":1.0,"standardDeviation":0.05},"isRestaurant":true},{"id":15225413,"name":"대포해송횟집","poiType":{"category":"음식점","subCategory":"한식","subSubCategory":"해물,생선"},"address":"제주특별자치도 서귀포시 대포동 2356-1","location":{"latitude":33.239032913863866,"longitude":126.44280475449048},"score":3.5,"businessHours":{"businessHours":"12:00 ~ 22:30","closedDaySet":[]},"costPerPerson":-1,"spendingTime":{"hour":1.0,"standardDeviation":0.05},"isRestaurant":true},{"id":17599331,"name":"바다풍경","poiType":{"category":"음식점","subCategory":"한식","subSubCategory":"해물,생선"},"address":"제주특별자치도 제주시 용담3동 513-2","location":{"latitude":33.51620130397281,"longitude":126.50684643536998},"score":3.3,"businessHours":{"businessHours":"10:30 ~ 17:00","closedDaySet":[]},"costPerPerson":-1,"spendingTime":{"hour":1.0,"standardDeviation":0.05},"isRestaurant":true},{"id":26637031,"name":"고래라면","poiType":{"category":"음식점","subCategory":"분식","subSubCategory":""},"address":"제주특별자치도 서귀포시 성산읍 삼달리 270-4","location":{"latitude":33.371910771177966,"longitude":126.85825902940607},"score":3.9,"businessHours":{"businessHours":"09:00 ~ 19:00","closedDaySet":[]},"costPerPerson":-1,"spendingTime":{"hour":1.0,"standardDeviation":0.05},"isRestaurant":true},{"id":9888232,"name":"예지원","poiType":{"category":"음식점","subCategory":"한식","subSubCategory":""},"address":"제주특별자치도 서귀포시 중문동 1489-4","location":{"latitude":33.2539394620948,"longitude":126.419277051542},"score":3.4,"businessHours":{"businessHours":"10:30 ~ 17:00","closedDaySet":[]},"costPerPerson":-1,"spendingTime":{"hour":1.0,"standardDeviation":0.05},"isRestaurant":true},{"id":26941167,"name":"신스버거","poiType":{"category":"음식점","subCategory":"양식","subSubCategory":"햄버거"},"address":"제주특별자치도 제주시 한림읍 월령리 525-1","location":{"latitude":33.374651883674986,"longitude":126.21657764815058},"score":4.0,"businessHours":{"businessHours":"10:00 ~ 20:00","closedDaySet":["일요일"]},"costPerPerson":-1,"spendingTime":{"hour":1.0,"standardDeviation":0.05},"isRestaurant":true},{"id":21455793,"name":"자매국수 제주점","poiType":{"category":"음식점","subCategory":"한식","subSubCategory":"국수"},"address":"제주특별자치도 제주시 일도2동 1034-10","location":{"latitude":33.50809242962066,"longitude":126.53234792032768},"score":3.0,"businessHours":{"businessHours":"09:00 ~ 20:30","closedDaySet":[]},"costPerPerson":-1,"spendingTime":{"hour":1.0,"standardDeviation":0.05},"isRestaurant":true},{"id":9025009,"name":"부두식당","poiType":{"category":"음식점","subCategory":"한식","subSubCategory":"해물,생선"},"address":"제주특별자치도 서귀포시 대정읍 하모리 770-9","location":{"latitude":33.2189264451744,"longitude":126.25100729349},"score":3.1,"businessHours":{"businessHours":"08:30 ~ 21:00","closedDaySet":["둘째 수요일","넷째 수요일"]},"costPerPerson":-1,"spendingTime":{"hour":1.0,"standardDeviation":0.05},"isRestaurant":true},{"id":7868089,"name":"모이세해장국 본점","poiType":{"category":"음식점","subCategory":"한식","subSubCategory":"해장국"},"address":"제주특별자치도 제주시 오라2동 3100-3","location":{"latitude":33.48171762848382,"longitude":126.50510149798973},"score":3.4,"businessHours":{"businessHours":"00:00 ~ 24:00","closedDaySet":[]},"costPerPerson":-1,"spendingTime":{"hour":1.0,"standardDeviation":0.05},"isRestaurant":true},{"id":713529350,"name":"서민흑돼지","poiType":{"category":"음식점","subCategory":"한식","subSubCategory":"육류,고기"},"address":"제주특별자치도 서귀포시 상예동 576-1","location":{"latitude":33.25595487874083,"longitude":126.40108085975197},"score":4.0,"businessHours":{"businessHours":"11:00 ~ 22:30","closedDaySet":[]},"costPerPerson":-1,"spendingTime":{"hour":1.0,"standardDeviation":0.05},"isRestaurant":true},{"id":14722597,"name":"해맞이쉼터","poiType":{"category":"음식점","subCategory":"한식","subSubCategory":""},"address":"제주특별자치도 제주시 구좌읍 평대리 2033-19","location":{"latitude":33.53718942436627,"longitude":126.83773393162066},"score":2.0,"businessHours":{"businessHours":"10:00 ~ 19:00","closedDaySet":["수요일"]},"costPerPerson":-1,"spendingTime":{"hour":1.0,"standardDeviation":0.05},"isRestaurant":true},{"id":8856076,"name":"늘봄흑돼지","poiType":{"category":"음식점","subCategory":"한식","subSubCategory":"육류,고기"},"address":"제주특별자치도 제주시 노형동 2343-3","location":{"latitude":33.4794793376608,"longitude":126.472866637648},"score":3.4,"businessHours":{"businessHours":"11:00 ~ 24:00","closedDaySet":[]},"costPerPerson":-1,"spendingTime":{"hour":1.0,"standardDeviation":0.05},"isRestaurant":true},{"id":27413231,"name":"문어아저씨","poiType":{"category":"음식점","subCategory":"한식","subSubCategory":"해물,생선"},"address":"제주특별자치도 제주시 조천읍 함덕리 1252-42","location":{"latitude":33.54305591857613,"longitude":126.66419927479657},"score":3.4,"businessHours":{"businessHours":"11:00 ~ 20:30","closedDaySet":[]},"costPerPerson":-1,"spendingTime":{"hour":1.0,"standardDeviation":0.05},"isRestaurant":true},{"id":442788021,"name":"삼미흑돼지","poiType":{"category":"음식점","subCategory":"한식","subSubCategory":"육류,고기"},"address":"제주특별자치도 서귀포시 색달동 2275-1","location":{"latitude":33.25857817246528,"longitude":126.41345157134414},"score":5.0,"businessHours":{"businessHours":"12:00 ~ 22:00","closedDaySet":[]},"costPerPerson":-1,"spendingTime":{"hour":1.0,"standardDeviation":0.05},"isRestaurant":true},{"id":7930540,"name":"새섬갈비","poiType":{"category":"음식점","subCategory":"한식","subSubCategory":"육류,고기"},"address":"제주특별자치도 서귀포시 송산동 650-2","location":{"latitude":33.2421244198046,"longitude":126.561885199958},"score":3.8,"businessHours":{"businessHours":"10:30 ~ 17:00","closedDaySet":[]},"costPerPerson":-1,"spendingTime":{"hour":1.0,"standardDeviation":0.05},"isRestaurant":true},{"id":8963615,"name":"만민식당","poiType":{"category":"음식점","subCategory":"한식","subSubCategory":"해물,생선"},"address":"제주특별자치도 제주시 한림읍 한림리 932-6","location":{"latitude":33.410004733419534,"longitude":126.26602862825641},"score":4.6,"businessHours":{"businessHours":"08:30 ~ 21:00","closedDaySet":[]},"costPerPerson":-1,"spendingTime":{"hour":1.0,"standardDeviation":0.05},"isRestaurant":true},{"id":10936817,"name":"한성식당","poiType":{"category":"음식점","subCategory":"한식","subSubCategory":"해물,생선"},"address":"제주특별자치도 서귀포시 성산읍 성산리 202-1","location":{"latitude":33.4632074839994,"longitude":126.935031408573},"score":3.2,"businessHours":{"businessHours":"07:00 ~ 22:00","closedDaySet":[]},"costPerPerson":-1,"spendingTime":{"hour":1.0,"standardDeviation":0.05},"isRestaurant":true},{"id":1735521703,"name":"오롯","poiType":{"category":"음식점","subCategory":"한식","subSubCategory":""},"address":"제주특별자치도 제주시 아라2동 3009-5","location":{"latitude":33.49098902181766,"longitude":126.54434108896788},"score":5.0,"businessHours":{"businessHours":"10:30 ~ 17:00","closedDaySet":[]},"costPerPerson":-1,"spendingTime":{"hour":1.0,"standardDeviation":0.05},"isRestaurant":true},{"id":12663386,"name":"동해미락","poiType":{"category":"음식점","subCategory":"한식","subSubCategory":"해물,생선"},"address":"제주특별자치도 서귀포시 서귀동 72-1","location":{"latitude":33.2436721658595,"longitude":126.568229644502},"score":4.3,"businessHours":{"businessHours":"10:00 ~ 23:00","closedDaySet":[]},"costPerPerson":-1,"spendingTime":{"hour":1.0,"standardDeviation":0.05},"isRestaurant":true},{"id":26837764,"name":"섭지향","poiType":{"category":"음식점","subCategory":"퓨전요리","subSubCategory":"퓨전일식"},"address":"제주특별자치도 서귀포시 성산읍 고성리 895-1","location":{"latitude":33.43519281497729,"longitude":126.91046516784235},"score":4.5,"businessHours":{"businessHours":"11:00 ~ 21:00","closedDaySet":[]},"costPerPerson":-1,"spendingTime":{"hour":1.0,"standardDeviation":0.05},"isRestaurant":true},{"id":16816030,"name":"파도소리해녀촌","poiType":{"category":"음식점","subCategory":"한식","subSubCategory":"해물,생선"},"address":"제주특별자치도 제주시 우도면 연평리 874-2","location":{"latitude":33.51977739664889,"longitude":126.94886028417552},"score":4.0,"businessHours":{"businessHours":"09:00 ~ 20:00","closedDaySet":[]},"costPerPerson":-1,"spendingTime":{"hour":1.0,"standardDeviation":0.05},"isRestaurant":true},{"id":8101542,"name":"코코분식","poiType":{"category":"음식점","subCategory":"분식","subSubCategory":""},"address":"제주특별자치도 제주시 도남동 920-17","location":{"latitude":33.4976183476073,"longitude":126.527135198478},"score":4.7,"businessHours":{"businessHours":"11:00 ~ 20:00","closedDaySet":["일요일","토요일"]},"costPerPerson":-1,"spendingTime":{"hour":1.0,"standardDeviation":0.05},"isRestaurant":true},{"id":9008686,"name":"바다이야기","poiType":{"category":"음식점","subCategory":"한식","subSubCategory":"해물,생선"},"address":"제주특별자치도 제주시 한림읍 옹포리 571","location":{"latitude":33.4033458147276,"longitude":126.25198273649},"score":3.4,"businessHours":{"businessHours":"10:00 ~ 23:00","closedDaySet":[]},"costPerPerson":-1,"spendingTime":{"hour":1.0,"standardDeviation":0.05},"isRestaurant":true},{"id":26591040,"name":"몽땅","poiType":{"category":"음식점","subCategory":"양식","subSubCategory":""},"address":"제주특별자치도 제주시 한경면 청수리 157-11","location":{"latitude":33.30562263187585,"longitude":126.25824300174469},"score":4.8,"businessHours":{"businessHours":"10:30 ~ 21:00","closedDaySet":["수요일"]},"costPerPerson":-1,"spendingTime":{"hour":1.0,"standardDeviation":0.05},"isRestaurant":true},{"id":18421685,"name":"곰막","poiType":{"category":"음식점","subCategory":"한식","subSubCategory":"해물,생선"},"address":"제주특별자치도 제주시 구좌읍 동복리 667-1","location":{"latitude":33.55687535546732,"longitude":126.72051701275635},"score":3.1,"businessHours":{"businessHours":"08:00 ~ 20:00","closedDaySet":["둘째 화요일"]},"costPerPerson":-1,"spendingTime":{"hour":1.0,"standardDeviation":0.05},"isRestaurant":true},{"id":25851685,"name":"제갈양","poiType":{"category":"음식점","subCategory":"한식","subSubCategory":"해물,생선"},"address":"제주특별자치도 제주시 한림읍 금능리 1737","location":{"latitude":33.386032384784386,"longitude":126.22442830449592},"score":3.3,"businessHours":{"businessHours":"10:00 ~ 21:00","closedDaySet":[]},"costPerPerson":-1,"spendingTime":{"hour":1.0,"standardDeviation":0.05},"isRestaurant":true},{"id":8257171,"name":"돌하르방식당 본점","poiType":{"category":"음식점","subCategory":"한식","subSubCategory":""},"address":"제주특별자치도 제주시 일도2동 320-14","location":{"latitude":33.5100318853811,"longitude":126.538725901705},"score":4.2,"businessHours":{"businessHours":"10:00 ~ 15:00","closedDaySet":["일요일","공휴일"]},"costPerPerson":-1,"spendingTime":{"hour":1.0,"standardDeviation":0.05},"isRestaurant":true},{"id":27609941,"name":"돈카츠서황","poiType":{"category":"음식점","subCategory":"일식","subSubCategory":"돈까스,우동"},"address":"제주특별자치도 제주시 애월읍 소길리 794-1","location":{"latitude":33.43434847248964,"longitude":126.37959648362488},"score":4.2,"businessHours":{"businessHours":"11:30 ~ 20:30","closedDaySet":["월요일"]},"costPerPerson":-1,"spendingTime":{"hour":1.0,"standardDeviation":0.05},"isRestaurant":true},{"id":23619485,"name":"중문솥뚜껑","poiType":{"category":"음식점","subCategory":"한식","subSubCategory":"육류,고기"},"address":"제주특별자치도 서귀포시 대포동 2530","location":{"latitude":33.238322541928945,"longitude":126.43169379235678},"score":3.9,"businessHours":{"businessHours":"11:00 ~ 22:00","closedDaySet":[]},"costPerPerson":-1,"spendingTime":{"hour":1.0,"standardDeviation":0.05},"isRestaurant":true},{"id":1191456192,"name":"하하호호 월정리점","poiType":{"category":"음식점","subCategory":"양식","subSubCategory":"햄버거"},"address":"제주특별자치도 제주시 구좌읍 행원리 1518","location":{"latitude":33.5562293115403,"longitude":126.801185611607},"score":1.5,"businessHours":{"businessHours":"11:00 ~ 16:30","closedDaySet":["목요일"]},"costPerPerson":-1,"spendingTime":{"hour":1.0,"standardDeviation":0.05},"isRestaurant":true},{"id":775448775,"name":"뜰에","poiType":{"category":"음식점","subCategory":"한식","subSubCategory":""},"address":"제주특별자치도 제주시 애월읍 애월리 1819-39","location":{"latitude":33.466374574053525,"longitude":126.32022068972587},"score":5.0,"businessHours":{"businessHours":"10:30 ~ 17:00","closedDaySet":[]},"costPerPerson":-1,"spendingTime":{"hour":1.0,"standardDeviation":0.05},"isRestaurant":true},{"id":26352466,"name":"노라바","poiType":{"category":"음식점","subCategory":"분식","subSubCategory":""},"address":"제주특별자치도 제주시 애월읍 구엄리 1287-1","location":{"latitude":33.48279395040634,"longitude":126.37630687709597},"score":4.4,"businessHours":{"businessHours":"10:00 ~ 19:00","closedDaySet":[]},"costPerPerson":-1,"spendingTime":{"hour":1.0,"standardDeviation":0.05},"isRestaurant":true},{"id":19358629,"name":"짱구분식","poiType":{"category":"음식점","subCategory":"분식","subSubCategory":""},"address":"제주특별자치도 서귀포시 서귀동 254-2","location":{"latitude":33.25018250848478,"longitude":126.56709003672452},"score":5.0,"businessHours":{"businessHours":"10:30 ~ 17:00","closedDaySet":["목요일"]},"costPerPerson":-1,"spendingTime":{"hour":1.0,"standardDeviation":0.05},"isRestaurant":true},{"id":25118586,"name":"가리본가","poiType":{"category":"음식점","subCategory":"한식","subSubCategory":"육류,고기"},"address":"제주특별자치도 제주시 연동 2326-7","location":{"latitude":33.49164923530557,"longitude":126.48733322685008},"score":3.1,"businessHours":{"businessHours":"11:30 ~ 21:00","closedDaySet":[]},"costPerPerson":-1,"spendingTime":{"hour":1.0,"standardDeviation":0.05},"isRestaurant":true},{"id":1146457759,"name":"일통이반","poiType":{"category":"음식점","subCategory":"한식","subSubCategory":"해물,생선"},"address":"제주특별자치도 제주시 삼도2동 9-1","location":{"latitude":33.51705095970308,"longitude":126.5220784994829},"score":1.5,"businessHours":{"businessHours":"12:00 ~ 24:00","closedDaySet":["넷째 화요일","둘째 화요일"]},"costPerPerson":-1,"spendingTime":{"hour":1.0,"standardDeviation":0.05},"isRestaurant":true},{"id":18767827,"name":"검은쇠몰고오는","poiType":{"category":"음식점","subCategory":"한식","subSubCategory":"육류,고기"},"address":"제주특별자치도 제주시 연동 296-7","location":{"latitude":33.483567017783464,"longitude":126.49336319704975},"score":3.0,"businessHours":{"businessHours":"10:00 ~ 24:00","closedDaySet":[]},"costPerPerson":-1,"spendingTime":{"hour":1.0,"standardDeviation":0.05},"isRestaurant":true},{"id":13110813,"name":"용두암바당회국수","poiType":{"category":"음식점","subCategory":"한식","subSubCategory":"국수"},"address":"제주특별자치도 제주시 용담3동 1026-3","location":{"latitude":33.516960549385814,"longitude":126.50282516091706},"score":3.3,"businessHours":{"businessHours":"08:00 ~ 22:00","closedDaySet":[]},"costPerPerson":-1,"spendingTime":{"hour":1.0,"standardDeviation":0.05},"isRestaurant":true},{"id":12355116,"name":"로뎀가든","poiType":{"category":"음식점","subCategory":"한식","subSubCategory":"해물,생선"},"address":"제주특별자치도 제주시 우도면 연평리 2515","location":{"latitude":33.50366125908148,"longitude":126.94269690147075},"score":3.4,"businessHours":{"businessHours":"09:00 ~ 22:00","closedDaySet":[]},"costPerPerson":-1,"spendingTime":{"hour":1.0,"standardDeviation":0.05},"isRestaurant":true},{"id":12187170,"name":"전망좋은집","poiType":{"category":"음식점","subCategory":"한식","subSubCategory":"해물,생선"},"address":"제주특별자치도 서귀포시 성산읍 성산리 399-8","location":{"latitude":33.460681630857,"longitude":126.932511901621},"score":3.4,"businessHours":{"businessHours":"09:00 ~ 21:00","closedDaySet":[]},"costPerPerson":-1,"spendingTime":{"hour":1.0,"standardDeviation":0.05},"isRestaurant":true},{"id":11098677,"name":"등대와바당","poiType":{"category":"음식점","subCategory":"한식","subSubCategory":""},"address":"제주특별자치도 제주시 도두1동 2614-4","location":{"latitude":33.5061018135752,"longitude":126.464530306172},"score":4.3,"businessHours":{"businessHours":"08:30 ~ 21:30","closedDaySet":[]},"costPerPerson":-1,"spendingTime":{"hour":1.0,"standardDeviation":0.05},"isRestaurant":true},{"id":8739417,"name":"강정포구횟집","poiType":{"category":"음식점","subCategory":"한식","subSubCategory":"해물,생선"},"address":"제주특별자치도 서귀포시 강정동 4686-2","location":{"latitude":33.22879373464748,"longitude":126.47583508512554},"score":3.3,"businessHours":{"businessHours":"10:30 ~ 17:00","closedDaySet":[]},"costPerPerson":-1,"spendingTime":{"hour":1.0,"standardDeviation":0.05},"isRestaurant":true},{"id":19632651,"name":"요리하는목수","poiType":{"category":"음식점","subCategory":"양식","subSubCategory":"햄버거"},"address":"제주특별자치도 제주시 애월읍 구엄리 1229-4","location":{"latitude":33.480605559507055,"longitude":126.3735812125204},"score":2.3,"businessHours":{"businessHours":"10:00 ~ 19:00","closedDaySet":["수요일"]},"costPerPerson":-1,"spendingTime":{"hour":1.0,"standardDeviation":0.05},"isRestaurant":true},{"id":26089065,"name":"제주스럽닭 제주중문점","poiType":{"category":"음식점","subCategory":"치킨","subSubCategory":""},"address":"제주특별자치도 서귀포시 중문동 2140-32","location":{"latitude":33.2508642441858,"longitude":126.423392263624},"score":2.5,"businessHours":{"businessHours":"10:30 ~ 17:00","closedDaySet":[]},"costPerPerson":-1,"spendingTime":{"hour":1.0,"standardDeviation":0.05},"isRestaurant":true},{"id":17358320,"name":"산방식당 제주점","poiType":{"category":"음식점","subCategory":"한식","subSubCategory":"냉면"},"address":"제주특별자치도 제주시 이도2동 1999-12","location":{"latitude":33.490161055673,"longitude":126.53602130882533},"score":3.8,"businessHours":{"businessHours":"11:00 ~ 20:00","closedDaySet":["설연휴","넷째 화요일","추석연휴","둘째 화요일"]},"costPerPerson":-1,"spendingTime":{"hour":1.0,"standardDeviation":0.05},"isRestaurant":true},{"id":8970084,"name":"맛나식당","poiType":{"category":"음식점","subCategory":"한식","subSubCategory":"해물,생선"},"address":"제주특별자치도 서귀포시 성산읍 고성리 316-3","location":{"latitude":33.448601087147864,"longitude":126.91607818386697},"score":3.1,"businessHours":{"businessHours":"08:30 ~ 20:00","closedDaySet":[]},"costPerPerson":-1,"spendingTime":{"hour":1.0,"standardDeviation":0.05},"isRestaurant":true},{"id":9402213,"name":"임성반점","poiType":{"category":"음식점","subCategory":"중식","subSubCategory":"중화요리"},"address":"제주특별자치도 제주시 용담2동 622-1","location":{"latitude":33.50948695413552,"longitude":126.5097302659039},"score":3.2,"businessHours":{"businessHours":"10:30 ~ 17:00","closedDaySet":[]},"costPerPerson":-1,"spendingTime":{"hour":1.0,"standardDeviation":0.05},"isRestaurant":true},{"id":8453998,"name":"오는정김밥","poiType":{"category":"음식점","subCategory":"분식","subSubCategory":""},"address":"제주특별자치도 서귀포시 서귀동 254-6","location":{"latitude":33.2495955703083,"longitude":126.567621058572},"score":2.9,"businessHours":{"businessHours":"10:00 ~ 20:00","closedDaySet":[]},"costPerPerson":-1,"spendingTime":{"hour":1.0,"standardDeviation":0.05},"isRestaurant":true},{"id":8193875,"name":"교래손칼국수","poiType":{"category":"음식점","subCategory":"한식","subSubCategory":"국수"},"address":"제주특별자치도 제주시 조천읍 교래리 491","location":{"latitude":33.43610297872,"longitude":126.676080314629},"score":3.1,"businessHours":{"businessHours":"11:00 ~ 19:00","closedDaySet":["첫째 수요일","셋째 수요일"]},"costPerPerson":-1,"spendingTime":{"hour":1.0,"standardDeviation":0.05},"isRestaurant":true},{"id":10550164,"name":"솔지식당","poiType":{"category":"음식점","subCategory":"한식","subSubCategory":"육류,고기"},"address":"제주특별자치도 제주시 연동 251-13","location":{"latitude":33.48879803802392,"longitude":126.48680776484923},"score":4.5,"businessHours":{"businessHours":"10:30 ~ 17:00","closedDaySet":[]},"costPerPerson":-1,"spendingTime":{"hour":1.0,"standardDeviation":0.05},"isRestaurant":true},{"id":11547525,"name":"우진해장국","poiType":{"category":"음식점","subCategory":"한식","subSubCategory":"해장국"},"address":"제주특별자치도 제주시 삼도2동 831","location":{"latitude":33.5115187080468,"longitude":126.520003422855},"score":3.0,"businessHours":{"businessHours":"05:30 ~ 22:00","closedDaySet":["설연휴","추석연휴"]},"costPerPerson":-1,"spendingTime":{"hour":1.0,"standardDeviation":0.05},"isRestaurant":true},{"id":24189513,"name":"붉은못허브팜 본점","poiType":{"category":"음식점","subCategory":"양식","subSubCategory":"햄버거"},"address":"제주특별자치도 제주시 애월읍 애월리 2052","location":{"latitude":33.465632099924065,"longitude":126.31637116926902},"score":1.5,"businessHours":{"businessHours":"10:30 ~ 17:00","closedDaySet":[]},"costPerPerson":-1,"spendingTime":{"hour":1.0,"standardDeviation":0.05},"isRestaurant":true},{"id":8313670,"name":"모살물","poiType":{"category":"음식점","subCategory":"한식","subSubCategory":"해물,생선"},"address":"제주특별자치도 제주시 연동 291-10","location":{"latitude":33.4905148694809,"longitude":126.494518382882},"score":1.8,"businessHours":{"businessHours":"17:00 ~ 01:00","closedDaySet":[]},"costPerPerson":-1,"spendingTime":{"hour":1.0,"standardDeviation":0.05},"isRestaurant":true},{"id":10282850,"name":"두루두루식당","poiType":{"category":"음식점","subCategory":"한식","subSubCategory":"해물,생선"},"address":"제주특별자치도 제주시 연동 291-10","location":{"latitude":33.49043049150787,"longitude":126.49438624025817},"score":3.0,"businessHours":{"businessHours":"16:00 ~ 24:00","closedDaySet":[]},"costPerPerson":-1,"spendingTime":{"hour":1.0,"standardDeviation":0.05},"isRestaurant":true},{"id":26466927,"name":"도두반점","poiType":{"category":"음식점","subCategory":"중식","subSubCategory":"중화요리"},"address":"제주특별자치도 제주시 도두2동 1679","location":{"latitude":33.509239336898716,"longitude":126.47661735743003},"score":4.0,"businessHours":{"businessHours":"10:00 ~ 20:00","closedDaySet":[]},"costPerPerson":-1,"spendingTime":{"hour":1.0,"standardDeviation":0.05},"isRestaurant":true},{"id":8016700,"name":"오조해녀의집","poiType":{"category":"음식점","subCategory":"한식","subSubCategory":"해물,생선"},"address":"제주특별자치도 서귀포시 성산읍 오조리 3","location":{"latitude":33.4697350161441,"longitude":126.92229348123},"score":3.3,"businessHours":{"businessHours":"06:00 ~ 23:00","closedDaySet":[]},"costPerPerson":-1,"spendingTime":{"hour":1.0,"standardDeviation":0.05},"isRestaurant":true},{"id":10627937,"name":"제주오성","poiType":{"category":"음식점","subCategory":"한식","subSubCategory":""},"address":"제주특별자치도 서귀포시 색달동 2507-1","location":{"latitude":33.2556523117427,"longitude":126.414612596191},"score":3.0,"businessHours":{"businessHours":"07:30 ~ 23:00","closedDaySet":[]},"costPerPerson":-1,"spendingTime":{"hour":1.0,"standardDeviation":0.05},"isRestaurant":true},{"id":9006988,"name":"미영이네식당","poiType":{"category":"음식점","subCategory":"한식","subSubCategory":"해물,생선"},"address":"제주특별자치도 서귀포시 대정읍 하모리 770-29","location":{"latitude":33.217732821842,"longitude":126.249828956914},"score":2.7,"businessHours":{"businessHours":"10:30 ~ 21:00","closedDaySet":[]},"costPerPerson":-1,"spendingTime":{"hour":1.0,"standardDeviation":0.05},"isRestaurant":true},{"id":9762711,"name":"만세국수 오라점","poiType":{"category":"음식점","subCategory":"한식","subSubCategory":"국수"},"address":"제주특별자치도 제주시 오라1동 1083-2","location":{"latitude":33.494244145338726,"longitude":126.51922131200322},"score":4.0,"businessHours":{"businessHours":"08:30 ~ 20:00","closedDaySet":[]},"costPerPerson":-1,"spendingTime":{"hour":1.0,"standardDeviation":0.05},"isRestaurant":true},{"id":9628570,"name":"흑돼지촌","poiType":{"category":"음식점","subCategory":"한식","subSubCategory":"육류,고기"},"address":"제주특별자치도 제주시 한림읍 동명리 1858","location":{"latitude":33.4065659110999,"longitude":126.261552522151},"score":4.1,"businessHours":{"businessHours":"10:00 ~ 22:00","closedDaySet":[]},"costPerPerson":-1,"spendingTime":{"hour":1.0,"standardDeviation":0.05},"isRestaurant":true},{"id":249906601,"name":"칠돈가 본점","poiType":{"category":"음식점","subCategory":"한식","subSubCategory":"육류,고기"},"address":"제주특별자치도 제주시 용담2동 2695-4","location":{"latitude":33.50234673040925,"longitude":126.51072627664585},"score":4.2,"businessHours":{"businessHours":"14:00 ~ 23:00","closedDaySet":[]},"costPerPerson":-1,"spendingTime":{"hour":1.0,"standardDeviation":0.05},"isRestaurant":true},{"id":1337571448,"name":"ZZZ제주흑돼지","poiType":{"category":"음식점","subCategory":"한식","subSubCategory":"육류,고기"},"address":"제주특별자치도 제주시 연동 302-3","location":{"latitude":33.488003677707894,"longitude":126.49621666059434},"score":4.0,"businessHours":{"businessHours":"11:30 ~ 23:00","closedDaySet":[]},"costPerPerson":-1,"spendingTime":{"hour":1.0,"standardDeviation":0.05},"isRestaurant":true},{"id":20198888,"name":"협재해녀의집","poiType":{"category":"음식점","subCategory":"한식","subSubCategory":"해물,생선"},"address":"제주특별자치도 제주시 한림읍 협재리 1459-2","location":{"latitude":33.398817734486,"longitude":126.24389974765},"score":2.1,"businessHours":{"businessHours":"10:00 ~ 21:00","closedDaySet":[]},"costPerPerson":-1,"spendingTime":{"hour":1.0,"standardDeviation":0.05},"isRestaurant":true},{"id":13336427,"name":"신산포구 자연산횟집","poiType":{"category":"음식점","subCategory":"한식","subSubCategory":"해물,생선"},"address":"제주특별자치도 서귀포시 성산읍 신산리 561-1","location":{"latitude":33.38178319543054,"longitude":126.87999480960146},"score":4.5,"businessHours":{"businessHours":"09:00 ~ 21:00","closedDaySet":[]},"costPerPerson":-1,"spendingTime":{"hour":1.0,"standardDeviation":0.05},"isRestaurant":true},{"id":12435417,"name":"시골길","poiType":{"category":"음식점","subCategory":"한식","subSubCategory":"해물,생선"},"address":"제주특별자치도 제주시 연동 292-36","location":{"latitude":33.48878756521654,"longitude":126.49477026283279},"score":3.2,"businessHours":{"businessHours":"11:00 ~ 20:30","closedDaySet":["일요일","토요일"]},"costPerPerson":-1,"spendingTime":{"hour":1.0,"standardDeviation":0.05},"isRestaurant":true},{"id":27221687,"name":"제주예찬","poiType":{"category":"음식점","subCategory":"한식","subSubCategory":""},"address":"제주특별자치도 제주시 노형동 287-1","location":{"latitude":33.4540735254892,"longitude":126.48688678854},"score":3.0,"businessHours":{"businessHours":"10:30 ~ 17:00","closedDaySet":[]},"costPerPerson":-1,"spendingTime":{"hour":1.0,"standardDeviation":0.05},"isRestaurant":true},{"id":27222702,"name":"마구로쇼쿠도","poiType":{"category":"음식점","subCategory":"일식","subSubCategory":"참치회"},"address":"제주특별자치도 제주시 이도2동 1063-6","location":{"latitude":33.49615923134183,"longitude":126.53623457451636},"score":5.0,"businessHours":{"businessHours":"11:00 ~ 15:00","closedDaySet":["화요일"]},"costPerPerson":-1,"spendingTime":{"hour":1.0,"standardDeviation":0.05},"isRestaurant":true},{"id":7915275,"name":"사랑분식","poiType":{"category":"음식점","subCategory":"분식","subSubCategory":""},"address":"제주특별자치도 제주시 일도1동 1144-12","location":{"latitude":33.5124719955156,"longitude":126.527825048009},"score":4.4,"businessHours":{"businessHours":"12:00 ~ 13:00","closedDaySet":["월요일"]},"costPerPerson":-1,"spendingTime":{"hour":1.0,"standardDeviation":0.05},"isRestaurant":true},{"id":21473782,"name":"다정이네","poiType":{"category":"음식점","subCategory":"분식","subSubCategory":""},"address":"제주특별자치도 서귀포시 서귀동 335","location":{"latitude":33.24938084341145,"longitude":126.56679783510259},"score":5.0,"businessHours":{"businessHours":"07:00 ~ 20:00","closedDaySet":["월요일"]},"costPerPerson":-1,"spendingTime":{"hour":1.0,"standardDeviation":0.05},"isRestaurant":true},{"id":656489562,"name":"월정리갈비밥","poiType":{"category":"음식점","subCategory":"한식","subSubCategory":"육류,고기"},"address":"제주특별자치도 제주시 구좌읍 월정리 8-1","location":{"latitude":33.5548553525262,"longitude":126.796786628131},"score":4.4,"businessHours":{"businessHours":"11:00 ~ 19:30","closedDaySet":[]},"costPerPerson":-1,"spendingTime":{"hour":1.0,"standardDeviation":0.05},"isRestaurant":true},{"id":23168482,"name":"나운터횟집","poiType":{"category":"음식점","subCategory":"한식","subSubCategory":"해물,생선"},"address":"제주특별자치도 서귀포시 서귀동 667-35","location":{"latitude":33.24102707935093,"longitude":126.56135846730979},"score":4.1,"businessHours":{"businessHours":"10:30 ~ 17:00","closedDaySet":[]},"costPerPerson":-1,"spendingTime":{"hour":1.0,"standardDeviation":0.05},"isRestaurant":true},{"id":26940122,"name":"월척수산 본점","poiType":{"category":"음식점","subCategory":"한식","subSubCategory":"해물,생선"},"address":"제주특별자치도 제주시 용담1동 386","location":{"latitude":33.515797464397245,"longitude":126.51506336313803},"score":3.8,"businessHours":{"businessHours":"11:00 ~ 23:00","closedDaySet":[]},"costPerPerson":-1,"spendingTime":{"hour":1.0,"standardDeviation":0.05},"isRestaurant":true},{"id":1903594998,"name":"제주어멍","poiType":{"category":"음식점","subCategory":"한식","subSubCategory":"해물,생선"},"address":"제주특별자치도 제주시 용담3동 2576-3","location":{"latitude":33.511698469858416,"longitude":126.48424415703909},"score":5.0,"businessHours":{"businessHours":"10:30 ~ 17:00","closedDaySet":[]},"costPerPerson":-1,"spendingTime":{"hour":1.0,"standardDeviation":0.05},"isRestaurant":true},{"id":8954830,"name":"일출봉등경돌식당","poiType":{"category":"음식점","subCategory":"한식","subSubCategory":"해물,생선"},"address":"제주특별자치도 서귀포시 성산읍 성산리 187","location":{"latitude":33.462615761228,"longitude":126.934524118315},"score":2.9,"businessHours":{"businessHours":"07:00 ~ 21:00","closedDaySet":[]},"costPerPerson":-1,"spendingTime":{"hour":1.0,"standardDeviation":0.05},"isRestaurant":true},{"id":27357866,"name":"명랑스낵","poiType":{"category":"음식점","subCategory":"분식","subSubCategory":""},"address":"제주특별자치도 제주시 한림읍 한림리 1479-4","location":{"latitude":33.409171990397276,"longitude":126.25881592074555},"score":2.0,"businessHours":{"businessHours":"12:00 ~ 19:00","closedDaySet":["화요일"]},"costPerPerson":-1,"spendingTime":{"hour":1.0,"standardDeviation":0.05},"isRestaurant":true},{"id":26613469,"name":"춘심이네 2호점","poiType":{"category":"음식점","subCategory":"한식","subSubCategory":"해물,생선"},"address":"제주특별자치도 제주시 노형동 158-1","location":{"latitude":33.4644029633096,"longitude":126.485328549865},"score":1.5,"businessHours":{"businessHours":"10:30 ~ 17:00","closedDaySet":[]},"costPerPerson":-1,"spendingTime":{"hour":1.0,"standardDeviation":0.05},"isRestaurant":true},{"id":26622683,"name":"피제리아3657","poiType":{"category":"음식점","subCategory":"양식","subSubCategory":"피자"},"address":"제주특별자치도 서귀포시 안덕면 창천리 912","location":{"latitude":33.2363091101611,"longitude":126.362208111641},"score":3.9,"businessHours":{"businessHours":"10:00 ~ 21:00","closedDaySet":[]},"costPerPerson":-1,"spendingTime":{"hour":1.0,"standardDeviation":0.05},"isRestaurant":true},{"id":7923446,"name":"새로나분식","poiType":{"category":"음식점","subCategory":"분식","subSubCategory":""},"address":"제주특별자치도 서귀포시 서귀동 273-5","location":{"latitude":33.24853854948385,"longitude":126.56417516238162},"score":3.9,"businessHours":{"businessHours":"11:00 ~ 20:00","closedDaySet":[]},"costPerPerson":-1,"spendingTime":{"hour":1.0,"standardDeviation":0.05},"isRestaurant":true},{"id":8755148,"name":"고객식당","poiType":{"category":"음식점","subCategory":"한식","subSubCategory":""},"address":"제주특별자치도 제주시 이도1동 1436-7","location":{"latitude":33.5115489948372,"longitude":126.525996057173},"score":2.2,"businessHours":{"businessHours":"08:00 ~ 20:00","closedDaySet":["수요일"]},"costPerPerson":-1,"spendingTime":{"hour":1.0,"standardDeviation":0.05},"isRestaurant":true},{"id":8122101,"name":"큰엉식당","poiType":{"category":"음식점","subCategory":"한식","subSubCategory":""},"address":"제주특별자치도 서귀포시 남원읍 남원리 2374-1","location":{"latitude":33.2750013078557,"longitude":126.70343397321},"score":3.4,"businessHours":{"businessHours":"12:00 ~ 22:00","closedDaySet":[]},"costPerPerson":-1,"spendingTime":{"hour":1.0,"standardDeviation":0.05},"isRestaurant":true},{"id":27214543,"name":"앙끄레국수","poiType":{"category":"음식점","subCategory":"한식","subSubCategory":"국수"},"address":"제주특별자치도 서귀포시 법환동 876-1","location":{"latitude":33.24764762029586,"longitude":126.51186229213751},"score":4.0,"businessHours":{"businessHours":"10:00 ~ 19:30","closedDaySet":["첫째 수요일","셋째 수요일"]},"costPerPerson":-1,"spendingTime":{"hour":1.0,"standardDeviation":0.05},"isRestaurant":true},{"id":11996067,"name":"순천미향","poiType":{"category":"음식점","subCategory":"한식","subSubCategory":"해물,생선"},"address":"제주특별자치도 서귀포시 안덕면 사계리 163-6","location":{"latitude":33.2357087099759,"longitude":126.312464836757},"score":4.2,"businessHours":{"businessHours":"10:30 ~ 17:00","closedDaySet":[]},"costPerPerson":-1,"spendingTime":{"hour":1.0,"standardDeviation":0.05},"isRestaurant":true},{"id":10923953,"name":"해미원횟집","poiType":{"category":"음식점","subCategory":"한식","subSubCategory":"해물,생선"},"address":"제주특별자치도 서귀포시 표선면 표선리 40-55","location":{"latitude":33.32498060140187,"longitude":126.84419760417077},"score":3.8,"businessHours":{"businessHours":"11:00 ~ 22:00","closedDaySet":[]},"costPerPerson":-1,"spendingTime":{"hour":1.0,"standardDeviation":0.05},"isRestaurant":true},{"id":1046180098,"name":"제주김만복 본점","poiType":{"category":"음식점","subCategory":"분식","subSubCategory":""},"address":"제주특별자치도 제주시 오라3동 2250-1","location":{"latitude":33.4970353986304,"longitude":126.508921919644},"score":5.0,"businessHours":{"businessHours":"10:00 ~ 19:30","closedDaySet":["수요일"]},"costPerPerson":-1,"spendingTime":{"hour":1.0,"standardDeviation":0.05},"isRestaurant":true},{"id":8315618,"name":"바그다드","poiType":{"category":"음식점","subCategory":"아시아음식","subSubCategory":"인도음식"},"address":"제주특별자치도 제주시 이도2동 1188-16","location":{"latitude":33.4974980722119,"longitude":126.529645363738},"score":4.4,"businessHours":{"businessHours":"11:00 ~ 23:00","closedDaySet":[]},"costPerPerson":-1,"spendingTime":{"hour":1.0,"standardDeviation":0.05},"isRestaurant":true},{"id":18612863,"name":"운정이네토속음식점","poiType":{"category":"음식점","subCategory":"한식","subSubCategory":""},"address":"제주특별자치도 서귀포시 안덕면 감산리 359-1","location":{"latitude":33.25838216790164,"longitude":126.35297796959742},"score":2.7,"businessHours":{"businessHours":"08:00 ~ 24:00","closedDaySet":[]},"costPerPerson":-1,"spendingTime":{"hour":1.0,"standardDeviation":0.05},"isRestaurant":true},{"id":27357703,"name":"까망돼지 서귀포점","poiType":{"category":"음식점","subCategory":"한식","subSubCategory":"육류,고기"},"address":"제주특별자치도 서귀포시 토평동 865-1","location":{"latitude":33.2551186394462,"longitude":126.577496804279},"score":3.0,"businessHours":{"businessHours":"11:50 ~ 23:00","closedDaySet":[]},"costPerPerson":-1,"spendingTime":{"hour":1.0,"standardDeviation":0.05},"isRestaurant":true},{"id":412176121,"name":"사는맛먹는맛","poiType":{"category":"음식점","subCategory":"양식","subSubCategory":""},"address":"제주특별자치도 제주시 애월읍 하귀2리 2717","location":{"latitude":33.4842799445283,"longitude":126.391147148183},"score":5.0,"businessHours":{"businessHours":"11:00 ~ 20:00","closedDaySet":["일요일"]},"costPerPerson":-1,"spendingTime":{"hour":1.0,"standardDeviation":0.05},"isRestaurant":true},{"id":12284690,"name":"독개물항","poiType":{"category":"음식점","subCategory":"한식","subSubCategory":"해물,생선"},"address":"제주특별자치도 제주시 한림읍 옹포리 593-1","location":{"latitude":33.40189075258455,"longitude":126.25161144704143},"score":3.1,"businessHours":{"businessHours":"08:00 ~ 21:00","closedDaySet":[]},"costPerPerson":-1,"spendingTime":{"hour":1.0,"standardDeviation":0.05},"isRestaurant":true},{"id":19315341,"name":"톰톰카레","poiType":{"category":"음식점","subCategory":"아시아음식","subSubCategory":"인도음식"},"address":"제주특별자치도 제주시 구좌읍 평대리 2033-1","location":{"latitude":33.53731507171133,"longitude":126.83729874004075},"score":3.2,"businessHours":{"businessHours":"11:30 ~ 20:00","closedDaySet":["월요일"]},"costPerPerson":-1,"spendingTime":{"hour":1.0,"standardDeviation":0.05},"isRestaurant":true},{"id":20125337,"name":"춘미향식당","poiType":{"category":"음식점","subCategory":"한식","subSubCategory":""},"address":"제주특별자치도 서귀포시 안덕면 사계리 2820-4","location":{"latitude":33.23147031418739,"longitude":126.29652692059},"score":3.1,"businessHours":{"businessHours":"11:30 ~ 20:30","closedDaySet":["설연휴","둘째 수요일","넷째 수요일"]},"costPerPerson":-1,"spendingTime":{"hour":1.0,"standardDeviation":0.05},"isRestaurant":true},{"id":27606540,"name":"손맛촌","poiType":{"category":"음식점","subCategory":"한식","subSubCategory":"해물,생선"},"address":"제주특별자치도 제주시 조천읍 교래리 534","location":{"latitude":33.437297854702045,"longitude":126.67740155567947},"score":3.3,"businessHours":{"businessHours":"09:00 ~ 20:00","closedDaySet":["일요일"]},"costPerPerson":-1,"spendingTime":{"hour":1.0,"standardDeviation":0.05},"isRestaurant":true},{"id":18352760,"name":"연미정","poiType":{"category":"음식점","subCategory":"한식","subSubCategory":"해물,생선"},"address":"제주특별자치도 제주시 구좌읍 세화리 3648-4","location":{"latitude":33.5246422047555,"longitude":126.853862770659},"score":2.7,"businessHours":{"businessHours":"11:00 ~ 22:00","closedDaySet":["첫째 수요일","셋째 수요일"]},"costPerPerson":-1,"spendingTime":{"hour":1.0,"standardDeviation":0.05},"isRestaurant":true},{"id":7842767,"name":"동도원","poiType":{"category":"음식점","subCategory":"한식","subSubCategory":""},"address":"제주특별자치도 제주시 연동 260-14","location":{"latitude":33.49081132874528,"longitude":126.4896494892092},"score":3.0,"businessHours":{"businessHours":"08:00 ~ 20:00","closedDaySet":[]},"costPerPerson":-1,"spendingTime":{"hour":1.0,"standardDeviation":0.05},"isRestaurant":true},{"id":27505184,"name":"남또리횟집","poiType":{"category":"음식점","subCategory":"한식","subSubCategory":"해물,생선"},"address":"제주특별자치도 제주시 애월읍 고내리 337","location":{"latitude":33.472809791094086,"longitude":126.34934591912113},"score":3.1,"businessHours":{"businessHours":"10:30 ~ 17:00","closedDaySet":[]},"costPerPerson":-1,"spendingTime":{"hour":1.0,"standardDeviation":0.05},"isRestaurant":true},{"id":25099972,"name":"평대스낵","poiType":{"category":"음식점","subCategory":"분식","subSubCategory":""},"address":"제주특별자치도 제주시 구좌읍 평대리 1976-1","location":{"latitude":33.535478393895545,"longitude":126.83925300537148},"score":3.4,"businessHours":{"businessHours":"12:00 ~ 18:00","closedDaySet":["화요일","수요일"]},"costPerPerson":-1,"spendingTime":{"hour":1.0,"standardDeviation":0.05},"isRestaurant":true},{"id":27408928,"name":"비오토피아 레스토랑","poiType":{"category":"음식점","subCategory":"양식","subSubCategory":""},"address":"제주특별자치도 서귀포시 안덕면 상천리 795","location":{"latitude":33.3009190264418,"longitude":126.391728526364},"score":3.0,"businessHours":{"businessHours":"12:00 ~ 22:00","closedDaySet":[]},"costPerPerson":-1,"spendingTime":{"hour":1.0,"standardDeviation":0.05},"isRestaurant":true},{"id":1266981882,"name":"섬마을","poiType":{"category":"음식점","subCategory":"한식","subSubCategory":"해물,생선"},"address":"제주특별자치도 제주시 연동 256-8","location":{"latitude":33.48371283080968,"longitude":126.48761681510118},"score":5.0,"businessHours":{"businessHours":"10:30 ~ 17:00","closedDaySet":[]},"costPerPerson":-1,"spendingTime":{"hour":1.0,"standardDeviation":0.05},"isRestaurant":true},{"id":15200040,"name":"대원가","poiType":{"category":"음식점","subCategory":"한식","subSubCategory":"해물,생선"},"address":"제주특별자치도 제주시 도남동 62-1","location":{"latitude":33.4915046710787,"longitude":126.526905876706},"score":4.2,"businessHours":{"businessHours":"09:00 ~ 21:00","closedDaySet":["둘째 수요일","넷째 수요일"]},"costPerPerson":-1,"spendingTime":{"hour":1.0,"standardDeviation":0.05},"isRestaurant":true},{"id":22895321,"name":"가시아방국수","poiType":{"category":"음식점","subCategory":"한식","subSubCategory":"국수"},"address":"제주특별자치도 서귀포시 성산읍 고성리 528","location":{"latitude":33.4386231323539,"longitude":126.918088426363},"score":3.6,"businessHours":{"businessHours":"10:30 ~ 22:30","closedDaySet":["첫째 수요일","셋째 수요일"]},"costPerPerson":-1,"spendingTime":{"hour":1.0,"standardDeviation":0.05},"isRestaurant":true},{"id":27100697,"name":"성산회관","poiType":{"category":"음식점","subCategory":"한식","subSubCategory":"한정식"},"address":"제주특별자치도 서귀포시 성산읍 성산리 167-3","location":{"latitude":33.46088344252441,"longitude":126.9315602063918},"score":5.0,"businessHours":{"businessHours":"11:30 ~ 21:00","closedDaySet":["화요일"]},"costPerPerson":-1,"spendingTime":{"hour":1.0,"standardDeviation":0.05},"isRestaurant":true},{"id":24780480,"name":"이춘옥원조고등어쌈밥","poiType":{"category":"음식점","subCategory":"한식","subSubCategory":"쌈밥"},"address":"제주특별자치도 제주시 애월읍 하귀1리 266-1","location":{"latitude":33.48899422249782,"longitude":126.41869980580296},"score":2.4,"businessHours":{"businessHours":"10:00 ~ 20:00","closedDaySet":["수요일"]},"costPerPerson":-1,"spendingTime":{"hour":1.0,"standardDeviation":0.05},"isRestaurant":true},{"id":26861088,"name":"한림로342쩜빵","poiType":{"category":"음식점","subCategory":"한식","subSubCategory":""},"address":"제주특별자치도 제주시 한림읍 협재리 1750-3","location":{"latitude":33.39386284964166,"longitude":126.24091074950249},"score":3.8,"businessHours":{"businessHours":"11:00 ~ 20:00","closedDaySet":["일요일"]},"costPerPerson":-1,"spendingTime":{"hour":1.0,"standardDeviation":0.05},"isRestaurant":true},{"id":17914522,"name":"김희선제주몸국","poiType":{"category":"음식점","subCategory":"한식","subSubCategory":""},"address":"제주특별자치도 제주시 용담2동 454-1","location":{"latitude":33.5151555996474,"longitude":126.513960153826},"score":3.6,"businessHours":{"businessHours":"07:30 ~ 15:00","closedDaySet":["일요일"]},"costPerPerson":-1,"spendingTime":{"hour":1.0,"standardDeviation":0.05},"isRestaurant":true},{"id":796297408,"name":"함쉐프키친","poiType":{"category":"음식점","subCategory":"양식","subSubCategory":""},"address":"제주특별자치도 서귀포시 대포동 1893","location":{"latitude":33.24087014544173,"longitude":126.43121804664857},"score":5.0,"businessHours":{"businessHours":"11:30 ~ 22:00","closedDaySet":["일요일"]},"costPerPerson":-1,"spendingTime":{"hour":1.0,"standardDeviation":0.05},"isRestaurant":true},{"id":26885649,"name":"주르레식당","poiType":{"category":"음식점","subCategory":"퓨전요리","subSubCategory":""},"address":"제주특별자치도 제주시 해안동 4","location":{"latitude":33.449324884831746,"longitude":126.48039857474834},"score":1.5,"businessHours":{"businessHours":"12:00 ~ 17:00","closedDaySet":["목요일"]},"costPerPerson":-1,"spendingTime":{"hour":1.0,"standardDeviation":0.05},"isRestaurant":true},{"id":124043433,"name":"자자손손국수회관 본점","poiType":{"category":"음식점","subCategory":"한식","subSubCategory":"국수"},"address":"제주특별자치도 제주시 일도2동 1045-12","location":{"latitude":33.5068942009959,"longitude":126.530050863303},"score":4.3,"businessHours":{"businessHours":"09:00 ~ 18:00","closedDaySet":[]},"costPerPerson":-1,"spendingTime":{"hour":1.0,"standardDeviation":0.05},"isRestaurant":true},{"id":26976789,"name":"곱들락","poiType":{"category":"음식점","subCategory":"한식","subSubCategory":"육류,고기"},"address":"제주특별자치도 제주시 구좌읍 월정리 566","location":{"latitude":33.5559979997502,"longitude":126.794255493972},"score":3.0,"businessHours":{"businessHours":"11:30 ~ 22:00","closedDaySet":["화요일"]},"costPerPerson":-1,"spendingTime":{"hour":1.0,"standardDeviation":0.05},"isRestaurant":true},{"id":18507401,"name":"바다를본돼지 본점","poiType":{"category":"음식점","subCategory":"한식","subSubCategory":"육류,고기"},"address":"제주특별자치도 제주시 한경면 판포리 2881-4","location":{"latitude":33.3656535951056,"longitude":126.197920121392},"score":4.0,"businessHours":{"businessHours":"12:00 ~ 22:30","closedDaySet":[]},"costPerPerson":-1,"spendingTime":{"hour":1.0,"standardDeviation":0.05},"isRestaurant":true},{"id":27339252,"name":"이게밥도둑","poiType":{"category":"음식점","subCategory":"한식","subSubCategory":"육류,고기"},"address":"제주특별자치도 제주시 연동 291-58","location":{"latitude":33.4916144376594,"longitude":126.493543553666},"score":4.4,"businessHours":{"businessHours":"11:30 ~ 23:00","closedDaySet":[]},"costPerPerson":-1,"spendingTime":{"hour":1.0,"standardDeviation":0.05},"isRestaurant":true},{"id":10879734,"name":"어촌식당","poiType":{"category":"음식점","subCategory":"한식","subSubCategory":"해물,생선"},"address":"제주특별자치도 서귀포시 표선면 표선리 40-54","location":{"latitude":33.3252731239789,"longitude":126.844500267589},"score":4.2,"businessHours":{"businessHours":"10:30 ~ 17:00","closedDaySet":[]},"costPerPerson":-1,"spendingTime":{"hour":1.0,"standardDeviation":0.05},"isRestaurant":true},{"id":27106827,"name":"메종글래드 삼다정","poiType":{"category":"음식점","subCategory":"뷔페","subSubCategory":""},"address":"제주특별자치도 제주시 연동 263-15","location":{"latitude":33.48523298547064,"longitude":126.48894203230776},"score":3.0,"businessHours":{"businessHours":"06:30 ~ 22:00","closedDaySet":[]},"costPerPerson":-1,"spendingTime":{"hour":1.0,"standardDeviation":0.05},"isRestaurant":true},{"id":21196506,"name":"고불락","poiType":{"category":"음식점","subCategory":"한식","subSubCategory":""},"address":"제주특별자치도 제주시 애월읍 고내리 1164-1","location":{"latitude":33.46671603801989,"longitude":126.33662059073268},"score":3.3,"businessHours":{"businessHours":"07:00 ~ 24:00","closedDaySet":[]},"costPerPerson":-1,"spendingTime":{"hour":1.0,"standardDeviation":0.05},"isRestaurant":true},{"id":25038501,"name":"잠녀해녀촌","poiType":{"category":"음식점","subCategory":"한식","subSubCategory":"해물,생선"},"address":"제주특별자치도 제주시 조천읍 함덕리 3150-2","location":{"latitude":33.54657385317858,"longitude":126.6595729025243},"score":3.2,"businessHours":{"businessHours":"07:00 ~ 21:00","closedDaySet":[]},"costPerPerson":-1,"spendingTime":{"hour":1.0,"standardDeviation":0.05},"isRestaurant":true},{"id":26799620,"name":"돈사돈 본관","poiType":{"category":"음식점","subCategory":"한식","subSubCategory":"육류,고기"},"address":"제주특별자치도 제주시 노형동 3086-3","location":{"latitude":33.4788680122235,"longitude":126.464026561351},"score":3.0,"businessHours":{"businessHours":"13:00 ~ 22:00","closedDaySet":["둘째 화요일"]},"costPerPerson":-1,"spendingTime":{"hour":1.0,"standardDeviation":0.05},"isRestaurant":true},{"id":1836414639,"name":"성산국수","poiType":{"category":"음식점","subCategory":"한식","subSubCategory":"국수"},"address":"제주특별자치도 서귀포시 성산읍 성산리 296-10","location":{"latitude":33.4637776129788,"longitude":126.935629081934},"score":5.0,"businessHours":{"businessHours":"08:00 ~ 15:30","closedDaySet":["목요일"]},"costPerPerson":-1,"spendingTime":{"hour":1.0,"standardDeviation":0.05},"isRestaurant":true},{"id":16525091,"name":"남양수산","poiType":{"category":"음식점","subCategory":"한식","subSubCategory":"해물,생선"},"address":"제주특별자치도 서귀포시 성산읍 고성리 1191-6","location":{"latitude":33.4501252535021,"longitude":126.91413210903528},"score":1.5,"businessHours":{"businessHours":"14:00 ~ 20:00","closedDaySet":[]},"costPerPerson":-1,"spendingTime":{"hour":1.0,"standardDeviation":0.05},"isRestaurant":true},{"id":1365667514,"name":"잇칸시타","poiType":{"category":"음식점","subCategory":"일식","subSubCategory":""},"address":"제주특별자치도 제주시 애월읍 신엄리 950","location":{"latitude":33.47706882307853,"longitude":126.37024145741904},"score":4.4,"businessHours":{"businessHours":"11:00 ~ 23:00","closedDaySet":[]},"costPerPerson":-1,"spendingTime":{"hour":1.0,"standardDeviation":0.05},"isRestaurant":true},{"id":22174324,"name":"중문수원","poiType":{"category":"음식점","subCategory":"한식","subSubCategory":"해물,생선"},"address":"제주특별자치도 서귀포시 색달동 2502-1","location":{"latitude":33.2553171616914,"longitude":126.414666341602},"score":3.6,"businessHours":{"businessHours":"12:00 ~ 22:00","closedDaySet":[]},"costPerPerson":-1,"spendingTime":{"hour":1.0,"standardDeviation":0.05},"isRestaurant":true},{"id":1224593178,"name":"제주사랑방","poiType":{"category":"음식점","subCategory":"한식","subSubCategory":"한정식"},"address":"제주특별자치도 서귀포시 서귀동 271-40","location":{"latitude":33.24989389314345,"longitude":126.563975261465},"score":4.7,"businessHours":{"businessHours":"09:00 ~ 22:00","closedDaySet":["설연휴","공휴일","추석연휴"]},"costPerPerson":-1,"spendingTime":{"hour":1.0,"standardDeviation":0.05},"isRestaurant":true},{"id":8563496,"name":"토끼와거북이","poiType":{"category":"음식점","subCategory":"한식","subSubCategory":""},"address":"제주특별자치도 제주시 용담3동 2356","location":{"latitude":33.5188231096691,"longitude":126.492343110663},"score":3.3,"businessHours":{"businessHours":"08:00 ~ 22:00","closedDaySet":[]},"costPerPerson":-1,"spendingTime":{"hour":1.0,"standardDeviation":0.05},"isRestaurant":true},{"id":7989149,"name":"아서원","poiType":{"category":"음식점","subCategory":"중식","subSubCategory":"중화요리"},"address":"제주특별자치도 서귀포시 하효동 629-2","location":{"latitude":33.2603578703725,"longitude":126.617274673642},"score":3.2,"businessHours":{"businessHours":"10:30 ~ 19:00","closedDaySet":[]},"costPerPerson":-1,"spendingTime":{"hour":1.0,"standardDeviation":0.05},"isRestaurant":true},{"id":11313995,"name":"목포고을","poiType":{"category":"음식점","subCategory":"한식","subSubCategory":"육류,고기"},"address":"제주특별자치도 서귀포시 색달동 2124-3","location":{"latitude":33.2584187266203,"longitude":126.407051901839},"score":2.8,"businessHours":{"businessHours":"12:00 ~ 22:30","closedDaySet":[]},"costPerPerson":-1,"spendingTime":{"hour":1.0,"standardDeviation":0.05},"isRestaurant":true},{"id":1686313765,"name":"수일통닭","poiType":{"category":"음식점","subCategory":"치킨","subSubCategory":""},"address":"제주특별자치도 서귀포시 동홍동 1546-23","location":{"latitude":33.253597006348286,"longitude":126.56171185213717},"score":4.0,"businessHours":{"businessHours":"10:30 ~ 17:00","closedDaySet":[]},"costPerPerson":-1,"spendingTime":{"hour":1.0,"standardDeviation":0.05},"isRestaurant":true},{"id":16260879,"name":"민경이네어등포해녀촌","poiType":{"category":"음식점","subCategory":"한식","subSubCategory":"해물,생선"},"address":"제주특별자치도 제주시 구좌읍 행원리 102","location":{"latitude":33.5537346764512,"longitude":126.825773171122},"score":3.9,"businessHours":{"businessHours":"09:30 ~ 21:00","closedDaySet":["목요일"]},"costPerPerson":-1,"spendingTime":{"hour":1.0,"standardDeviation":0.05},"isRestaurant":true},{"id":26305070,"name":"더꽃돈","poiType":{"category":"음식점","subCategory":"한식","subSubCategory":""},"address":"제주특별자치도 제주시 한림읍 협재리 2514-4","location":{"latitude":33.39285120014696,"longitude":126.2400167267175},"score":3.0,"businessHours":{"businessHours":"12:00 ~ 23:00","closedDaySet":[]},"costPerPerson":-1,"spendingTime":{"hour":1.0,"standardDeviation":0.05},"isRestaurant":true},{"id":10200928,"name":"나목도식당","poiType":{"category":"음식점","subCategory":"한식","subSubCategory":""},"address":"제주특별자치도 서귀포시 표선면 가시리 1877-6","location":{"latitude":33.3535394052176,"longitude":126.77176073260799},"score":4.6,"businessHours":{"businessHours":"09:00 ~ 20:00","closedDaySet":[]},"costPerPerson":-1,"spendingTime":{"hour":1.0,"standardDeviation":0.05},"isRestaurant":true},{"id":7999360,"name":"안거리밖거리","poiType":{"category":"음식점","subCategory":"한식","subSubCategory":""},"address":"제주특별자치도 서귀포시 서귀동 584-3","location":{"latitude":33.244234813358,"longitude":126.564102235957},"score":3.3,"businessHours":{"businessHours":"08:00 ~ 21:00","closedDaySet":[]},"costPerPerson":-1,"spendingTime":{"hour":1.0,"standardDeviation":0.05},"isRestaurant":true},{"id":22893211,"name":"한림칼국수","poiType":{"category":"음식점","subCategory":"한식","subSubCategory":"국수"},"address":"제주특별자치도 제주시 한림읍 한림리 1328-15","location":{"latitude":33.4155670879451,"longitude":126.261506447291},"score":4.4,"businessHours":{"businessHours":"10:30 ~ 17:00","closedDaySet":[]},"costPerPerson":-1,"spendingTime":{"hour":1.0,"standardDeviation":0.05},"isRestaurant":true},{"id":20733624,"name":"바다속고등어쌈밥","poiType":{"category":"음식점","subCategory":"한식","subSubCategory":"해물,생선"},"address":"제주특별자치도 제주시 애월읍 하귀1리 1548","location":{"latitude":33.4842802050754,"longitude":126.406817243158},"score":3.6,"businessHours":{"businessHours":"09:00 ~ 21:00","closedDaySet":[]},"costPerPerson":-1,"spendingTime":{"hour":1.0,"standardDeviation":0.05},"isRestaurant":true},{"id":18678487,"name":"복자씨연탄구이","poiType":{"category":"음식점","subCategory":"한식","subSubCategory":"육류,고기"},"address":"제주특별자치도 서귀포시 성산읍 오조리 367-1","location":{"latitude":33.4692790800661,"longitude":126.919897039456},"score":1.9,"businessHours":{"businessHours":"12:00 ~ 22:00","closedDaySet":[]},"costPerPerson":-1,"spendingTime":{"hour":1.0,"standardDeviation":0.05},"isRestaurant":true},{"id":11048762,"name":"고씨네막창","poiType":{"category":"음식점","subCategory":"한식","subSubCategory":"육류,고기"},"address":"제주특별자치도 제주시 도남동 86-3","location":{"latitude":33.49591807379134,"longitude":126.52873332460409},"score":5.0,"businessHours":{"businessHours":"10:30 ~ 17:00","closedDaySet":[]},"costPerPerson":-1,"spendingTime":{"hour":1.0,"standardDeviation":0.05},"isRestaurant":true},{"id":24910446,"name":"커큐민흑돼지","poiType":{"category":"음식점","subCategory":"한식","subSubCategory":"육류,고기"},"address":"제주특별자치도 서귀포시 성산읍 고성리 236","location":{"latitude":33.44978737206832,"longitude":126.92113636123207},"score":3.1,"businessHours":{"businessHours":"11:00 ~ 22:00","closedDaySet":[]},"costPerPerson":-1,"spendingTime":{"hour":1.0,"standardDeviation":0.05},"isRestaurant":true},{"id":8690519,"name":"황금어장","poiType":{"category":"음식점","subCategory":"한식","subSubCategory":"해물,생선"},"address":"제주특별자치도 제주시 연동 294-114","location":{"latitude":33.484395256844,"longitude":126.495500774504},"score":3.0,"businessHours":{"businessHours":"10:00 ~ 21:00","closedDaySet":[]},"costPerPerson":-1,"spendingTime":{"hour":1.0,"standardDeviation":0.05},"isRestaurant":true},{"id":770406911,"name":"돈해돈찜 제주본점","poiType":{"category":"음식점","subCategory":"한식","subSubCategory":"육류,고기"},"address":"제주특별자치도 제주시 오라2동 3162-3","location":{"latitude":33.4817948533265,"longitude":126.502586820174},"score":1.7,"businessHours":{"businessHours":"10:00 ~ 11:20","closedDaySet":[]},"costPerPerson":-1,"spendingTime":{"hour":1.0,"standardDeviation":0.05},"isRestaurant":true},{"id":15942374,"name":"도라지식당","poiType":{"category":"음식점","subCategory":"한식","subSubCategory":"해물,생선"},"address":"제주특별자치도 제주시 오라3동 2112","location":{"latitude":33.49271318432002,"longitude":126.50594697572438},"score":3.8,"businessHours":{"businessHours":"09:30 ~ 20:50","closedDaySet":["화요일"]},"costPerPerson":-1,"spendingTime":{"hour":1.0,"standardDeviation":0.05},"isRestaurant":true},{"id":14572298,"name":"꽃돼지연탄구이","poiType":{"category":"음식점","subCategory":"한식","subSubCategory":"육류,고기"},"address":"제주특별자치도 서귀포시 대포동 2238","location":{"latitude":33.242074435299486,"longitude":126.44388842574793},"score":3.1,"businessHours":{"businessHours":"15:00 ~ 22:30","closedDaySet":[]},"costPerPerson":-1,"spendingTime":{"hour":1.0,"standardDeviation":0.05},"isRestaurant":true},{"id":19143360,"name":"오가네전복설렁탕","poiType":{"category":"음식점","subCategory":"한식","subSubCategory":"설렁탕"},"address":"제주특별자치도 서귀포시 토평동 1284","location":{"latitude":33.2682504263648,"longitude":126.589476034076},"score":3.0,"businessHours":{"businessHours":"08:00 ~ 16:00","closedDaySet":["화요일"]},"costPerPerson":-1,"spendingTime":{"hour":1.0,"standardDeviation":0.05},"isRestaurant":true},{"id":16496360,"name":"문화통닭","poiType":{"category":"음식점","subCategory":"치킨","subSubCategory":""},"address":"제주특별자치도 서귀포시 성산읍 고성리 1195-7","location":{"latitude":33.4508861411783,"longitude":126.914355470532},"score":3.5,"businessHours":{"businessHours":"14:00 ~ 23:00","closedDaySet":[]},"costPerPerson":-1,"spendingTime":{"hour":1.0,"standardDeviation":0.05},"isRestaurant":true},{"id":24122989,"name":"재연식당","poiType":{"category":"음식점","subCategory":"한식","subSubCategory":""},"address":"제주특별자치도 제주시 구좌읍 세화리 3644-3","location":{"latitude":33.5264796307994,"longitude":126.8560027088713},"score":2.1,"businessHours":{"businessHours":"11:00 ~ 19:00","closedDaySet":[]},"costPerPerson":-1,"spendingTime":{"hour":1.0,"standardDeviation":0.05},"isRestaurant":true},{"id":7967592,"name":"순옥이네명가","poiType":{"category":"음식점","subCategory":"한식","subSubCategory":"해물,생선"},"address":"제주특별자치도 제주시 도두1동 2615-5","location":{"latitude":33.5054906841257,"longitude":126.464981775046},"score":3.1,"businessHours":{"businessHours":"09:00 ~ 20:30","closedDaySet":["설연휴","추석연휴"]},"costPerPerson":-1,"spendingTime":{"hour":1.0,"standardDeviation":0.05},"isRestaurant":true}]