[{"id":8015963,"name":"올레길 6코스(쇠소깍-서귀포 올레)","poiType":{"category":"여행","subCategory":"관광,명소","subSubCategory":"도보여행"},"address":"제주특별자치도 서귀포시 하효동","location":{"latitude":33.251485697457184,"longitude":126.62264408602513},"score":5.0,"businessHours":{"businessHours":"10:30 ~ 17:00","closedDaySet":[]},"costPerPerson":-1,"spendingTime":{"hour":1.0,"standardDeviation":0.05},"isRestaurant":false},{"id":25274725,"name":"새별오름","poiType":{"category":"여행","subCategory":"관광,명소","subSubCategory":"오름"},"address":"제주특별자치도 제주시 애월읍 봉성리 산 59-3","location":{"latitude":33.36619184621153,"longitude":126.35771093080766},"score":4.8,"businessHours":{"businessHours":"10:30 ~ 17:00","closedDaySet":[]},"costPerPerson":-1,"spendingTime":{"hour":1.0,"standardDeviation":0.05},"isRestaurant":false},{"id":26891646,"name":"제주빅볼랜드","poiType":{"category":"여행","subCategory":"스포츠,레저","subSubCategory":""},"address":"제주특별자치도 제주시 애월읍 어음리 산 3","location":{"latitude":33.38968472547078,"longitude":126.3755166559489},"score":1.5,"businessHours":{"businessHours":"10:30 ~ 17:00","closedDaySet":[]},"costPerPerson":-1,"spendingTime":{"hour":1.0,"standardDeviation":0.05},"isRestaurant":false},{"id":11287687,"name":"송당승마장","poiType":{"category":"여행","subCategory":"스포츠,레저","subSubCategory":"승마"},"address":"제주특별자치도 제주시 구좌읍 송당리 산 126","location":{"latitude":33.435965822951815,"longitude":126.73777312998556},"score":5.0,"businessHours":{"businessHours":"09:00 ~ 17:00","closedDaySet":[]},"costPerPerson":-1,"spendingTime":{"hour":1.0,"standardDeviation":0.05},"isRestaurant":false},{"id":8552559,"name":"이호테우해수욕장","poiType":{"category":"여행","subCategory":"관광,명소","subSubCategory":"해수욕장,해변"},"address":"제주특별자치도 제주시 이호1동 1665-13","location":{"latitude":33.49737543510063,"longitude":126.45269170264567},"score":4.3,"businessHours":{"businessHours":"10:00 ~ 19:00","closedDaySet":[]},"costPerPerson":-1,"spendingTime":{"hour":1.0,"standardDeviation":0.05},"isRestaurant":false},{"id":26428769,"name":"제주커피박물관 바움","poiType":{"category":"여행","subCategory":"문화,예술","subSubCategory":"박물관"},"address":"제주특별자치도 서귀포시 성산읍 고성리 2040-1","location":{"latitude":33.43990763842459,"longitude":126.89918972898697},"score":4.0,"businessHours":{"businessHours":"09:00 ~ 18:00","closedDaySet":[]},"costPerPerson":-1,"spendingTime":{"hour":1.0,"standardDeviation":0.05},"isRestaurant":false},{"id":17605888,"name":"올레길 20코스(김녕-하도 올레)","poiType":{"category":"여행","subCategory":"관광,명소","subSubCategory":"도보여행"},"address":"제주특별자치도 제주시 구좌읍 김녕리","location":{"latitude":33.55757083609977,"longitude":126.74520952634441},"score":4.0,"businessHours":{"businessHours":"10:30 ~ 17:00","closedDaySet":[]},"costPerPerson":-1,"spendingTime":{"hour":1.0,"standardDeviation":0.05},"isRestaurant":false},{"id":8640631,"name":"표선해수욕장","poiType":{"category":"여행","subCategory":"관광,명소","subSubCategory":"해수욕장,해변"},"address":"제주특별자치도 서귀포시 표선면 표선리","location":{"latitude":33.32751082623854,"longitude":126.8374266494758},"score":3.9,"businessHours":{"businessHours":"10:00 ~ 19:00","closedDaySet":[]},"costPerPerson":-1,"spendingTime":{"hour":1.0,"standardDeviation":0.05},"isRestaurant":false},{"id":19840282,"name":"제주오션파크","poiType":{"category":"여행","subCategory":"스포츠,레저","subSubCategory":"수상스포츠"},"address":"제주특별자치도 서귀포시 성산읍 시흥리 12-97","location":{"latitude":33.47875257075917,"longitude":126.9136265731311},"score":5.0,"businessHours":{"businessHours":"10:30 ~ 17:00","closedDaySet":[]},"costPerPerson":-1,"spendingTime":{"hour":1.0,"standardDeviation":0.05},"isRestaurant":false},{"id":24021334,"name":"미악산","poiType":{"category":"여행","subCategory":"관광,명소","subSubCategory":"산"},"address":"제주특별자치도 서귀포시 동홍동 2195","location":{"latitude":33.300830605072264,"longitude":126.55446596527912},"score":4.0,"businessHours":{"businessHours":"10:30 ~ 17:00","closedDaySet":[]},"costPerPerson":-1,"spendingTime":{"hour":1.0,"standardDeviation":0.05},"isRestaurant":false},{"id":10507362,"name":"서복전시관","poiType":{"category":"여행","subCategory":"문화,예술","subSubCategory":"전시관"},"address":"제주특별자치도 서귀포시 서귀동 102-3","location":{"latitude":33.2449111941953,"longitude":126.570888925309},"score":5.0,"businessHours":{"businessHours":"09:00 ~ 18:00","closedDaySet":[]},"costPerPerson":-1,"spendingTime":{"hour":1.0,"standardDeviation":0.05},"isRestaurant":false},{"id":17408270,"name":"그리스신화박물관","poiType":{"category":"여행","subCategory":"문화,예술","subSubCategory":"박물관"},"address":"제주특별자치도 제주시 한림읍 금악리 산 30-12","location":{"latitude":33.34867237976051,"longitude":126.35709217846744},"score":4.9,"businessHours":{"businessHours":"09:00 ~ 17:00","closedDaySet":[]},"costPerPerson":-1,"spendingTime":{"hour":1.0,"standardDeviation":0.05},"isRestaurant":false},{"id":21500227,"name":"에코랜드테마파크","poiType":{"category":"여행","subCategory":"관광,명소","subSubCategory":"테마파크"},"address":"제주특별자치도 제주시 조천읍 교래리 385-1","location":{"latitude":33.4483387252476,"longitude":126.670278657345},"score":3.5,"businessHours":{"businessHours":"08:40 ~ 17:00","closedDaySet":[]},"costPerPerson":-1,"spendingTime":{"hour":1.0,"standardDeviation":0.05},"touristAttractionType":"Themepark","isRestaurant":false},{"id":19175660,"name":"이왈종미술관","poiType":{"category":"여행","subCategory":"문화,예술","subSubCategory":"미술관"},"address":"제주특별자치도 서귀포시 동홍동 281-2","location":{"latitude":33.24519634965441,"longitude":126.57381030974645},"score":1.5,"businessHours":{"businessHours":"10:00 ~ 17:00","closedDaySet":[]},"costPerPerson":-1,"spendingTime":{"hour":1.0,"standardDeviation":0.05},"isRestaurant":false},{"id":12545248,"name":"원앙폭포","poiType":{"category":"여행","subCategory":"관광,명소","subSubCategory":"폭포"},"address":"제주특별자치도 서귀포시 상효동 1463","location":{"latitude":33.300177753530456,"longitude":126.581328672506},"score":5.0,"businessHours":{"businessHours":"10:30 ~ 17:00","closedDaySet":[]},"costPerPerson":-1,"spendingTime":{"hour":1.0,"standardDeviation":0.05},"isRestaurant":false},{"id":11131088,"name":"성이시돌목장","poiType":{"category":"여행","subCategory":"체험","subSubCategory":"농장,목장"},"address":"제주특별자치도 제주시 한림읍 금악리 142","location":{"latitude":33.34777144638038,"longitude":126.32732044900726},"score":3.0,"businessHours":{"businessHours":"10:30 ~ 17:00","closedDaySet":[]},"costPerPerson":-1,"spendingTime":{"hour":1.0,"standardDeviation":0.05},"isRestaurant":false},{"id":23150855,"name":"한화아쿠아플라넷 제주","poiType":{"category":"여행","subCategory":"체험","subSubCategory":"아쿠아리움"},"address":"제주특별자치도 서귀포시 성산읍 고성리 127-1","location":{"latitude":33.4330536347133,"longitude":126.927879232127},"score":3.0,"businessHours":{"businessHours":"10:00 ~ 17:50","closedDaySet":[]},"costPerPerson":-1,"spendingTime":{"hour":1.0,"standardDeviation":0.05},"touristAttractionType":"Aquarium","isRestaurant":false},{"id":600432495,"name":"중문승마공원","poiType":{"category":"여행","subCategory":"스포츠,레저","subSubCategory":"승마"},"address":"제주특별자치도 서귀포시 대포동 2270","location":{"latitude":33.24231630176814,"longitude":126.44555214321842},"score":3.4,"businessHours":{"businessHours":"10:00 ~ 17:30","closedDaySet":[]},"costPerPerson":-1,"spendingTime":{"hour":1.0,"standardDeviation":0.05},"isRestaurant":false},{"id":8574121,"name":"제주평화박물관","poiType":{"category":"여행","subCategory":"문화,예술","subSubCategory":"박물관"},"address":"제주특별자치도 제주시 한경면 청수리 1166","location":{"latitude":33.305644128866426,"longitude":126.24922777775902},"score":4.2,"businessHours":{"businessHours":"08:30 ~ 16:00","closedDaySet":[]},"costPerPerson":-1,"spendingTime":{"hour":1.0,"standardDeviation":0.05},"isRestaurant":false},{"id":12728434,"name":"삼다초콜릿체험장","poiType":{"category":"여행","subCategory":"체험","subSubCategory":"체험학습장"},"address":"제주특별자치도 서귀포시 표선면 표선리 2298-13","location":{"latitude":33.311934902040264,"longitude":126.81970358816714},"score":5.0,"businessHours":{"businessHours":"09:00 ~ 19:00","closedDaySet":[]},"costPerPerson":-1,"spendingTime":{"hour":1.0,"standardDeviation":0.05},"isRestaurant":false},{"id":8173573,"name":"화순금모래해수욕장","poiType":{"category":"여행","subCategory":"관광,명소","subSubCategory":"해수욕장,해변"},"address":"제주특별자치도 서귀포시 안덕면 화순리 833-2","location":{"latitude":33.24003093645501,"longitude":126.33359031771349},"score":3.8,"businessHours":{"businessHours":"10:00 ~ 19:00","closedDaySet":[]},"costPerPerson":-1,"spendingTime":{"hour":1.0,"standardDeviation":0.05},"isRestaurant":false},{"id":10717401,"name":"정방폭포","poiType":{"category":"여행","subCategory":"관광,명소","subSubCategory":"폭포"},"address":"제주특별자치도 서귀포시 동홍동 299-3","location":{"latitude":33.24499760541332,"longitude":126.57160516230462},"score":5.0,"businessHours":{"businessHours":"08:30 ~ 18:00","closedDaySet":[]},"costPerPerson":-1,"spendingTime":{"hour":1.0,"standardDeviation":0.05},"isRestaurant":false},{"id":7934984,"name":"삼양해수욕장","poiType":{"category":"여행","subCategory":"관광,명소","subSubCategory":"해수욕장,해변"},"address":"제주특별자치도 제주시 삼양2동 1960-4","location":{"latitude":33.525866944064774,"longitude":126.58553716709196},"score":5.0,"businessHours":{"businessHours":"10:00 ~ 19:00","closedDaySet":[]},"costPerPerson":-1,"spendingTime":{"hour":1.0,"standardDeviation":0.05},"isRestaurant":false},{"id":9461977,"name":"카멜리아힐","poiType":{"category":"여행","subCategory":"관광,명소","subSubCategory":"수목원,식물원"},"address":"제주특별자치도 서귀포시 안덕면 상창리 271","location":{"latitude":33.289633101620076,"longitude":126.3700095442666},"score":4.2,"businessHours":{"businessHours":"08:30 ~ 17:00","closedDaySet":[]},"costPerPerson":-1,"spendingTime":{"hour":1.0,"standardDeviation":0.05},"isRestaurant":false},{"id":25285071,"name":"성산일출봉","poiType":{"category":"여행","subCategory":"관광,명소","subSubCategory":"산봉우리"},"address":"제주특별자치도 서귀포시 성산읍 성산리 78","location":{"latitude":33.45913544905873,"longitude":126.94053687415735},"score":4.5,"businessHours":{"businessHours":"07:30 ~ 18:00","closedDaySet":[]},"costPerPerson":-1,"spendingTime":{"hour":1.0,"standardDeviation":0.05},"isRestaurant":false},{"id":7863269,"name":"만장굴","poiType":{"category":"여행","subCategory":"관광,명소","subSubCategory":"동굴"},"address":"제주특별자치도 제주시 구좌읍 김녕리 3341-3","location":{"latitude":33.527930828571975,"longitude":126.76935031969079},"score":3.5,"businessHours":{"businessHours":"09:00 ~ 18:00","closedDaySet":["첫째 수요일"]},"costPerPerson":-1,"spendingTime":{"hour":1.0,"standardDeviation":0.05},"touristAttractionType":"Cave","isRestaurant":false},{"id":14080134,"name":"산방산 유람선","poiType":{"category":"여행","subCategory":"투어","subSubCategory":"유람선"},"address":"제주특별자치도 서귀포시 안덕면 화순리 636-15","location":{"latitude":33.237014077860124,"longitude":126.33526122235429},"score":5.0,"businessHours":{"businessHours":"10:30 ~ 17:00","closedDaySet":[]},"costPerPerson":-1,"spendingTime":{"hour":1.0,"standardDeviation":0.05},"isRestaurant":false},{"id":7878638,"name":"무수천","poiType":{"category":"여행","subCategory":"관광,명소","subSubCategory":"계곡"},"address":"제주특별자치도 제주시 애월읍 광령리","location":{"latitude":33.46105149574116,"longitude":126.44764558782373},"score":4.0,"businessHours":{"businessHours":"10:30 ~ 17:00","closedDaySet":[]},"costPerPerson":-1,"spendingTime":{"hour":1.0,"standardDeviation":0.05},"isRestaurant":false},{"id":10626234,"name":"올레길 1코스(시흥-광치기 올레)","poiType":{"category":"여행","subCategory":"관광,명소","subSubCategory":"도보여행"},"address":"제주특별자치도 서귀포시 성산읍 시흥리","location":{"latitude":33.47719169081238,"longitude":126.8958839269975},"score":4.6,"businessHours":{"businessHours":"10:30 ~ 17:00","closedDaySet":[]},"costPerPerson":-1,"spendingTime":{"hour":1.0,"standardDeviation":0.05},"isRestaurant":false},{"id":11041974,"name":"검멀레해변","poiType":{"category":"여행","subCategory":"관광,명소","subSubCategory":"해수욕장,해변"},"address":"제주특별자치도 제주시 우도면 연평리","location":{"latitude":33.49717161992762,"longitude":126.96690118811367},"score":3.7,"businessHours":{"businessHours":"10:30 ~ 17:00","closedDaySet":[]},"costPerPerson":-1,"spendingTime":{"hour":1.0,"standardDeviation":0.05},"isRestaurant":false},{"id":15106119,"name":"수목원테마파크","poiType":{"category":"여행","subCategory":"관광,명소","subSubCategory":"수목원,식물원"},"address":"제주특별자치도 제주시 연동 1320","location":{"latitude":33.47060624988217,"longitude":126.48822774762183},"score":2.8,"businessHours":{"businessHours":"09:00 ~ 20:00","closedDaySet":[]},"costPerPerson":-1,"spendingTime":{"hour":1.0,"standardDeviation":0.05},"isRestaurant":false},{"id":13337646,"name":"거린사슴 전망대","poiType":{"category":"여행","subCategory":"관광,명소","subSubCategory":"전망대"},"address":"제주특별자치도 서귀포시 대포동 산 2-11","location":{"latitude":33.30745658521264,"longitude":126.45456267146497},"score":4.0,"businessHours":{"businessHours":"10:30 ~ 17:00","closedDaySet":[]},"costPerPerson":-1,"spendingTime":{"hour":1.0,"standardDeviation":0.05},"isRestaurant":false},{"id":8523750,"name":"이중섭거리","poiType":{"category":"여행","subCategory":"관광,명소","subSubCategory":"테마거리"},"address":"제주특별자치도 서귀포시 서귀동 512","location":{"latitude":33.24565336356433,"longitude":126.56418094123418},"score":3.5,"businessHours":{"businessHours":"10:30 ~ 17:00","closedDaySet":[]},"costPerPerson":-1,"spendingTime":{"hour":1.0,"standardDeviation":0.05},"isRestaurant":false},{"id":10451955,"name":"북촌돌하르방공원","poiType":{"category":"여행","subCategory":"공원","subSubCategory":""},"address":"제주특별자치도 제주시 조천읍 북촌리 976","location":{"latitude":33.539627597165435,"longitude":126.68947497167053},"score":3.8,"businessHours":{"businessHours":"09:00 ~ 16:30","closedDaySet":[]},"costPerPerson":-1,"spendingTime":{"hour":1.0,"standardDeviation":0.05},"isRestaurant":false},{"id":7991509,"name":"아프리카박물관","poiType":{"category":"여행","subCategory":"문화,예술","subSubCategory":"박물관"},"address":"제주특별자치도 서귀포시 대포동 1833","location":{"latitude":33.23973995317803,"longitude":126.4293498841262},"score":4.0,"businessHours":{"businessHours":"09:00 ~ 19:00","closedDaySet":[]},"costPerPerson":-1,"spendingTime":{"hour":1.0,"standardDeviation":0.05},"isRestaurant":false},{"id":8318161,"name":"방림원","poiType":{"category":"여행","subCategory":"관광,명소","subSubCategory":"수목원,식물원"},"address":"제주특별자치도 제주시 한경면 저지리 2120-91","location":{"latitude":33.3371448866613,"longitude":126.268536370405},"score":4.0,"businessHours":{"businessHours":"08:30 ~ 16:00","closedDaySet":[]},"costPerPerson":-1,"spendingTime":{"hour":1.0,"standardDeviation":0.05},"isRestaurant":false},{"id":11943943,"name":"올레길 16코스(고내-광령 올레)","poiType":{"category":"여행","subCategory":"관광,명소","subSubCategory":"도보여행"},"address":"제주특별자치도 제주시 애월읍 고내리 1111-2","location":{"latitude":33.46691842308544,"longitude":126.33804760576471},"score":4.0,"businessHours":{"businessHours":"10:30 ~ 17:00","closedDaySet":[]},"costPerPerson":-1,"spendingTime":{"hour":1.0,"standardDeviation":0.05},"isRestaurant":false},{"id":20056455,"name":"엉알해안","poiType":{"category":"여행","subCategory":"관광,명소","subSubCategory":"해수욕장,해변"},"address":"제주특별자치도 제주시 한경면 고산리","location":{"latitude":33.299421045816096,"longitude":126.1675163261072},"score":4.5,"businessHours":{"businessHours":"10:30 ~ 17:00","closedDaySet":[]},"costPerPerson":-1,"spendingTime":{"hour":1.0,"standardDeviation":0.05},"isRestaurant":false},{"id":11470870,"name":"더마파크","poiType":{"category":"여행","subCategory":"스포츠,레저","subSubCategory":"승마"},"address":"제주특별자치도 제주시 한림읍 월림리 2365","location":{"latitude":33.354130924993036,"longitude":126.24432467889116},"score":4.5,"businessHours":{"businessHours":"09:00 ~ 18:00","closedDaySet":[]},"costPerPerson":-1,"spendingTime":{"hour":1.0,"standardDeviation":0.05},"isRestaurant":false},{"id":7997639,"name":"어승생승마장","poiType":{"category":"여행","subCategory":"스포츠,레저","subSubCategory":"승마"},"address":"제주특별자치도 제주시 노형동 산 14-1","location":{"latitude":33.42566345988954,"longitude":126.49081479786254},"score":5.0,"businessHours":{"businessHours":"09:00 ~ 17:00","closedDaySet":[]},"costPerPerson":-1,"spendingTime":{"hour":1.0,"standardDeviation":0.05},"isRestaurant":false},{"id":8067272,"name":"제주4.3평화공원","poiType":{"category":"여행","subCategory":"공원","subSubCategory":""},"address":"제주특별자치도 제주시 봉개동 237-2","location":{"latitude":33.45126895665325,"longitude":126.61792762950304},"score":3.0,"businessHours":{"businessHours":"09:00 ~ 18:00","closedDaySet":["첫째 월요일","셋째 월요일"]},"costPerPerson":-1,"spendingTime":{"hour":1.0,"standardDeviation":0.05},"isRestaurant":false},{"id":7923901,"name":"삼성혈","poiType":{"category":"여행","subCategory":"관광,명소","subSubCategory":"문화유적"},"address":"제주특별자치도 제주시 이도1동 1313","location":{"latitude":33.504429186988276,"longitude":126.52876455815637},"score":2.5,"businessHours":{"businessHours":"10:00 ~ 18:00","closedDaySet":[]},"costPerPerson":-1,"spendingTime":{"hour":1.0,"standardDeviation":0.05},"isRestaurant":false},{"id":8159415,"name":"협재해수욕장","poiType":{"category":"여행","subCategory":"관광,명소","subSubCategory":"해수욕장,해변"},"address":"제주특별자치도 제주시 한림읍 협재리 2447","location":{"latitude":33.393866514193014,"longitude":126.23915662296389},"score":4.7,"businessHours":{"businessHours":"10:00 ~ 19:00","closedDaySet":[]},"costPerPerson":-1,"spendingTime":{"hour":1.0,"standardDeviation":0.05},"isRestaurant":false},{"id":24894904,"name":"납읍난대림지역","poiType":{"category":"여행","subCategory":"관광,명소","subSubCategory":"생태보존,서식지"},"address":"제주특별자치도 제주시 애월읍 납읍리 1457-1","location":{"latitude":33.43416871246682,"longitude":126.33056317085088},"score":5.0,"businessHours":{"businessHours":"10:30 ~ 17:00","closedDaySet":[]},"costPerPerson":-1,"spendingTime":{"hour":1.0,"standardDeviation":0.05},"isRestaurant":false},{"id":8192179,"name":"국립제주박물관","poiType":{"category":"여행","subCategory":"문화,예술","subSubCategory":"박물관"},"address":"제주특별자치도 제주시 건입동 261","location":{"latitude":33.51359587882404,"longitude":126.54887625954694},"score":3.8,"businessHours":{"businessHours":"10:00 ~ 18:00","closedDaySet":["화요일","수요일","추석당일","목요일","설당일","1월1일","월요일"]},"costPerPerson":-1,"spendingTime":{"hour":1.0,"standardDeviation":0.05},"isRestaurant":false},{"id":18355590,"name":"놀라운트릭아이미술관","poiType":{"category":"여행","subCategory":"문화,예술","subSubCategory":"미술관"},"address":"제주특별자치도 제주시 한림읍 금악리 산 30-12","location":{"latitude":33.34720616877237,"longitude":126.35739946978387},"score":5.0,"businessHours":{"businessHours":"09:00 ~ 18:00","closedDaySet":[]},"costPerPerson":-1,"spendingTime":{"hour":1.0,"standardDeviation":0.05},"isRestaurant":false},{"id":18514310,"name":"제주도","poiType":{"category":"여행","subCategory":"관광,명소","subSubCategory":"섬"},"address":"제주특별자치도 제주시 오등동","location":{"latitude":33.37977706007333,"longitude":126.54587366231789},"score":4.7,"businessHours":{"businessHours":"10:30 ~ 17:00","closedDaySet":[]},"costPerPerson":-1,"spendingTime":{"hour":1.0,"standardDeviation":0.05},"touristAttractionType":"Island","isRestaurant":false},{"id":10289213,"name":"두산봉","poiType":{"category":"여행","subCategory":"관광,명소","subSubCategory":"오름"},"address":"제주특별자치도 서귀포시 성산읍 시흥리 2656","location":{"latitude":33.47957696909496,"longitude":126.88538448585679},"score":3.0,"businessHours":{"businessHours":"10:30 ~ 17:00","closedDaySet":[]},"costPerPerson":-1,"spendingTime":{"hour":1.0,"standardDeviation":0.05},"isRestaurant":false},{"id":25303334,"name":"아끈다랑쉬","poiType":{"category":"여행","subCategory":"관광,명소","subSubCategory":"오름"},"address":"제주특별자치도 제주시 구좌읍 세화리 2593-1","location":{"latitude":33.47446564000675,"longitude":126.83133661611444},"score":5.0,"businessHours":{"businessHours":"10:30 ~ 17:00","closedDaySet":[]},"costPerPerson":-1,"spendingTime":{"hour":1.0,"standardDeviation":0.05},"isRestaurant":false},{"id":12887024,"name":"세계조가비박물관","poiType":{"category":"여행","subCategory":"문화,예술","subSubCategory":"박물관"},"address":"제주특별자치도 서귀포시 서홍동 557-1","location":{"latitude":33.247444159416986,"longitude":126.5515830958324},"score":5.0,"businessHours":{"businessHours":"08:30 ~ 18:00","closedDaySet":[]},"costPerPerson":-1,"spendingTime":{"hour":1.0,"standardDeviation":0.05},"isRestaurant":false},{"id":18406830,"name":"뷰크레스트","poiType":{"category":"여행","subCategory":"문화,예술","subSubCategory":"미술관"},"address":"제주특별자치도 서귀포시 호근동 411","location":{"latitude":33.2414140749728,"longitude":126.536064443332},"score":5.0,"businessHours":{"businessHours":"10:30 ~ 18:00","closedDaySet":["수요일"]},"costPerPerson":-1,"spendingTime":{"hour":1.0,"standardDeviation":0.05},"isRestaurant":false},{"id":9720913,"name":"마린파크","poiType":{"category":"여행","subCategory":"관광,명소","subSubCategory":"테마파크"},"address":"제주특별자치도 서귀포시 안덕면 화순리 825","location":{"latitude":33.24080890138889,"longitude":126.33474318365398},"score":4.5,"businessHours":{"businessHours":"09:30 ~ 18:00","closedDaySet":[]},"costPerPerson":-1,"spendingTime":{"hour":1.0,"standardDeviation":0.05},"touristAttractionType":"Themepark","isRestaurant":false},{"id":8544328,"name":"정석항공관","poiType":{"category":"여행","subCategory":"문화,예술","subSubCategory":"전시관"},"address":"제주특별자치도 서귀포시 표선면 가시리 3795-2","location":{"latitude":33.39415927917157,"longitude":126.72258493279264},"score":3.0,"businessHours":{"businessHours":"09:00 ~ 17:00","closedDaySet":["추석당일","설당일","월요일"]},"costPerPerson":-1,"spendingTime":{"hour":1.0,"standardDeviation":0.05},"isRestaurant":false},{"id":12418108,"name":"화순 곶자왈생태탐방숲길","poiType":{"category":"여행","subCategory":"관광,명소","subSubCategory":"숲"},"address":"제주특별자치도 서귀포시 안덕면 화순리","location":{"latitude":33.264041075803455,"longitude":126.33195238308832},"score":5.0,"businessHours":{"businessHours":"10:30 ~ 17:00","closedDaySet":[]},"costPerPerson":-1,"spendingTime":{"hour":1.0,"standardDeviation":0.05},"isRestaurant":false},{"id":13723680,"name":"대평포구","poiType":{"category":"여행","subCategory":"관광,명소","subSubCategory":"항구,포구"},"address":"제주특별자치도 서귀포시 안덕면 감산리 982-5","location":{"latitude":33.23721025358942,"longitude":126.36164453954899},"score":5.0,"businessHours":{"businessHours":"10:30 ~ 17:00","closedDaySet":[]},"costPerPerson":-1,"spendingTime":{"hour":1.0,"standardDeviation":0.05},"isRestaurant":false},{"id":23397740,"name":"제주허브동산","poiType":{"category":"여행","subCategory":"관광,명소","subSubCategory":"관광농원"},"address":"제주특별자치도 서귀포시 표선면 표선리 2608","location":{"latitude":33.32968297754953,"longitude":126.8151336869011},"score":3.0,"businessHours":{"businessHours":"09:00 ~ 22:30","closedDaySet":[]},"costPerPerson":-1,"spendingTime":{"hour":1.0,"standardDeviation":0.05},"touristAttractionType":"Farm","isRestaurant":false},{"id":11332661,"name":"오설록티뮤지엄","poiType":{"category":"여행","subCategory":"문화,예술","subSubCategory":"박물관"},"address":"제주특별자치도 서귀포시 안덕면 서광리 1235-1","location":{"latitude":33.3059265460649,"longitude":126.289443017025},"score":3.5,"businessHours":{"businessHours":"09:00 ~ 18:00","closedDaySet":[]},"costPerPerson":-1,"spendingTime":{"hour":1.0,"standardDeviation":0.05},"isRestaurant":false},{"id":14665730,"name":"제주잠수함관광 마라도잠수함","poiType":{"category":"여행","subCategory":"관광,명소","subSubCategory":""},"address":"제주특별자치도 서귀포시 안덕면 사계리 2147-32","location":{"latitude":33.22804724502295,"longitude":126.30539842251194},"score":3.7,"businessHours":{"businessHours":"08:30 ~ 17:30","closedDaySet":[]},"costPerPerson":-1,"spendingTime":{"hour":1.0,"standardDeviation":0.05},"isRestaurant":false},{"id":19741107,"name":"제주실탄사격장","poiType":{"category":"여행","subCategory":"스포츠,레저","subSubCategory":"사격,궁도"},"address":"제주특별자치도 서귀포시 상예동 2802","location":{"latitude":33.26367677804702,"longitude":126.38568516388622},"score":4.6,"businessHours":{"businessHours":"10:00 ~ 21:00","closedDaySet":[]},"costPerPerson":-1,"spendingTime":{"hour":1.0,"standardDeviation":0.05},"isRestaurant":false},{"id":10626439,"name":"용눈이오름","poiType":{"category":"여행","subCategory":"관광,명소","subSubCategory":"오름"},"address":"제주특별자치도 제주시 구좌읍 종달리 산 38","location":{"latitude":33.45969897294799,"longitude":126.83250994763965},"score":4.8,"businessHours":{"businessHours":"10:30 ~ 17:00","closedDaySet":[]},"costPerPerson":-1,"spendingTime":{"hour":1.0,"standardDeviation":0.05},"isRestaurant":false},{"id":26041452,"name":"믿거나말거나박물관","poiType":{"category":"여행","subCategory":"관광,명소","subSubCategory":""},"address":"제주특별자치도 서귀포시 색달동 2864-2","location":{"latitude":33.251222299738,"longitude":126.41281789446},"score":1.5,"businessHours":{"businessHours":"09:00 ~ 18:00","closedDaySet":[]},"costPerPerson":-1,"spendingTime":{"hour":1.0,"standardDeviation":0.05},"isRestaurant":false},{"id":10271092,"name":"큰노꼬메오름","poiType":{"category":"여행","subCategory":"관광,명소","subSubCategory":"오름"},"address":"제주특별자치도 제주시 애월읍 유수암리 산 138","location":{"latitude":33.38909611245896,"longitude":126.41143961650904},"score":4.9,"businessHours":{"businessHours":"10:30 ~ 17:00","closedDaySet":[]},"costPerPerson":-1,"spendingTime":{"hour":1.0,"standardDeviation":0.05},"isRestaurant":false},{"id":15270363,"name":"성읍승마장","poiType":{"category":"여행","subCategory":"스포츠,레저","subSubCategory":"승마"},"address":"제주특별자치도 서귀포시 표선면 성읍리 2060-5","location":{"latitude":33.39795183648784,"longitude":126.78724723319324},"score":3.7,"businessHours":{"businessHours":"09:30 ~ 16:00","closedDaySet":[]},"costPerPerson":-1,"spendingTime":{"hour":1.0,"standardDeviation":0.05},"isRestaurant":false},{"id":8335690,"name":"동백동산","poiType":{"category":"여행","subCategory":"관광,명소","subSubCategory":"숲"},"address":"제주특별자치도 제주시 조천읍 선흘리 산 12","location":{"latitude":33.516452187343525,"longitude":126.71602796058508},"score":5.0,"businessHours":{"businessHours":"09:00 ~ 18:00","closedDaySet":[]},"costPerPerson":-1,"spendingTime":{"hour":1.0,"standardDeviation":0.05},"isRestaurant":false},{"id":7952708,"name":"렛츠런파크제주","poiType":{"category":"여행","subCategory":"스포츠,레저","subSubCategory":"경마"},"address":"제주특별자치도 제주시 애월읍 유수암리 1206","location":{"latitude":33.40824667166636,"longitude":126.39807475306424},"score":1.7,"businessHours":{"businessHours":"09:00 ~ 18:00","closedDaySet":[]},"costPerPerson":-1,"spendingTime":{"hour":1.0,"standardDeviation":0.05},"isRestaurant":false},{"id":25200772,"name":"다랑쉬","poiType":{"category":"여행","subCategory":"관광,명소","subSubCategory":"오름"},"address":"제주특별자치도 제주시 구좌읍 세화리 산 6","location":{"latitude":33.47766871369135,"longitude":126.82152691952777},"score":5.0,"businessHours":{"businessHours":"10:30 ~ 17:00","closedDaySet":[]},"costPerPerson":-1,"spendingTime":{"hour":1.0,"standardDeviation":0.05},"isRestaurant":false},{"id":8064310,"name":"유리의성","poiType":{"category":"여행","subCategory":"관광,명소","subSubCategory":"테마파크"},"address":"제주특별자치도 제주시 한경면 저지리 3135-1","location":{"latitude":33.31468675506875,"longitude":126.27368957806138},"score":4.5,"businessHours":{"businessHours":"09:00 ~ 17:30","closedDaySet":[]},"costPerPerson":-1,"spendingTime":{"hour":1.0,"standardDeviation":0.05},"touristAttractionType":"Themepark","isRestaurant":false},{"id":7813414,"name":"백록담","poiType":{"category":"여행","subCategory":"관광,명소","subSubCategory":"호수"},"address":"제주특별자치도 서귀포시 토평동 산 15-1","location":{"latitude":33.362419581461914,"longitude":126.53334146966726},"score":3.0,"businessHours":{"businessHours":"10:30 ~ 17:00","closedDaySet":[]},"costPerPerson":-1,"spendingTime":{"hour":1.0,"standardDeviation":0.05},"isRestaurant":false},{"id":1214707005,"name":"제주신화월드 신화테마파크","poiType":{"category":"여행","subCategory":"관광,명소","subSubCategory":"테마파크"},"address":"제주특별자치도 서귀포시 안덕면 서광리 산 35-20","location":{"latitude":33.30476051387013,"longitude":126.31528217752383},"score":5.0,"businessHours":{"businessHours":"10:30 ~ 17:00","closedDaySet":[]},"costPerPerson":-1,"spendingTime":{"hour":1.0,"standardDeviation":0.05},"touristAttractionType":"Themepark","isRestaurant":false},{"id":25186462,"name":"군산","poiType":{"category":"여행","subCategory":"관광,명소","subSubCategory":"오름"},"address":"제주특별자치도 서귀포시 안덕면 창천리 산 3-1","location":{"latitude":33.253132008838406,"longitude":126.36996310274336},"score":4.8,"businessHours":{"businessHours":"10:30 ~ 17:00","closedDaySet":[]},"costPerPerson":-1,"spendingTime":{"hour":1.0,"standardDeviation":0.05},"isRestaurant":false},{"id":26230962,"name":"박수기정","poiType":{"category":"여행","subCategory":"관광,명소","subSubCategory":""},"address":"제주특별자치도 서귀포시 안덕면 감산리","location":{"latitude":33.2364666210652,"longitude":126.359172811143},"score":5.0,"businessHours":{"businessHours":"10:30 ~ 17:00","closedDaySet":[]},"costPerPerson":-1,"spendingTime":{"hour":1.0,"standardDeviation":0.05},"isRestaurant":false},{"id":8067359,"name":"제주절물자연휴양림","poiType":{"category":"여행","subCategory":"관광,명소","subSubCategory":"자연휴양림"},"address":"제주특별자치도 제주시 봉개동 산 78-1","location":{"latitude":33.43915336154831,"longitude":126.6280122529194},"score":4.8,"businessHours":{"businessHours":"07:00 ~ 18:00","closedDaySet":[]},"costPerPerson":-1,"spendingTime":{"hour":1.0,"standardDeviation":0.05},"isRestaurant":false},{"id":819488120,"name":"제주해양동물박물관","poiType":{"category":"여행","subCategory":"문화,예술","subSubCategory":"박물관"},"address":"제주특별자치도 서귀포시 성산읍 수산리 3233","location":{"latitude":33.4293979772614,"longitude":126.855136586205},"score":5.0,"businessHours":{"businessHours":"09:00 ~ 18:00","closedDaySet":["둘째 수요일","넷째 수요일"]},"costPerPerson":-1,"spendingTime":{"hour":1.0,"standardDeviation":0.05},"isRestaurant":false},{"id":26608807,"name":"헬로키티아일랜드","poiType":{"category":"여행","subCategory":"문화,예술","subSubCategory":"박물관"},"address":"제주특별자치도 서귀포시 안덕면 상창리 1963-2","location":{"latitude":33.28995182363793,"longitude":126.35207040773179},"score":3.0,"businessHours":{"businessHours":"09:00 ~ 17:00","closedDaySet":[]},"costPerPerson":-1,"spendingTime":{"hour":1.0,"standardDeviation":0.05},"isRestaurant":false},{"id":10795473,"name":"제주성지","poiType":{"category":"여행","subCategory":"관광,명소","subSubCategory":"문화유적"},"address":"제주특별자치도 제주시 이도1동 1437-6","location":{"latitude":33.510129051072624,"longitude":126.52547462750417},"score":1.5,"businessHours":{"businessHours":"10:30 ~ 17:00","closedDaySet":[]},"costPerPerson":-1,"spendingTime":{"hour":1.0,"standardDeviation":0.05},"isRestaurant":false},{"id":13322621,"name":"제주돌문화공원","poiType":{"category":"여행","subCategory":"관광,명소","subSubCategory":"테마파크"},"address":"제주특별자치도 제주시 조천읍 교래리 119","location":{"latitude":33.448219302548246,"longitude":126.65906432767346},"score":5.0,"businessHours":{"businessHours":"09:00 ~ 18:00","closedDaySet":[]},"costPerPerson":-1,"spendingTime":{"hour":1.0,"standardDeviation":0.05},"touristAttractionType":"Themepark","isRestaurant":false},{"id":8100102,"name":"천지연폭포","poiType":{"category":"여행","subCategory":"관광,명소","subSubCategory":"폭포"},"address":"제주특별자치도 서귀포시 서홍동 2565","location":{"latitude":33.24720951831206,"longitude":126.55452442446125},"score":4.3,"businessHours":{"businessHours":"08:00 ~ 21:20","closedDaySet":[]},"costPerPerson":-1,"spendingTime":{"hour":1.0,"standardDeviation":0.05},"isRestaurant":false},{"id":8085765,"name":"차귀도","poiType":{"category":"여행","subCategory":"관광,명소","subSubCategory":"섬"},"address":"제주특별자치도 제주시 한경면 고산리 125","location":{"latitude":33.31155481996162,"longitude":126.14762587274679},"score":5.0,"businessHours":{"businessHours":"10:30 ~ 17:00","closedDaySet":[]},"costPerPerson":-1,"spendingTime":{"hour":1.0,"standardDeviation":0.05},"touristAttractionType":"Island","isRestaurant":false},{"id":10801589,"name":"제주도립미술관","poiType":{"category":"여행","subCategory":"문화,예술","subSubCategory":"미술관"},"address":"제주특별자치도 제주시 연동 680-7","location":{"latitude":33.4525838816321,"longitude":126.48964609031073},"score":4.0,"businessHours":{"businessHours":"09:00 ~ 17:30","closedDaySet":["추석당일","설당일","월요일","1월1일"]},"costPerPerson":-1,"spendingTime":{"hour":1.0,"standardDeviation":0.05},"isRestaurant":false},{"id":7964906,"name":"소정방폭포","poiType":{"category":"여행","subCategory":"관광,명소","subSubCategory":"폭포"},"address":"제주특별자치도 서귀포시 서귀동","location":{"latitude":33.24522746774138,"longitude":126.57763438761515},"score":5.0,"businessHours":{"businessHours":"10:30 ~ 17:00","closedDaySet":[]},"costPerPerson":-1,"spendingTime":{"hour":1.0,"standardDeviation":0.05},"isRestaurant":false},{"id":17151058,"name":"대유랜드","poiType":{"category":"여행","subCategory":"스포츠,레저","subSubCategory":"사격,궁도"},"address":"제주특별자치도 서귀포시 상예동 144","location":{"latitude":33.2777832266953,"longitude":126.395349692738},"score":3.1,"businessHours":{"businessHours":"09:00 ~ 20:00","closedDaySet":[]},"costPerPerson":-1,"spendingTime":{"hour":1.0,"standardDeviation":0.05},"isRestaurant":false},{"id":8413659,"name":"섭지코지","poiType":{"category":"여행","subCategory":"관광,명소","subSubCategory":"바위"},"address":"제주특별자치도 서귀포시 성산읍 고성리 87","location":{"latitude":33.42393858291829,"longitude":126.93060918532483},"score":4.6,"businessHours":{"businessHours":"09:00 ~ 18:00","closedDaySet":[]},"costPerPerson":-1,"spendingTime":{"hour":1.0,"standardDeviation":0.05},"isRestaurant":false},{"id":19585161,"name":"제주항공우주박물관","poiType":{"category":"여행","subCategory":"문화,예술","subSubCategory":"박물관"},"address":"제주특별자치도 서귀포시 안덕면 서광리 산 39","location":{"latitude":33.30424427635765,"longitude":126.29968723748013},"score":5.0,"businessHours":{"businessHours":"09:00 ~ 18:00","closedDaySet":["셋째 월요일"]},"costPerPerson":-1,"spendingTime":{"hour":1.0,"standardDeviation":0.05},"isRestaurant":false},{"id":8623346,"name":"하멜상선전시관","poiType":{"category":"여행","subCategory":"문화,예술","subSubCategory":"전시관"},"address":"제주특별자치도 서귀포시 안덕면 사계리 116-7","location":{"latitude":33.23330835877579,"longitude":126.31370353135637},"score":3.5,"businessHours":{"businessHours":"08:00 ~ 17:00","closedDaySet":[]},"costPerPerson":-1,"spendingTime":{"hour":1.0,"standardDeviation":0.05},"isRestaurant":false},{"id":21348535,"name":"산굼부리","poiType":{"category":"여행","subCategory":"관광,명소","subSubCategory":""},"address":"제주특별자치도 제주시 조천읍 교래리 166-2","location":{"latitude":33.43257562519185,"longitude":126.6938414057513},"score":3.8,"businessHours":{"businessHours":"09:00 ~ 17:00","closedDaySet":[]},"costPerPerson":-1,"spendingTime":{"hour":1.0,"standardDeviation":0.05},"isRestaurant":false},{"id":8066511,"name":"제주돌마을공원","poiType":{"category":"여행","subCategory":"공원","subSubCategory":""},"address":"제주특별자치도 제주시 한림읍 금능리 368-2","location":{"latitude":33.35400322160567,"longitude":126.25360364216937},"score":4.0,"businessHours":{"businessHours":"09:00 ~ 17:00","closedDaySet":[]},"costPerPerson":-1,"spendingTime":{"hour":1.0,"standardDeviation":0.05},"isRestaurant":false},{"id":10599658,"name":"아부오름","poiType":{"category":"여행","subCategory":"관광,명소","subSubCategory":"오름"},"address":"제주특별자치도 제주시 구좌읍 송당리 2263","location":{"latitude":33.44858291299589,"longitude":126.77721520877262},"score":4.5,"businessHours":{"businessHours":"10:30 ~ 17:00","closedDaySet":[]},"costPerPerson":-1,"spendingTime":{"hour":1.0,"standardDeviation":0.05},"isRestaurant":false},{"id":891104398,"name":"제주불빛정원","poiType":{"category":"여행","subCategory":"관광,명소","subSubCategory":"테마파크"},"address":"제주특별자치도 제주시 애월읍 유수암리 1083","location":{"latitude":33.42229288798789,"longitude":126.40917667815188},"score":5.0,"businessHours":{"businessHours":"18:30 ~ 23:00","closedDaySet":[]},"costPerPerson":-1,"spendingTime":{"hour":1.0,"standardDeviation":0.05},"touristAttractionType":"Themepark","isRestaurant":false},{"id":8067497,"name":"제주도 민속자연사박물관","poiType":{"category":"여행","subCategory":"문화,예술","subSubCategory":"박물관"},"address":"제주특별자치도 제주시 일도2동 996-1","location":{"latitude":33.506343844110965,"longitude":126.53152650669122},"score":3.0,"businessHours":{"businessHours":"08:30 ~ 18:00","closedDaySet":["설연휴","5월24일","추석연휴","1월1일"]},"costPerPerson":-1,"spendingTime":{"hour":1.0,"standardDeviation":0.05},"isRestaurant":false},{"id":11209970,"name":"한국야구명예의전당","poiType":{"category":"여행","subCategory":"문화,예술","subSubCategory":"기념관"},"address":"제주특별자치도 서귀포시 강정동 1479-1","location":{"latitude":33.260552225632786,"longitude":126.49844832602007},"score":5.0,"businessHours":{"businessHours":"09:00 ~ 18:00","closedDaySet":[]},"costPerPerson":-1,"spendingTime":{"hour":1.0,"standardDeviation":0.05},"isRestaurant":false},{"id":9995571,"name":"제주세계자연유산센터","poiType":{"category":"여행","subCategory":"문화,예술","subSubCategory":"박물관"},"address":"제주특별자치도 제주시 조천읍 선흘리 478","location":{"latitude":33.45688599959545,"longitude":126.71472164171327},"score":2.5,"businessHours":{"businessHours":"09:00 ~ 18:00","closedDaySet":["추석당일","첫째 화요일","설당일"]},"costPerPerson":-1,"spendingTime":{"hour":1.0,"standardDeviation":0.05},"isRestaurant":false},{"id":7962003,"name":"쇠소깍","poiType":{"category":"여행","subCategory":"관광,명소","subSubCategory":"하천"},"address":"제주특별자치도 서귀포시 남원읍 하례리 1889","location":{"latitude":33.252354866117,"longitude":126.624331997703},"score":5.0,"businessHours":{"businessHours":"10:30 ~ 17:00","closedDaySet":[]},"costPerPerson":-1,"spendingTime":{"hour":1.0,"standardDeviation":0.05},"isRestaurant":false},{"id":11293995,"name":"쉬리의언덕","poiType":{"category":"여행","subCategory":"관광,명소","subSubCategory":"촬영지"},"address":"제주특별자치도 서귀포시 색달동 3039-41","location":{"latitude":33.24566270548355,"longitude":126.40723303813213},"score":4.4,"businessHours":{"businessHours":"10:30 ~ 17:00","closedDaySet":[]},"costPerPerson":-1,"spendingTime":{"hour":1.0,"standardDeviation":0.05},"isRestaurant":false},{"id":8194422,"name":"기당미술관","poiType":{"category":"여행","subCategory":"문화,예술","subSubCategory":"미술관"},"address":"제주특별자치도 서귀포시 서홍동 621","location":{"latitude":33.244889356655214,"longitude":126.5511970201074},"score":5.0,"businessHours":{"businessHours":"09:00 ~ 18:00","closedDaySet":["추석당일","설당일","1월1일","월요일"]},"costPerPerson":-1,"spendingTime":{"hour":1.0,"standardDeviation":0.05},"isRestaurant":false},{"id":18539729,"name":"본태박물관","poiType":{"category":"여행","subCategory":"문화,예술","subSubCategory":"박물관"},"address":"제주특별자치도 서귀포시 안덕면 상천리 380","location":{"latitude":33.3037826899974,"longitude":126.392494613427},"score":3.1,"businessHours":{"businessHours":"10:00 ~ 18:00","closedDaySet":[]},"costPerPerson":-1,"spendingTime":{"hour":1.0,"standardDeviation":0.05},"isRestaurant":false},{"id":11330871,"name":"소인국테마파크","poiType":{"category":"여행","subCategory":"관광,명소","subSubCategory":"테마파크"},"address":"제주특별자치도 서귀포시 안덕면 서광리 725","location":{"latitude":33.290558734458386,"longitude":126.32256036926428},"score":3.7,"businessHours":{"businessHours":"08:30 ~ 16:00","closedDaySet":[]},"costPerPerson":-1,"spendingTime":{"hour":1.0,"standardDeviation":0.05},"touristAttractionType":"Themepark","isRestaurant":false},{"id":8379747,"name":"비치미오름 비찌미","poiType":{"category":"여행","subCategory":"관광,명소","subSubCategory":"오름"},"address":"제주특별자치도 제주시 구좌읍 송당리 산 255-1","location":{"latitude":33.42733997034391,"longitude":126.76308929462735},"score":2.5,"businessHours":{"businessHours":"10:30 ~ 17:00","closedDaySet":[]},"costPerPerson":-1,"spendingTime":{"hour":1.0,"standardDeviation":0.05},"isRestaurant":false},{"id":8045145,"name":"이중섭미술관","poiType":{"category":"여행","subCategory":"문화,예술","subSubCategory":"미술관"},"address":"제주특별자치도 서귀포시 서귀동 532-1","location":{"latitude":33.245904695347555,"longitude":126.56488788577474},"score":3.4,"businessHours":{"businessHours":"09:00 ~ 17:30","closedDaySet":["추석당일","설연휴","월요일","1월1일"]},"costPerPerson":-1,"spendingTime":{"hour":1.0,"standardDeviation":0.05},"isRestaurant":false},{"id":8386141,"name":"산방산","poiType":{"category":"여행","subCategory":"관광,명소","subSubCategory":"산"},"address":"제주특별자치도 서귀포시 안덕면 사계리","location":{"latitude":33.24130232782315,"longitude":126.31342636415884},"score":4.7,"businessHours":{"businessHours":"10:30 ~ 17:00","closedDaySet":[]},"costPerPerson":-1,"spendingTime":{"hour":1.0,"standardDeviation":0.05},"isRestaurant":false},{"id":8008273,"name":"엉또폭포","poiType":{"category":"여행","subCategory":"관광,명소","subSubCategory":"폭포"},"address":"제주특별자치도 서귀포시 강정동 5628","location":{"latitude":33.26853228793136,"longitude":126.49996531302455},"score":5.0,"businessHours":{"businessHours":"10:30 ~ 17:00","closedDaySet":[]},"costPerPerson":-1,"spendingTime":{"hour":1.0,"standardDeviation":0.05},"isRestaurant":false},{"id":19265298,"name":"노리매","poiType":{"category":"여행","subCategory":"공원","subSubCategory":""},"address":"제주특별자치도 서귀포시 대정읍 구억리 654-1","location":{"latitude":33.28311611686713,"longitude":126.28733981298544},"score":5.0,"businessHours":{"businessHours":"09:00 ~ 17:00","closedDaySet":[]},"costPerPerson":-1,"spendingTime":{"hour":1.0,"standardDeviation":0.05},"isRestaurant":false},{"id":12753592,"name":"올레길 1-1코스(우도 올레)","poiType":{"category":"여행","subCategory":"관광,명소","subSubCategory":"도보여행"},"address":"제주특별자치도 제주시 우도면 연평리","location":{"latitude":33.49296127039548,"longitude":126.95139879087861},"score":5.0,"businessHours":{"businessHours":"10:30 ~ 17:00","closedDaySet":[]},"costPerPerson":-1,"spendingTime":{"hour":1.0,"standardDeviation":0.05},"isRestaurant":false},{"id":12354187,"name":"용연구름다리","poiType":{"category":"여행","subCategory":"관광,명소","subSubCategory":"교량,다리"},"address":"제주특별자치도 제주시 용담2동","location":{"latitude":33.51488242491715,"longitude":126.51439254752228},"score":5.0,"businessHours":{"businessHours":"10:30 ~ 17:00","closedDaySet":[]},"costPerPerson":-1,"spendingTime":{"hour":1.0,"standardDeviation":0.05},"isRestaurant":false},{"id":8063566,"name":"제주민속촌","poiType":{"category":"여행","subCategory":"관광,명소","subSubCategory":"민속촌"},"address":"제주특별자치도 서귀포시 표선면 표선리 40-1","location":{"latitude":33.322395931343095,"longitude":126.84229916648613},"score":3.0,"businessHours":{"businessHours":"08:30 ~ 18:00","closedDaySet":[]},"costPerPerson":-1,"spendingTime":{"hour":1.0,"standardDeviation":0.05},"isRestaurant":false},{"id":12753593,"name":"올레길 7-1코스(월드컵경기장-서귀포 올레)","poiType":{"category":"여행","subCategory":"관광,명소","subSubCategory":"도보여행"},"address":"제주특별자치도 서귀포시 호근동","location":{"latitude":33.25421733680052,"longitude":126.53019752612104},"score":5.0,"businessHours":{"businessHours":"10:30 ~ 17:00","closedDaySet":[]},"costPerPerson":-1,"spendingTime":{"hour":1.0,"standardDeviation":0.05},"isRestaurant":false},{"id":12753598,"name":"올레길 11코스(모슬포-무릉 올레)","poiType":{"category":"여행","subCategory":"관광,명소","subSubCategory":"도보여행"},"address":"제주특별자치도 서귀포시 대정읍 하모리","location":{"latitude":33.219090185776906,"longitude":126.25282248226253},"score":3.0,"businessHours":{"businessHours":"10:30 ~ 17:00","closedDaySet":[]},"costPerPerson":-1,"spendingTime":{"hour":1.0,"standardDeviation":0.05},"isRestaurant":false},{"id":10941032,"name":"한림공원","poiType":{"category":"여행","subCategory":"관광,명소","subSubCategory":""},"address":"제주특별자치도 제주시 한림읍 협재리 2487","location":{"latitude":33.3893692714119,"longitude":126.24030932126351},"score":4.2,"businessHours":{"businessHours":"08:30 ~ 18:30","closedDaySet":[]},"costPerPerson":-1,"spendingTime":{"hour":1.0,"standardDeviation":0.05},"isRestaurant":false},{"id":25237382,"name":"문석이오름","poiType":{"category":"여행","subCategory":"관광,명소","subSubCategory":"오름"},"address":"제주특별자치도 제주시 구좌읍 송당리 산 234","location":{"latitude":33.44722361607846,"longitude":126.79615190180854},"score":3.0,"businessHours":{"businessHours":"10:30 ~ 17:00","closedDaySet":[]},"costPerPerson":-1,"spendingTime":{"hour":1.0,"standardDeviation":0.05},"isRestaurant":false},{"id":7964223,"name":"세화해변","poiType":{"category":"여행","subCategory":"관광,명소","subSubCategory":"해수욕장,해변"},"address":"제주특별자치도 제주시 구좌읍 세화리 1-1","location":{"latitude":33.52514297356017,"longitude":126.86025485059814},"score":5.0,"businessHours":{"businessHours":"10:30 ~ 17:00","closedDaySet":[]},"costPerPerson":-1,"spendingTime":{"hour":1.0,"standardDeviation":0.05},"isRestaurant":false},{"id":25036598,"name":"따라비오름","poiType":{"category":"여행","subCategory":"관광,명소","subSubCategory":"오름"},"address":"제주특별자치도 서귀포시 표선면 가시리 산 63","location":{"latitude":33.388705718267545,"longitude":126.75285962369566},"score":5.0,"businessHours":{"businessHours":"10:30 ~ 17:00","closedDaySet":[]},"costPerPerson":-1,"spendingTime":{"hour":1.0,"standardDeviation":0.05},"isRestaurant":false},{"id":11950714,"name":"테디베어포테지움","poiType":{"category":"여행","subCategory":"문화,예술","subSubCategory":"전시관"},"address":"제주특별자치도 제주시 애월읍 소길리 155-106","location":{"latitude":33.412206275877175,"longitude":126.39360096292125},"score":4.6,"businessHours":{"businessHours":"08:30 ~ 18:00","closedDaySet":[]},"costPerPerson":-1,"spendingTime":{"hour":1.0,"standardDeviation":0.05},"isRestaurant":false},{"id":13561566,"name":"한라산1100고지","poiType":{"category":"여행","subCategory":"관광,명소","subSubCategory":"산"},"address":"제주특별자치도 서귀포시 색달동 산 1-2","location":{"latitude":33.3580775129282,"longitude":126.46221833765239},"score":5.0,"businessHours":{"businessHours":"10:30 ~ 17:00","closedDaySet":[]},"costPerPerson":-1,"spendingTime":{"hour":1.0,"standardDeviation":0.05},"isRestaurant":false},{"id":10503800,"name":"서광승마장","poiType":{"category":"여행","subCategory":"스포츠,레저","subSubCategory":"승마"},"address":"제주특별자치도 서귀포시 안덕면 서광리 산 50-41","location":{"latitude":33.30198597856401,"longitude":126.29005070306451},"score":4.3,"businessHours":{"businessHours":"09:30 ~ 17:30","closedDaySet":[]},"costPerPerson":-1,"spendingTime":{"hour":1.0,"standardDeviation":0.05},"isRestaurant":false},{"id":8641180,"name":"한라수목원","poiType":{"category":"여행","subCategory":"관광,명소","subSubCategory":"수목원,식물원"},"address":"제주특별자치도 제주시 연동 2484","location":{"latitude":33.469783118206,"longitude":126.49326720179845},"score":4.4,"businessHours":{"businessHours":"04:00 ~ 23:00","closedDaySet":[]},"costPerPerson":-1,"spendingTime":{"hour":1.0,"standardDeviation":0.05},"isRestaurant":false},{"id":17600274,"name":"월정리해수욕장","poiType":{"category":"여행","subCategory":"관광,명소","subSubCategory":"해수욕장,해변"},"address":"제주특별자치도 제주시 구좌읍 월정리 33-3","location":{"latitude":33.55646786429889,"longitude":126.79580351031022},"score":5.0,"businessHours":{"businessHours":"10:30 ~ 17:00","closedDaySet":[]},"costPerPerson":-1,"spendingTime":{"hour":1.0,"standardDeviation":0.05},"isRestaurant":false},{"id":10793668,"name":"대포주상절리","poiType":{"category":"여행","subCategory":"관광,명소","subSubCategory":"바위"},"address":"제주특별자치도 서귀포시 중문동 2767","location":{"latitude":33.238374819045035,"longitude":126.4258138370844},"score":3.8,"businessHours":{"businessHours":"08:00 ~ 18:00","closedDaySet":[]},"costPerPerson":-1,"spendingTime":{"hour":1.0,"standardDeviation":0.05},"isRestaurant":false},{"id":10812111,"name":"탑동광장","poiType":{"category":"여행","subCategory":"공원","subSubCategory":""},"address":"제주특별자치도 제주시 건입동","location":{"latitude":33.51808205798394,"longitude":126.52667967542615},"score":1.5,"businessHours":{"businessHours":"10:30 ~ 17:00","closedDaySet":[]},"costPerPerson":-1,"spendingTime":{"hour":1.0,"standardDeviation":0.05},"isRestaurant":false},{"id":10882773,"name":"포토갤러리자연사랑미술관","poiType":{"category":"여행","subCategory":"문화,예술","subSubCategory":"미술관"},"address":"제주특별자치도 서귀포시 표선면 가시리 1924","location":{"latitude":33.355428927122944,"longitude":126.77161395468295},"score":5.0,"businessHours":{"businessHours":"10:00 ~ 17:00","closedDaySet":[]},"costPerPerson":-1,"spendingTime":{"hour":1.0,"standardDeviation":0.05},"isRestaurant":false},{"id":26319779,"name":"사려니숲길","poiType":{"category":"여행","subCategory":"관광,명소","subSubCategory":"숲"},"address":"제주특별자치도 제주시 조천읍 교래리 산 137-1","location":{"latitude":33.4225598893063,"longitude":126.62696813495},"score":4.4,"businessHours":{"businessHours":"09:00 ~ 16:00","closedDaySet":[]},"costPerPerson":-1,"spendingTime":{"hour":1.0,"standardDeviation":0.05},"isRestaurant":false},{"id":8591025,"name":"점보빌리지","poiType":{"category":"여행","subCategory":"문화,예술","subSubCategory":"공연장,연극극장"},"address":"제주특별자치도 서귀포시 안덕면 서광리 2351","location":{"latitude":33.276278134088656,"longitude":126.30510616565122},"score":4.8,"businessHours":{"businessHours":"09:30 ~ 17:30","closedDaySet":[]},"costPerPerson":-1,"spendingTime":{"hour":1.0,"standardDeviation":0.05},"isRestaurant":false},{"id":8001026,"name":"안덕계곡","poiType":{"category":"여행","subCategory":"관광,명소","subSubCategory":"계곡"},"address":"제주특별자치도 서귀포시 안덕면 감산리 1946","location":{"latitude":33.25720079965008,"longitude":126.35258319246745},"score":3.8,"businessHours":{"businessHours":"10:30 ~ 17:00","closedDaySet":[]},"costPerPerson":-1,"spendingTime":{"hour":1.0,"standardDeviation":0.05},"isRestaurant":false},{"id":7952882,"name":"세계자동차 제주박물관","poiType":{"category":"여행","subCategory":"문화,예술","subSubCategory":"박물관"},"address":"제주특별자치도 서귀포시 안덕면 상창리 2065-4","location":{"latitude":33.28371865505704,"longitude":126.34976351421437},"score":4.1,"businessHours":{"businessHours":"09:00 ~ 18:00","closedDaySet":[]},"costPerPerson":-1,"spendingTime":{"hour":1.0,"standardDeviation":0.05},"isRestaurant":false},{"id":17600341,"name":"제주해녀박물관","poiType":{"category":"여행","subCategory":"문화,예술","subSubCategory":"박물관"},"address":"제주특별자치도 제주시 구좌읍 하도리 3204-1","location":{"latitude":33.5235892232415,"longitude":126.863419164091},"score":5.0,"businessHours":{"businessHours":"09:00 ~ 18:00","closedDaySet":["첫째 월요일","셋째 월요일","추석당일","설당일","1월1일"]},"costPerPerson":-1,"spendingTime":{"hour":1.0,"standardDeviation":0.05},"isRestaurant":false},{"id":8148451,"name":"함덕해수욕장","poiType":{"category":"여행","subCategory":"관광,명소","subSubCategory":"해수욕장,해변"},"address":"제주특별자치도 제주시 조천읍 함덕리 1004-10","location":{"latitude":33.5430615661113,"longitude":126.669238934013},"score":4.0,"businessHours":{"businessHours":"10:00 ~ 19:00","closedDaySet":[]},"costPerPerson":-1,"spendingTime":{"hour":1.0,"standardDeviation":0.05},"isRestaurant":false},{"id":7922396,"name":"사라봉공원","poiType":{"category":"여행","subCategory":"공원","subSubCategory":""},"address":"제주특별자치도 제주시 건입동 387-1","location":{"latitude":33.5172837843343,"longitude":126.54554617483525},"score":4.0,"businessHours":{"businessHours":"10:30 ~ 17:00","closedDaySet":[]},"costPerPerson":-1,"spendingTime":{"hour":1.0,"standardDeviation":0.05},"isRestaurant":false},{"id":20303776,"name":"넥슨컴퓨터박물관","poiType":{"category":"여행","subCategory":"문화,예술","subSubCategory":"박물관"},"address":"제주특별자치도 제주시 노형동 86","location":{"latitude":33.47175040877828,"longitude":126.48498071315876},"score":3.2,"businessHours":{"businessHours":"10:00 ~ 18:00","closedDaySet":["추석당일","설당일","월요일"]},"costPerPerson":-1,"spendingTime":{"hour":1.0,"standardDeviation":0.05},"isRestaurant":false},{"id":12753453,"name":"올레길 3-A코스(온평-표선 올레)","poiType":{"category":"여행","subCategory":"관광,명소","subSubCategory":"도보여행"},"address":"제주특별자치도 서귀포시 성산읍 온평리 1001-4","location":{"latitude":33.40519950817207,"longitude":126.90405062820142},"score":4.7,"businessHours":{"businessHours":"10:30 ~ 17:00","closedDaySet":[]},"costPerPerson":-1,"spendingTime":{"hour":1.0,"standardDeviation":0.05},"isRestaurant":false},{"id":12753459,"name":"올레길 4코스(표선-남원 올레)","poiType":{"category":"여행","subCategory":"관광,명소","subSubCategory":"도보여행"},"address":"제주특별자치도 서귀포시 표선면 표선리","location":{"latitude":33.325310322718444,"longitude":126.84256452194411},"score":4.3,"businessHours":{"businessHours":"10:30 ~ 17:00","closedDaySet":[]},"costPerPerson":-1,"spendingTime":{"hour":1.0,"standardDeviation":0.05},"isRestaurant":false},{"id":11792904,"name":"올레길 8코스(월평-대평 올레)","poiType":{"category":"여행","subCategory":"관광,명소","subSubCategory":"도보여행"},"address":"제주특별자치도 서귀포시 하예동 532-1","location":{"latitude":33.23566322170394,"longitude":126.38670982029954},"score":4.0,"businessHours":{"businessHours":"10:30 ~ 17:00","closedDaySet":[]},"costPerPerson":-1,"spendingTime":{"hour":1.0,"standardDeviation":0.05},"isRestaurant":false},{"id":17360759,"name":"제주별빛누리공원","poiType":{"category":"여행","subCategory":"관광,명소","subSubCategory":""},"address":"제주특별자치도 제주시 오등동 산 34","location":{"latitude":33.44496862356555,"longitude":126.54941354949395},"score":4.3,"businessHours":{"businessHours":"15:00 ~ 21:00","closedDaySet":["월요일"]},"costPerPerson":-1,"spendingTime":{"hour":1.0,"standardDeviation":0.05},"isRestaurant":false},{"id":10803688,"name":"제주러브랜드","poiType":{"category":"여행","subCategory":"관광,명소","subSubCategory":"테마파크"},"address":"제주특별자치도 제주시 연동 680-26","location":{"latitude":33.45209578712645,"longitude":126.48847445468533},"score":4.5,"businessHours":{"businessHours":"09:00 ~ 23:00","closedDaySet":[]},"costPerPerson":-1,"spendingTime":{"hour":1.0,"standardDeviation":0.05},"touristAttractionType":"Themepark","isRestaurant":false},{"id":7873185,"name":"물영아리","poiType":{"category":"여행","subCategory":"관광,명소","subSubCategory":"오름"},"address":"제주특별자치도 서귀포시 남원읍 수망리 산 188","location":{"latitude":33.36847373199177,"longitude":126.69197392257509},"score":4.0,"businessHours":{"businessHours":"10:30 ~ 17:00","closedDaySet":[]},"costPerPerson":-1,"spendingTime":{"hour":1.0,"standardDeviation":0.05},"isRestaurant":false},{"id":15786539,"name":"제주현대미술관","poiType":{"category":"여행","subCategory":"문화,예술","subSubCategory":"미술관"},"address":"제주특별자치도 제주시 한경면 저지리 2114-63","location":{"latitude":33.3396637499198,"longitude":126.26558909596939},"score":5.0,"businessHours":{"businessHours":"09:00 ~ 17:30","closedDaySet":["추석당일","설당일","월요일","1월1일"]},"costPerPerson":-1,"spendingTime":{"hour":1.0,"standardDeviation":0.05},"isRestaurant":false},{"id":15174204,"name":"한라산","poiType":{"category":"여행","subCategory":"관광,명소","subSubCategory":"산"},"address":"제주특별자치도 서귀포시 상효동","location":{"latitude":33.359040372937415,"longitude":126.53430503608087},"score":4.6,"businessHours":{"businessHours":"10:30 ~ 17:00","closedDaySet":[]},"costPerPerson":-1,"spendingTime":{"hour":1.0,"standardDeviation":0.05},"isRestaurant":false},{"id":23972751,"name":"감귤박물관","poiType":{"category":"여행","subCategory":"문화,예술","subSubCategory":"박물관"},"address":"제주특별자치도 서귀포시 신효동 산 4","location":{"latitude":33.27156286729346,"longitude":126.60746628320217},"score":4.2,"businessHours":{"businessHours":"09:00 ~ 17:30","closedDaySet":["추석당일","설당일","1월1일"]},"costPerPerson":-1,"spendingTime":{"hour":1.0,"standardDeviation":0.05},"isRestaurant":false},{"id":8086164,"name":"신산공원","poiType":{"category":"여행","subCategory":"공원","subSubCategory":""},"address":"제주특별자치도 제주시 일도2동 879","location":{"latitude":33.506977593682635,"longitude":126.53317617553229},"score":4.0,"businessHours":{"businessHours":"10:30 ~ 17:00","closedDaySet":[]},"costPerPerson":-1,"spendingTime":{"hour":1.0,"standardDeviation":0.05},"isRestaurant":false},{"id":10417720,"name":"물찻오름","poiType":{"category":"여행","subCategory":"관광,명소","subSubCategory":"오름"},"address":"제주특별자치도 제주시 조천읍 교래리 산 137-1","location":{"latitude":33.39487012360315,"longitude":126.65281156628332},"score":5.0,"businessHours":{"businessHours":"10:30 ~ 17:00","closedDaySet":[]},"costPerPerson":-1,"spendingTime":{"hour":1.0,"standardDeviation":0.05},"isRestaurant":false},{"id":7912085,"name":"비자림","poiType":{"category":"여행","subCategory":"관광,명소","subSubCategory":"자연휴양림"},"address":"제주특별자치도 제주시 구좌읍 평대리 3161-1","location":{"latitude":33.49040728371209,"longitude":126.80998697003244},"score":4.2,"businessHours":{"businessHours":"09:00 ~ 17:00","closedDaySet":[]},"costPerPerson":-1,"spendingTime":{"hour":1.0,"standardDeviation":0.05},"isRestaurant":false},{"id":17150892,"name":"제주워터월드","poiType":{"category":"여행","subCategory":"관광,명소","subSubCategory":"테마파크"},"address":"제주특별자치도 서귀포시 법환동 914","location":{"latitude":33.245147672478495,"longitude":126.508957635915},"score":4.9,"businessHours":{"businessHours":"10:30 ~ 17:00","closedDaySet":[]},"costPerPerson":-1,"spendingTime":{"hour":1.0,"standardDeviation":0.05},"touristAttractionType":"Themepark","isRestaurant":false},{"id":8069764,"name":"중문색달해수욕장","poiType":{"category":"여행","subCategory":"관광,명소","subSubCategory":"해수욕장,해변"},"address":"제주특별자치도 서귀포시 색달동 3039","location":{"latitude":33.24503745118751,"longitude":126.41149923425465},"score":5.0,"businessHours":{"businessHours":"10:00 ~ 19:00","closedDaySet":[]},"costPerPerson":-1,"spendingTime":{"hour":1.0,"standardDeviation":0.05},"isRestaurant":false},{"id":8004227,"name":"여미지식물원","poiType":{"category":"여행","subCategory":"관광,명소","subSubCategory":"수목원,식물원"},"address":"제주특별자치도 서귀포시 색달동 2484-1","location":{"latitude":33.25260607245734,"longitude":126.41425990067262},"score":3.3,"businessHours":{"businessHours":"09:00 ~ 17:30","closedDaySet":[]},"costPerPerson":-1,"spendingTime":{"hour":1.0,"standardDeviation":0.05},"isRestaurant":false},{"id":10837593,"name":"추사관","poiType":{"category":"여행","subCategory":"관광,명소","subSubCategory":"문화유적"},"address":"제주특별자치도 서귀포시 대정읍 안성리 1661-1","location":{"latitude":33.24997448321646,"longitude":126.27822237516148},"score":3.7,"businessHours":{"businessHours":"09:00 ~ 17:30","closedDaySet":["설연휴","추석연휴","월요일","1월1일"]},"costPerPerson":-1,"spendingTime":{"hour":1.0,"standardDeviation":0.05},"isRestaurant":false},{"id":24860542,"name":"세계술박물관","poiType":{"category":"여행","subCategory":"문화,예술","subSubCategory":"박물관"},"address":"제주특별자치도 서귀포시 표선면 하천리 1814-1","location":{"latitude":33.3539727502072,"longitude":126.81760887469464},"score":4.0,"businessHours":{"businessHours":"09:00 ~ 18:00","closedDaySet":[]},"costPerPerson":-1,"spendingTime":{"hour":1.0,"standardDeviation":0.05},"isRestaurant":false},{"id":11273772,"name":"산방산탄산온천","poiType":{"category":"여행","subCategory":"관광,명소","subSubCategory":"온천"},"address":"제주특별자치도 서귀포시 안덕면 사계리 981","location":{"latitude":33.248911184153,"longitude":126.29875954532102},"score":2.8,"businessHours":{"businessHours":"11:00 ~ 23:00","closedDaySet":[]},"costPerPerson":-1,"spendingTime":{"hour":1.0,"standardDeviation":0.05},"touristAttractionType":"HotSpring","isRestaurant":false},{"id":17630155,"name":"토이파크","poiType":{"category":"여행","subCategory":"관광,명소","subSubCategory":"테마파크"},"address":"제주특별자치도 서귀포시 안덕면 동광리 383","location":{"latitude":33.31895552204176,"longitude":126.34536478979327},"score":4.3,"businessHours":{"businessHours":"09:00 ~ 20:00","closedDaySet":[]},"costPerPerson":-1,"spendingTime":{"hour":1.0,"standardDeviation":0.05},"touristAttractionType":"Themepark","isRestaurant":false},{"id":9401925,"name":"제주서커스월드","poiType":{"category":"여행","subCategory":"문화,예술","subSubCategory":"공연장,연극극장"},"address":"제주특별자치도 서귀포시 안덕면 동광리 886","location":{"latitude":33.31433609101622,"longitude":126.34475508094182},"score":5.0,"businessHours":{"businessHours":"10:30 ~ 17:00","closedDaySet":[]},"costPerPerson":-1,"spendingTime":{"hour":1.0,"standardDeviation":0.05},"isRestaurant":false},{"id":9401924,"name":"제주공룡랜드","poiType":{"category":"여행","subCategory":"관광,명소","subSubCategory":"테마파크"},"address":"제주특별자치도 제주시 애월읍 광령리 2677-1","location":{"latitude":33.44177867489228,"longitude":126.43398975702343},"score":2.7,"businessHours":{"businessHours":"09:30 ~ 17:00","closedDaySet":[]},"costPerPerson":-1,"spendingTime":{"hour":1.0,"standardDeviation":0.05},"touristAttractionType":"Themepark","isRestaurant":false},{"id":12753435,"name":"올레길 10코스(화순-모슬포 올레)","poiType":{"category":"여행","subCategory":"관광,명소","subSubCategory":"도보여행"},"address":"제주특별자치도 서귀포시 안덕면 화순리","location":{"latitude":33.237581181348745,"longitude":126.33677615643273},"score":5.0,"businessHours":{"businessHours":"10:30 ~ 17:00","closedDaySet":[]},"costPerPerson":-1,"spendingTime":{"hour":1.0,"standardDeviation":0.05},"isRestaurant":false},{"id":9349719,"name":"셰프라인월드","poiType":{"category":"여행","subCategory":"관광,명소","subSubCategory":"테마파크"},"address":"제주특별자치도 제주시 구좌읍 송당리 2635-3","location":{"latitude":33.43594024303455,"longitude":126.73091668306049},"score":3.3,"businessHours":{"businessHours":"09:00 ~ 17:00","closedDaySet":[]},"costPerPerson":-1,"spendingTime":{"hour":1.0,"standardDeviation":0.05},"touristAttractionType":"Themepark","isRestaurant":false},{"id":11426355,"name":"한라생태숲","poiType":{"category":"여행","subCategory":"관광,명소","subSubCategory":"숲"},"address":"제주특별자치도 제주시 용강동 산 14-1","location":{"latitude":33.4312933427524,"longitude":126.597699641656},"score":5.0,"businessHours":{"businessHours":"09:00 ~ 17:00","closedDaySet":[]},"costPerPerson":-1,"spendingTime":{"hour":1.0,"standardDeviation":0.05},"isRestaurant":false},{"id":26593100,"name":"번개과학체험관","poiType":{"category":"여행","subCategory":"문화,예술","subSubCategory":"전시관"},"address":"제주특별자치도 서귀포시 토평동 1799","location":{"latitude":33.2895051027696,"longitude":126.588844046446},"score":4.4,"businessHours":{"businessHours":"09:00 ~ 18:00","closedDaySet":[]},"costPerPerson":-1,"spendingTime":{"hour":1.0,"standardDeviation":0.05},"isRestaurant":false},{"id":14513668,"name":"무병장수테마파크","poiType":{"category":"여행","subCategory":"관광,명소","subSubCategory":"테마파크"},"address":"제주특별자치도 제주시 애월읍 어음리 49","location":{"latitude":33.39556483854312,"longitude":126.36100709508207},"score":5.0,"businessHours":{"businessHours":"09:00 ~ 18:00","closedDaySet":["넷째 월요일"]},"costPerPerson":-1,"spendingTime":{"hour":1.0,"standardDeviation":0.05},"touristAttractionType":"Themepark","isRestaurant":false},{"id":11540370,"name":"용두암","poiType":{"category":"여행","subCategory":"관광,명소","subSubCategory":"바위"},"address":"제주특별자치도 제주시 용담2동 483","location":{"latitude":33.5161098040223,"longitude":126.5119574382405},"score":3.0,"businessHours":{"businessHours":"10:30 ~ 17:00","closedDaySet":[]},"costPerPerson":-1,"spendingTime":{"hour":1.0,"standardDeviation":0.05},"isRestaurant":false},{"id":8019804,"name":"오현단","poiType":{"category":"여행","subCategory":"관광,명소","subSubCategory":"문화유적"},"address":"제주특별자치도 제주시 이도1동 1421-3","location":{"latitude":33.510418528116965,"longitude":126.525727043827},"score":1.5,"businessHours":{"businessHours":"10:30 ~ 17:00","closedDaySet":[]},"costPerPerson":-1,"spendingTime":{"hour":1.0,"standardDeviation":0.05},"isRestaurant":false},{"id":25294439,"name":"수월봉","poiType":{"category":"여행","subCategory":"관광,명소","subSubCategory":"오름"},"address":"제주특별자치도 제주시 한경면 고산리 3763","location":{"latitude":33.294617001706015,"longitude":126.16317320861799},"score":4.8,"businessHours":{"businessHours":"10:30 ~ 17:00","closedDaySet":[]},"costPerPerson":-1,"spendingTime":{"hour":1.0,"standardDeviation":0.05},"isRestaurant":false},{"id":21307939,"name":"다희연 동굴의다원","poiType":{"category":"여행","subCategory":"관광,명소","subSubCategory":""},"address":"제주특별자치도 제주시 조천읍 선흘리 600-12","location":{"latitude":33.48445188479716,"longitude":126.70793839252379},"score":4.3,"businessHours":{"businessHours":"09:00 ~ 17:30","closedDaySet":[]},"costPerPerson":-1,"spendingTime":{"hour":1.0,"standardDeviation":0.05},"isRestaurant":false},{"id":21777957,"name":"제주레일바이크","poiType":{"category":"여행","subCategory":"관광,명소","subSubCategory":"유원지"},"address":"제주특별자치도 제주시 구좌읍 종달리 4639","location":{"latitude":33.46462048242667,"longitude":126.83694528721887},"score":5.0,"businessHours":{"businessHours":"10:30 ~ 17:00","closedDaySet":[]},"costPerPerson":-1,"spendingTime":{"hour":1.0,"standardDeviation":0.05},"isRestaurant":false},{"id":9381733,"name":"우도잠수함","poiType":{"category":"여행","subCategory":"투어","subSubCategory":"유람선"},"address":"제주특별자치도 서귀포시 성산읍 성산리 347-9","location":{"latitude":33.47292690561178,"longitude":126.93450692032019},"score":1.5,"businessHours":{"businessHours":"10:30 ~ 17:00","closedDaySet":[]},"costPerPerson":-1,"spendingTime":{"hour":1.0,"standardDeviation":0.05},"isRestaurant":false},{"id":7940952,"name":"서귀포잠수함","poiType":{"category":"여행","subCategory":"체험","subSubCategory":""},"address":"제주특별자치도 서귀포시 서홍동 707-5","location":{"latitude":33.23930425629727,"longitude":126.55861607147102},"score":5.0,"businessHours":{"businessHours":"10:30 ~ 17:00","closedDaySet":[]},"costPerPerson":-1,"spendingTime":{"hour":1.0,"standardDeviation":0.05},"isRestaurant":false},{"id":13597626,"name":"올레길 18코스(제주원도심-조천 올레)","poiType":{"category":"여행","subCategory":"관광,명소","subSubCategory":"도보여행"},"address":"제주특별자치도 제주시 일도1동","location":{"latitude":33.5131516136089,"longitude":126.527304725873},"score":4.0,"businessHours":{"businessHours":"10:30 ~ 17:00","closedDaySet":[]},"costPerPerson":-1,"spendingTime":{"hour":1.0,"standardDeviation":0.05},"isRestaurant":false},{"id":19763694,"name":"환상숲곶자왈공원","poiType":{"category":"여행","subCategory":"공원","subSubCategory":""},"address":"제주특별자치도 제주시 한경면 저지리 2848-2","location":{"latitude":33.32290773177606,"longitude":126.26302788580301},"score":4.1,"businessHours":{"businessHours":"09:00 ~ 18:00","closedDaySet":["일요일"]},"costPerPerson":-1,"spendingTime":{"hour":1.0,"standardDeviation":0.05},"isRestaurant":false},{"id":13723603,"name":"금능해수욕장","poiType":{"category":"여행","subCategory":"관광,명소","subSubCategory":"해수욕장,해변"},"address":"제주특별자치도 제주시 한림읍 금능리 2026","location":{"latitude":33.390449233708495,"longitude":126.23588905185113},"score":5.0,"businessHours":{"businessHours":"10:00 ~ 19:00","closedDaySet":[]},"costPerPerson":-1,"spendingTime":{"hour":1.0,"standardDeviation":0.05},"isRestaurant":false},{"id":7836480,"name":"도깨비공원","poiType":{"category":"여행","subCategory":"공원","subSubCategory":""},"address":"제주특별자치도 제주시 조천읍 선흘리 4089-1","location":{"latitude":33.46341108911542,"longitude":126.69264826877848},"score":1.5,"businessHours":{"businessHours":"09:00 ~ 17:00","closedDaySet":[]},"costPerPerson":-1,"spendingTime":{"hour":1.0,"standardDeviation":0.05},"isRestaurant":false},{"id":8171313,"name":"건강과성박물관","poiType":{"category":"여행","subCategory":"문화,예술","subSubCategory":"박물관"},"address":"제주특별자치도 서귀포시 안덕면 감산리 1404","location":{"latitude":33.25489771427045,"longitude":126.34666372313964},"score":3.3,"businessHours":{"businessHours":"09:00 ~ 20:00","closedDaySet":[]},"costPerPerson":-1,"spendingTime":{"hour":1.0,"standardDeviation":0.05},"isRestaurant":false},{"id":17583646,"name":"박물관은살아있다 제주중문점","poiType":{"category":"여행","subCategory":"문화,예술","subSubCategory":"박물관"},"address":"제주특별자치도 서귀포시 색달동 2629","location":{"latitude":33.25492848172,"longitude":126.408740973085},"score":4.9,"businessHours":{"businessHours":"09:00 ~ 20:30","closedDaySet":[]},"costPerPerson":-1,"spendingTime":{"hour":1.0,"standardDeviation":0.05},"isRestaurant":false},{"id":10880885,"name":"퍼시픽랜드 마린스테이지","poiType":{"category":"여행","subCategory":"관광,명소","subSubCategory":"테마파크"},"address":"제주특별자치도 서귀포시 색달동 2950-4","location":{"latitude":33.24385576061385,"longitude":126.41557594299707},"score":5.0,"businessHours":{"businessHours":"09:00 ~ 18:00","closedDaySet":[]},"costPerPerson":-1,"spendingTime":{"hour":1.0,"standardDeviation":0.05},"touristAttractionType":"Themepark","isRestaurant":false},{"id":23705150,"name":"한담해안산책로","poiType":{"category":"여행","subCategory":"관광,명소","subSubCategory":""},"address":"제주특별자치도 제주시 애월읍 곽지리 1359","location":{"latitude":33.45932435928376,"longitude":126.31047040763471},"score":5.0,"businessHours":{"businessHours":"10:30 ~ 17:00","closedDaySet":[]},"costPerPerson":-1,"spendingTime":{"hour":1.0,"standardDeviation":0.05},"isRestaurant":false},{"id":10472331,"name":"세리월드","poiType":{"category":"여행","subCategory":"관광,명소","subSubCategory":"테마파크"},"address":"제주특별자치도 서귀포시 법환동 877-3","location":{"latitude":33.24701653096806,"longitude":126.51187439411976},"score":4.7,"businessHours":{"businessHours":"10:30 ~ 17:00","closedDaySet":[]},"costPerPerson":-1,"spendingTime":{"hour":1.0,"standardDeviation":0.05},"touristAttractionType":"Themepark","isRestaurant":false},{"id":10799994,"name":"제주유리박물관","poiType":{"category":"여행","subCategory":"문화,예술","subSubCategory":"박물관"},"address":"제주특별자치도 서귀포시 상예동 4303","location":{"latitude":33.27854044544766,"longitude":126.37015810001014},"score":3.3,"businessHours":{"businessHours":"09:00 ~ 22:00","closedDaySet":[]},"costPerPerson":-1,"spendingTime":{"hour":1.0,"standardDeviation":0.05},"isRestaurant":false},{"id":20127314,"name":"교래자연휴양림","poiType":{"category":"여행","subCategory":"관광,명소","subSubCategory":"자연휴양림"},"address":"제주특별자치도 제주시 조천읍 교래리 산 119","location":{"latitude":33.44031012910554,"longitude":126.65894913092876},"score":5.0,"businessHours":{"businessHours":"07:00 ~ 15:00","closedDaySet":[]},"costPerPerson":-1,"spendingTime":{"hour":1.0,"standardDeviation":0.05},"isRestaurant":false},{"id":11023307,"name":"금능석물원","poiType":{"category":"여행","subCategory":"관광,명소","subSubCategory":""},"address":"제주특별자치도 제주시 한림읍 금능리 1246","location":{"latitude":33.38516981147915,"longitude":126.22720871385735},"score":5.0,"businessHours":{"businessHours":"08:30 ~ 18:00","closedDaySet":[]},"costPerPerson":-1,"spendingTime":{"hour":1.0,"standardDeviation":0.05},"isRestaurant":false},{"id":10773441,"name":"지미봉","poiType":{"category":"여행","subCategory":"관광,명소","subSubCategory":"산봉우리"},"address":"제주특별자치도 제주시 구좌읍 종달리 산 3-1","location":{"latitude":33.49960776753004,"longitude":126.90301533281081},"score":5.0,"businessHours":{"businessHours":"10:30 ~ 17:00","closedDaySet":[]},"costPerPerson":-1,"spendingTime":{"hour":1.0,"standardDeviation":0.05},"isRestaurant":false},{"id":10706886,"name":"용머리해안","poiType":{"category":"여행","subCategory":"관광,명소","subSubCategory":"해수욕장,해변"},"address":"제주특별자치도 서귀포시 안덕면 사계리","location":{"latitude":33.23165510262714,"longitude":126.31473780526238},"score":4.3,"businessHours":{"businessHours":"08:00 ~ 18:00","closedDaySet":[]},"costPerPerson":-1,"spendingTime":{"hour":1.0,"standardDeviation":0.05},"isRestaurant":false},{"id":8164124,"name":"강정천","poiType":{"category":"여행","subCategory":"관광,명소","subSubCategory":"하천"},"address":"제주특별자치도 서귀포시 강정동 5647","location":{"latitude":33.23266608840827,"longitude":126.4894286249486},"score":5.0,"businessHours":{"businessHours":"10:30 ~ 17:00","closedDaySet":[]},"costPerPerson":-1,"spendingTime":{"hour":1.0,"standardDeviation":0.05},"isRestaurant":false},{"id":18412083,"name":"탐라신화공원","poiType":{"category":"여행","subCategory":"공원","subSubCategory":""},"address":"제주특별자치도 제주시 조천읍 선흘리 1818","location":{"latitude":33.46355144646107,"longitude":126.71042270586952},"score":5.0,"businessHours":{"businessHours":"10:30 ~ 17:00","closedDaySet":[]},"costPerPerson":-1,"spendingTime":{"hour":1.0,"standardDeviation":0.05},"isRestaurant":false},{"id":25354927,"name":"저지오름","poiType":{"category":"여행","subCategory":"관광,명소","subSubCategory":"오름"},"address":"제주특별자치도 제주시 한경면 저지리 산 51","location":{"latitude":33.33268745006289,"longitude":126.25086004976939},"score":5.0,"businessHours":{"businessHours":"10:30 ~ 17:00","closedDaySet":[]},"costPerPerson":-1,"spendingTime":{"hour":1.0,"standardDeviation":0.05},"isRestaurant":false},{"id":1527411751,"name":"다이나믹메이즈 에피소드3","poiType":{"category":"여행","subCategory":"관광,명소","subSubCategory":"테마파크"},"address":"제주특별자치도 서귀포시 표선면 성읍리 2381","location":{"latitude":33.39915660187065,"longitude":126.7852879372565},"score":2.5,"businessHours":{"businessHours":"09:00 ~ 18:00","closedDaySet":[]},"costPerPerson":-1,"spendingTime":{"hour":1.0,"standardDeviation":0.05},"touristAttractionType":"Themepark","isRestaurant":false},{"id":7920396,"name":"비양도","poiType":{"category":"여행","subCategory":"관광,명소","subSubCategory":"섬"},"address":"제주특별자치도 제주시 한림읍 협재리","location":{"latitude":33.41027794987292,"longitude":126.22734726308187},"score":5.0,"businessHours":{"businessHours":"10:30 ~ 17:00","closedDaySet":[]},"costPerPerson":-1,"spendingTime":{"hour":1.0,"standardDeviation":0.05},"touristAttractionType":"Island","isRestaurant":false},{"id":8175370,"name":"고근산","poiType":{"category":"여행","subCategory":"관광,명소","subSubCategory":"산"},"address":"제주특별자치도 서귀포시 서호동 1286-1","location":{"latitude":33.26676597674151,"longitude":126.51286758711228},"score":5.0,"businessHours":{"businessHours":"10:30 ~ 17:00","closedDaySet":[]},"costPerPerson":-1,"spendingTime":{"hour":1.0,"standardDeviation":0.05},"isRestaurant":false},{"id":8222476,"name":"김영갑갤러리두모악","poiType":{"category":"여행","subCategory":"문화,예술","subSubCategory":"미술관"},"address":"제주특별자치도 서귀포시 성산읍 삼달리 437-5","location":{"latitude":33.37189513200422,"longitude":126.85413696930266},"score":4.8,"businessHours":{"businessHours":"09:30 ~ 17:00","closedDaySet":["수요일","추석당일","설당일","1월1일"]},"costPerPerson":-1,"spendingTime":{"hour":1.0,"standardDeviation":0.05},"isRestaurant":false},{"id":8577982,"name":"제주미니랜드","poiType":{"category":"여행","subCategory":"관광,명소","subSubCategory":"테마파크"},"address":"제주특별자치도 제주시 조천읍 교래리 산 56-4","location":{"latitude":33.43345635906473,"longitude":126.67440059887261},"score":4.2,"businessHours":{"businessHours":"08:30 ~ 17:30","closedDaySet":[]},"costPerPerson":-1,"spendingTime":{"hour":1.0,"standardDeviation":0.05},"touristAttractionType":"Themepark","isRestaurant":false},{"id":13642641,"name":"포니밸리","poiType":{"category":"여행","subCategory":"문화,예술","subSubCategory":"공연장,연극극장"},"address":"제주특별자치도 서귀포시 표선면 성읍리 2684","location":{"latitude":33.40273689592989,"longitude":126.77865304190703},"score":5.0,"businessHours":{"businessHours":"10:30 ~ 17:00","closedDaySet":[]},"costPerPerson":-1,"spendingTime":{"hour":1.0,"standardDeviation":0.05},"isRestaurant":false},{"id":13095815,"name":"메이즈랜드","poiType":{"category":"여행","subCategory":"관광,명소","subSubCategory":"테마파크"},"address":"제주특별자치도 제주시 구좌읍 평대리 3322","location":{"latitude":33.48825427702768,"longitude":126.80087142131224},"score":4.2,"businessHours":{"businessHours":"09:00 ~ 16:30","closedDaySet":[]},"costPerPerson":-1,"spendingTime":{"hour":1.0,"standardDeviation":0.05},"touristAttractionType":"Themepark","isRestaurant":false},{"id":8577985,"name":"제주바다체험장","poiType":{"category":"여행","subCategory":"관광,명소","subSubCategory":"유원지"},"address":"제주특별자치도 제주시 구좌읍 동복리 608-3","location":{"latitude":33.55471063469364,"longitude":126.72170853415818},"score":4.0,"businessHours":{"businessHours":"10:00 ~ 16:30","closedDaySet":[]},"costPerPerson":-1,"spendingTime":{"hour":1.0,"standardDeviation":0.05},"isRestaurant":false},{"id":25189061,"name":"금악오름","poiType":{"category":"여행","subCategory":"관광,명소","subSubCategory":"오름"},"address":"제주특별자치도 제주시 한림읍 금악리 산 1-1","location":{"latitude":33.354551326749466,"longitude":126.30571700788286},"score":5.0,"businessHours":{"businessHours":"10:30 ~ 17:00","closedDaySet":[]},"costPerPerson":-1,"spendingTime":{"hour":1.0,"standardDeviation":0.05},"isRestaurant":false},{"id":25181898,"name":"광이오름","poiType":{"category":"여행","subCategory":"관광,명소","subSubCategory":"오름"},"address":"제주특별자치도 제주시 연동 산 62","location":{"latitude":33.46797567516149,"longitude":126.49486985487555},"score":5.0,"businessHours":{"businessHours":"10:30 ~ 17:00","closedDaySet":[]},"costPerPerson":-1,"spendingTime":{"hour":1.0,"standardDeviation":0.05},"isRestaurant":false},{"id":8236791,"name":"상효원수목원","poiType":{"category":"여행","subCategory":"관광,명소","subSubCategory":"수목원,식물원"},"address":"제주특별자치도 서귀포시 상효동 산 25","location":{"latitude":33.305959246593495,"longitude":126.58463390975989},"score":5.0,"businessHours":{"businessHours":"09:00 ~ 17:00","closedDaySet":[]},"costPerPerson":-1,"spendingTime":{"hour":1.0,"standardDeviation":0.05},"isRestaurant":false},{"id":25248461,"name":"백약이오름","poiType":{"category":"여행","subCategory":"관광,명소","subSubCategory":"오름"},"address":"제주특별자치도 서귀포시 표선면 성읍리 산 1","location":{"latitude":33.43680833138903,"longitude":126.78975856979179},"score":4.5,"businessHours":{"businessHours":"10:30 ~ 17:00","closedDaySet":[]},"costPerPerson":-1,"spendingTime":{"hour":1.0,"standardDeviation":0.05},"isRestaurant":false},{"id":19293737,"name":"한담해변","poiType":{"category":"여행","subCategory":"관광,명소","subSubCategory":"해수욕장,해변"},"address":"제주특별자치도 제주시 애월읍 애월리","location":{"latitude":33.46222585647608,"longitude":126.31018493116702},"score":5.0,"businessHours":{"businessHours":"10:30 ~ 17:00","closedDaySet":[]},"costPerPerson":-1,"spendingTime":{"hour":1.0,"standardDeviation":0.05},"isRestaurant":false},{"id":8463314,"name":"퍼시픽랜드 요트투어샹그릴라","poiType":{"category":"여행","subCategory":"관광,명소","subSubCategory":"테마파크"},"address":"제주특별자치도 서귀포시 색달동 2950-9","location":{"latitude":33.243978969563045,"longitude":126.41632995631693},"score":5.0,"businessHours":{"businessHours":"09:00 ~ 18:00","closedDaySet":[]},"costPerPerson":-1,"spendingTime":{"hour":1.0,"standardDeviation":0.05},"touristAttractionType":"Themepark","isRestaurant":false},{"id":12520358,"name":"제주거울미로 이상한나라의 앨리스","poiType":{"category":"여행","subCategory":"관광,명소","subSubCategory":"테마파크"},"address":"제주특별자치도 서귀포시 안덕면 서광리 717-3","location":{"latitude":33.28899926946359,"longitude":126.3216277341034},"score":3.6,"businessHours":{"businessHours":"09:00 ~ 18:00","closedDaySet":[]},"costPerPerson":-1,"spendingTime":{"hour":1.0,"standardDeviation":0.05},"touristAttractionType":"Themepark","isRestaurant":false},{"id":11714326,"name":"제주레포츠랜드","poiType":{"category":"여행","subCategory":"관광,명소","subSubCategory":"테마파크"},"address":"제주특별자치도 제주시 조천읍 와흘리 870","location":{"latitude":33.4821140659873,"longitude":126.6381699140909},"score":4.8,"businessHours":{"businessHours":"09:00 ~ 17:30","closedDaySet":[]},"costPerPerson":-1,"spendingTime":{"hour":1.0,"standardDeviation":0.05},"touristAttractionType":"Themepark","isRestaurant":false},{"id":13580073,"name":"드라마월드","poiType":{"category":"여행","subCategory":"문화,예술","subSubCategory":"박물관"},"address":"제주특별자치도 제주시 애월읍 봉성리 4556","location":{"latitude":33.35219209048812,"longitude":126.36055131919615},"score":1.5,"businessHours":{"businessHours":"09:00 ~ 18:00","closedDaySet":[]},"costPerPerson":-1,"spendingTime":{"hour":1.0,"standardDeviation":0.05},"isRestaurant":false},{"id":11137794,"name":"서귀포유람선 로맨틱크루즈","poiType":{"category":"여행","subCategory":"투어","subSubCategory":"유람선"},"address":"제주특별자치도 서귀포시 서홍동 707-6","location":{"latitude":33.23912055662083,"longitude":126.5586813737579},"score":3.0,"businessHours":{"businessHours":"10:30 ~ 17:00","closedDaySet":[]},"costPerPerson":-1,"spendingTime":{"hour":1.0,"standardDeviation":0.05},"isRestaurant":false},{"id":26809847,"name":"플레이케이팝박물관","poiType":{"category":"여행","subCategory":"문화,예술","subSubCategory":"박물관"},"address":"제주특별자치도 서귀포시 색달동 2864-36","location":{"latitude":33.249933028981225,"longitude":126.41335923212912},"score":5.0,"businessHours":{"businessHours":"09:00 ~ 18:00","closedDaySet":[]},"costPerPerson":-1,"spendingTime":{"hour":1.0,"standardDeviation":0.05},"isRestaurant":false},{"id":27581976,"name":"휴애리자연생활공원","poiType":{"category":"여행","subCategory":"공원","subSubCategory":""},"address":"제주특별자치도 서귀포시 남원읍 신례리 2081","location":{"latitude":33.3094118577765,"longitude":126.63540838882375},"score":5.0,"businessHours":{"businessHours":"10:30 ~ 16:30","closedDaySet":[]},"costPerPerson":-1,"spendingTime":{"hour":1.0,"standardDeviation":0.05},"isRestaurant":false},{"id":25022153,"name":"곽지해수욕장","poiType":{"category":"여행","subCategory":"관광,명소","subSubCategory":"해수욕장,해변"},"address":"제주특별자치도 제주시 애월읍 곽지리 1565","location":{"latitude":33.450658371513114,"longitude":126.30467109310004},"score":3.0,"businessHours":{"businessHours":"10:00 ~ 19:00","closedDaySet":[]},"costPerPerson":-1,"spendingTime":{"hour":1.0,"standardDeviation":0.05},"isRestaurant":false},{"id":9937633,"name":"제주향교","poiType":{"category":"여행","subCategory":"관광,명소","subSubCategory":"문화유적"},"address":"제주특별자치도 제주시 용담1동 298-1","location":{"latitude":33.511111263832056,"longitude":126.5155846678086},"score":1.5,"businessHours":{"businessHours":"10:30 ~ 17:00","closedDaySet":[]},"costPerPerson":-1,"spendingTime":{"hour":1.0,"standardDeviation":0.05},"isRestaurant":false},{"id":8624896,"name":"혼인지","poiType":{"category":"여행","subCategory":"관광,명소","subSubCategory":"연못"},"address":"제주특별자치도 서귀포시 성산읍 온평리 1693","location":{"latitude":33.41519532278901,"longitude":126.8937743047468},"score":1.5,"businessHours":{"businessHours":"08:00 ~ 17:00","closedDaySet":[]},"costPerPerson":-1,"spendingTime":{"hour":1.0,"standardDeviation":0.05},"isRestaurant":false},{"id":8092604,"name":"천제연폭포","poiType":{"category":"여행","subCategory":"관광,명소","subSubCategory":"폭포"},"address":"제주특별자치도 서귀포시 중문동 2785-2","location":{"latitude":33.25151306721994,"longitude":126.41727183949772},"score":3.7,"businessHours":{"businessHours":"08:00 ~ 18:00","closedDaySet":[]},"costPerPerson":-1,"spendingTime":{"hour":1.0,"standardDeviation":0.05},"isRestaurant":false},{"id":19499632,"name":"조은승마장","poiType":{"category":"여행","subCategory":"스포츠,레저","subSubCategory":"승마"},"address":"제주특별자치도 서귀포시 안덕면 동광리 897-2","location":{"latitude":33.31823501547889,"longitude":126.34482894449812},"score":4.0,"businessHours":{"businessHours":"10:30 ~ 17:00","closedDaySet":[]},"costPerPerson":-1,"spendingTime":{"hour":1.0,"standardDeviation":0.05},"isRestaurant":false},{"id":7912384,"name":"우도산호해변","poiType":{"category":"여행","subCategory":"관광,명소","subSubCategory":"해수욕장,해변"},"address":"제주특별자치도 제주시 우도면 연평리","location":{"latitude":33.502406396948366,"longitude":126.94304643366694},"score":4.3,"businessHours":{"businessHours":"10:30 ~ 17:00","closedDaySet":[]},"costPerPerson":-1,"spendingTime":{"hour":1.0,"standardDeviation":0.05},"isRestaurant":false},{"id":11294440,"name":"큰엉해안경승지","poiType":{"category":"여행","subCategory":"관광,명소","subSubCategory":""},"address":"제주특별자치도 서귀포시 남원읍 남원리","location":{"latitude":33.273330830454405,"longitude":126.70371331162352},"score":1.5,"businessHours":{"businessHours":"10:30 ~ 17:00","closedDaySet":[]},"costPerPerson":-1,"spendingTime":{"hour":1.0,"standardDeviation":0.05},"isRestaurant":false},{"id":8559375,"name":"테디베어뮤지엄 제주점","poiType":{"category":"여행","subCategory":"문화,예술","subSubCategory":"박물관"},"address":"제주특별자치도 서귀포시 색달동 2889","location":{"latitude":33.2502952306345,"longitude":126.4121635560196},"score":2.5,"businessHours":{"businessHours":"09:00 ~ 18:00","closedDaySet":[]},"costPerPerson":-1,"spendingTime":{"hour":1.0,"standardDeviation":0.05},"isRestaurant":false},{"id":1766125269,"name":"서귀포치유의숲","poiType":{"category":"여행","subCategory":"관광,명소","subSubCategory":"숲"},"address":"제주특별자치도 서귀포시 호근동 산 4","location":{"latitude":33.2918779569778,"longitude":126.527883051611},"score":4.0,"businessHours":{"businessHours":"10:30 ~ 17:00","closedDaySet":[]},"costPerPerson":-1,"spendingTime":{"hour":1.0,"standardDeviation":0.05},"isRestaurant":false},{"id":25035440,"name":"외돌개","poiType":{"category":"여행","subCategory":"관광,명소","subSubCategory":"바위"},"address":"제주특별자치도 서귀포시 서홍동 791","location":{"latitude":33.23903454822058,"longitude":126.54486235222313},"score":4.0,"businessHours":{"businessHours":"10:30 ~ 17:00","closedDaySet":[]},"costPerPerson":-1,"spendingTime":{"hour":1.0,"standardDeviation":0.05},"isRestaurant":false},{"id":10399499,"name":"일출랜드","poiType":{"category":"여행","subCategory":"관광,명소","subSubCategory":"테마파크"},"address":"제주특별자치도 서귀포시 성산읍 삼달리 1010","location":{"latitude":33.38340227531834,"longitude":126.84158204007598},"score":3.8,"businessHours":{"businessHours":"08:30 ~ 16:00","closedDaySet":[]},"costPerPerson":-1,"spendingTime":{"hour":1.0,"standardDeviation":0.05},"touristAttractionType":"Themepark","isRestaurant":false},{"id":10329867,"name":"모슬포항","poiType":{"category":"여행","subCategory":"관광,명소","subSubCategory":"항구,포구"},"address":"제주특별자치도 서귀포시 대정읍 하모리 770-28","location":{"latitude":33.21646880012819,"longitude":126.25051073750998},"score":3.0,"businessHours":{"businessHours":"10:30 ~ 17:00","closedDaySet":[]},"costPerPerson":-1,"spendingTime":{"hour":1.0,"standardDeviation":0.05},"isRestaurant":false},{"id":11635431,"name":"올레길 7코스(서귀포-월평 올레)","poiType":{"category":"여행","subCategory":"관광,명소","subSubCategory":"도보여행"},"address":"제주특별자치도 서귀포시 서홍동","location":{"latitude":33.241249728481975,"longitude":126.54803540265205},"score":4.2,"businessHours":{"businessHours":"10:30 ~ 17:00","closedDaySet":[]},"costPerPerson":-1,"spendingTime":{"hour":1.0,"standardDeviation":0.05},"isRestaurant":false},{"id":12501734,"name":"선녀와나무꾼 테마공원","poiType":{"category":"여행","subCategory":"관광,명소","subSubCategory":"테마파크"},"address":"제주특별자치도 제주시 조천읍 선흘리 1997","location":{"latitude":33.478794354753305,"longitude":126.7037786982427},"score":4.5,"businessHours":{"businessHours":"08:30 ~ 16:00","closedDaySet":[]},"costPerPerson":-1,"spendingTime":{"hour":1.0,"standardDeviation":0.05},"touristAttractionType":"Themepark","isRestaurant":false},{"id":8375194,"name":"서귀포자연휴양림","poiType":{"category":"여행","subCategory":"관광,명소","subSubCategory":"자연휴양림"},"address":"제주특별자치도 서귀포시 하원동 산 1-1","location":{"latitude":33.31229088244902,"longitude":126.4648713276826},"score":5.0,"businessHours":{"businessHours":"09:00 ~ 18:00","closedDaySet":[]},"costPerPerson":-1,"spendingTime":{"hour":1.0,"standardDeviation":0.05},"isRestaurant":false},{"id":7899031,"name":"별도봉","poiType":{"category":"여행","subCategory":"관광,명소","subSubCategory":"산봉우리"},"address":"제주특별자치도 제주시 화북1동 4472","location":{"latitude":33.51893257624101,"longitude":126.55265025740954},"score":5.0,"businessHours":{"businessHours":"10:30 ~ 17:00","closedDaySet":[]},"costPerPerson":-1,"spendingTime":{"hour":1.0,"standardDeviation":0.05},"isRestaurant":false},{"id":7973783,"name":"신비의도로","poiType":{"category":"여행","subCategory":"관광,명소","subSubCategory":"테마거리"},"address":"제주특별자치도 제주시 노형동 291-16","location":{"latitude":33.450401982387916,"longitude":126.48789073162385},"score":3.0,"businessHours":{"businessHours":"10:30 ~ 17:00","closedDaySet":[]},"costPerPerson":-1,"spendingTime":{"hour":1.0,"standardDeviation":0.05},"isRestaurant":false},{"id":23231118,"name":"물의도시 베니스랜드","poiType":{"category":"여행","subCategory":"관광,명소","subSubCategory":"테마파크"},"address":"제주특별자치도 서귀포시 성산읍 난산리 2570","location":{"latitude":33.415271393773494,"longitude":126.84070662186802},"score":2.8,"businessHours":{"businessHours":"09:00 ~ 18:00","closedDaySet":[]},"costPerPerson":-1,"spendingTime":{"hour":1.0,"standardDeviation":0.05},"touristAttractionType":"Themepark","isRestaurant":false},{"id":26974762,"name":"황우지해안","poiType":{"category":"여행","subCategory":"관광,명소","subSubCategory":"해수욕장,해변"},"address":"제주특별자치도 서귀포시 천지동 765-7","location":{"latitude":33.24146796413547,"longitude":126.55052785543981},"score":1.5,"businessHours":{"businessHours":"10:30 ~ 17:00","closedDaySet":[]},"costPerPerson":-1,"spendingTime":{"hour":1.0,"standardDeviation":0.05},"isRestaurant":false},{"id":25456179,"name":"한울랜드","poiType":{"category":"여행","subCategory":"관광,명소","subSubCategory":"테마파크"},"address":"제주특별자치도 제주시 구좌읍 덕천리 766","location":{"latitude":33.4975840965143,"longitude":126.750440248179},"score":5.0,"businessHours":{"businessHours":"08:30 ~ 17:00","closedDaySet":[]},"costPerPerson":-1,"spendingTime":{"hour":1.0,"standardDeviation":0.05},"touristAttractionType":"Themepark","isRestaurant":false},{"id":7956367,"name":"송악산","poiType":{"category":"여행","subCategory":"관광,명소","subSubCategory":"산"},"address":"제주특별자치도 서귀포시 대정읍 상모리 산 2","location":{"latitude":33.199213766918064,"longitude":126.29011921327826},"score":5.0,"businessHours":{"businessHours":"10:30 ~ 17:00","closedDaySet":[]},"costPerPerson":-1,"spendingTime":{"hour":1.0,"standardDeviation":0.05},"isRestaurant":false},{"id":10455841,"name":"붉은오름","poiType":{"category":"여행","subCategory":"관광,명소","subSubCategory":"오름"},"address":"제주특별자치도 서귀포시 표선면 가시리 산 158","location":{"latitude":33.399876376729075,"longitude":126.67971611334782},"score":4.5,"businessHours":{"businessHours":"10:30 ~ 17:00","closedDaySet":[]},"costPerPerson":-1,"spendingTime":{"hour":1.0,"standardDeviation":0.05},"isRestaurant":false},{"id":7832439,"name":"돈내코유원지","poiType":{"category":"여행","subCategory":"관광,명소","subSubCategory":"유원지"},"address":"제주특별자치도 서귀포시 상효동 1459","location":{"latitude":33.30036752094057,"longitude":126.58413224423947},"score":4.0,"businessHours":{"businessHours":"10:30 ~ 17:00","closedDaySet":[]},"costPerPerson":-1,"spendingTime":{"hour":1.0,"standardDeviation":0.05},"isRestaurant":false},{"id":27254363,"name":"제주곶자왈도립공원","poiType":{"category":"여행","subCategory":"관광,명소","subSubCategory":"도립공원"},"address":"제주특별자치도 서귀포시 대정읍 보성리","location":{"latitude":33.2889471542423,"longitude":126.27172187226317},"score":3.0,"businessHours":{"businessHours":"10:30 ~ 17:00","closedDaySet":[]},"costPerPerson":-1,"spendingTime":{"hour":1.0,"standardDeviation":0.05},"isRestaurant":false},{"id":25023085,"name":"김녕해수욕장","poiType":{"category":"여행","subCategory":"관광,명소","subSubCategory":"해수욕장,해변"},"address":"제주특별자치도 제주시 구좌읍 김녕리 497-4","location":{"latitude":33.5574388587079,"longitude":126.759313988844},"score":5.0,"businessHours":{"businessHours":"10:00 ~ 19:00","closedDaySet":[]},"costPerPerson":-1,"spendingTime":{"hour":1.0,"standardDeviation":0.05},"isRestaurant":false},{"id":8096619,"name":"초콜릿박물관","poiType":{"category":"여행","subCategory":"문화,예술","subSubCategory":"박물관"},"address":"제주특별자치도 서귀포시 대정읍 일과리 551-18","location":{"latitude":33.25703806292274,"longitude":126.22997182143021},"score":3.4,"businessHours":{"businessHours":"10:00 ~ 17:00","closedDaySet":[]},"costPerPerson":-1,"spendingTime":{"hour":1.0,"standardDeviation":0.05},"isRestaurant":false},{"id":12501794,"name":"성읍민속마을","poiType":{"category":"여행","subCategory":"관광,명소","subSubCategory":"민속촌"},"address":"제주특별자치도 서귀포시 표선면 성읍리 820-1","location":{"latitude":33.3870066802468,"longitude":126.799985307045},"score":1.5,"businessHours":{"businessHours":"00:00 ~ 24:00","closedDaySet":[]},"costPerPerson":-1,"spendingTime":{"hour":1.0,"standardDeviation":0.05},"isRestaurant":false}]