#id	title	latitude	longitude	othernames	category	subcategory	subsubcategory	Addresscode_1	AddressCode_2	AddressCode_3	Detailed_address	BusinessHours	closingdays	parkingLot	cost	publicTransportationAccess	satisfaction	spendingTime	placeURL		
daum.9843044	베스트고시텔	37.43566592	127.1406443		교육,학문	학습시설	고시원	대한민국	경기	성남시	중원구 성남동 2493 2층 	{}	{""weeklyClosingDays"":[],""monthlyClosingDayOfWeeks"":[],""yearlyClosingDays"":[]}	-1	-1	[]	0	1	0.0256	http://place.map.daum.net/9843044	
daum.11831382	금왕평양면옥	37.66995975	126.7863546		음식점	한식	냉면	대한민국	경기	고양시	일산동구 정발산동 1271-7 	{""weekDayOpen"":""10:00"",""weekDayClose"":""22:00"",""saturdayOpen"":""10:00"",""saturdayClose"":""22:00"",""sundayOpen"":""10:00"",""sundayClose"":""22:00""}	{""weeklyClosingDays"":[],""monthlyClosingDayOfWeeks"":[],""yearlyClosingDays"":[""명절""]}	-1	-1	[]	10	1	0.0256	http://place.map.daum.net/11831382	
daum.7912085	비자림	33.48397154	126.8057408		여행	관광,명소	휴양림/숲길걷기	대한민국	제주특별자치도	제주시	구좌읍 평대리 산3164-1 	{""weekDayOpen"":""9:00"",""weekDayClose"":""18:00"",""saturdayOpen"":""9:00"",""saturdayClose"":""18:00"",""sundayOpen"":""9:00"",""sundayClose"":""18:00""}	{""weeklyClosingDays"":[],""monthlyClosingDayOfWeeks"":[],""yearlyClosingDays"":[]}	-1	1500	[]	8.7	1	0.333333333	http://place.map.daum.net/7912085	
daum.12372824	우리은행 한국전자통신연구원영업점	36.3830495	127.3665255		금융,보험	금융서비스	은행	대한민국	대전	유성구	가정동 161 	{""weekDayOpen"":""09:00"",""weekDayClose"":""16:00""}	{""weeklyClosingDays"":[],""monthlyClosingDayOfWeeks"":[],""yearlyClosingDays"":[]}	-1	-1	[]	0	1	0.0256	http://place.map.daum.net/12372824	
daum.17116211	선영	37.38454232	127.1310322		음식점	한식	한정식	대한민국	경기	성남시	분당구 서현동 77-2 	{}	{""weeklyClosingDays"":[],""monthlyClosingDayOfWeeks"":[],""yearlyClosingDays"":[]}	-1	-1	[]	10	1	0.0256	http://place.map.daum.net/17116211	
daum.10965595	회룡역 1호선	37.72438968	127.0473593		교통,수송	지하철,전철	수도권지하철1호선	대한민국	경기	의정부시	호원동	{}	{""weeklyClosingDays"":[],""monthlyClosingDayOfWeeks"":[],""yearlyClosingDays"":[]}	-1	-1	[]	0	1	0.0256	http://place.map.daum.net/10965595	
daum.13295745	에이브리빙텔	37.49714196	126.7764169		교육,학문	학습시설	고시원	대한민국	경기	부천시	원미구 중동 1127-8 2층 	{}	{""weeklyClosingDays"":[],""monthlyClosingDayOfWeeks"":[],""yearlyClosingDays"":[]}	-1	-1	[]	9.8	1	0.0256	http://place.map.daum.net/13295745	
daum.19901061	마루게스트하우스	37.5618272	126.97821		여행	숙박	게스트하우스	대한민국	서울	중구	북창동 108-5 	{}	{""weeklyClosingDays"":[],""monthlyClosingDayOfWeeks"":[],""yearlyClosingDays"":[]}	-1	-1	[]	9.4	1	0.0256	http://place.map.daum.net/19901061	
daum.21854535	신라명과 간석역점	37.47023961	126.6908456		음식점	간식	제과,베이커리	대한민국	인천	남동구	간석동 762-2 1호선 간석역 	{""weekDayOpen"":""07:00"",""weekDayClose"":""22:00"",""saturdayOpen"":""07:00"",""saturdayClose"":""22:00"",""sundayOpen"":""07:00"",""sundayClose"":""22:00""}	{""weeklyClosingDays"":[],""monthlyClosingDayOfWeeks"":[],""yearlyClosingDays"":[]}	-1	-1	[]	0	1	0.0256	http://place.map.daum.net/21854535	
daum.25770774	오투레지던스 이대점	37.55730331	126.9431131		교육,학문	학습시설	고시원	대한민국	서울	서대문구	대현동 101-12 자유빌딩 3층 	{}	{""weeklyClosingDays"":[],""monthlyClosingDayOfWeeks"":[],""yearlyClosingDays"":[]}	-1	-1	[]	10	1	0.0256	http://place.map.daum.net/25770774	
daum.11923131	고시텔풀하우스	37.57071294	127.0044599		교육,학문	학습시설	고시원	대한민국	서울	종로구	종로5가 231-5 	{}	{""weeklyClosingDays"":[],""monthlyClosingDayOfWeeks"":[],""yearlyClosingDays"":[]}	-1	-1	[]	8.5	1	0.0256	http://place.map.daum.net/11923131	
daum.8204922	코레일공항철도	37.56937002	126.673018		사회,공공기관	공사,공단		대한민국	인천	서구	시천동 414-204 	{}	{""weeklyClosingDays"":[],""monthlyClosingDayOfWeeks"":[],""yearlyClosingDays"":[]}	-1	-1	[]	0	1	0.0256	http://place.map.daum.net/8204922	
daum.8463314	요트투어샹그릴라	33.24334082	126.4163728		여행	관광,명소	투어버스/유람선/관광열차	대한민국	제주특별자치도	서귀포시	색달동 2950-5 	{""weekDayOpen"":""7:30"",""weekDayClose"":""18:00"",""saturdayOpen"":""7:30"",""saturdayClose"":""18:00"",""sundayOpen"":""7:30"",""sundayClose"":""18:00""}	{""weeklyClosingDays"":[],""monthlyClosingDayOfWeeks"":[],""yearlyClosingDays"":[]}	-1	60000	[]	9.8	1	0.5	http://place.map.daum.net/8463314	
daum.18234115	압구정로데오역 분당선	37.52751938	127.0406005		교통,수송	지하철,전철	수도권지하철분당선	대한민국	서울	강남구	압구정동	{}	{""weeklyClosingDays"":[],""monthlyClosingDayOfWeeks"":[],""yearlyClosingDays"":[]}	-1	-1	[]	0	1	0.0256	http://place.map.daum.net/18234115	
daum.25597316	Tworld 부천역직영샵	37.54916611	126.8359215		서비스,산업	정보통신	SK텔레콤	대한민국	서울	강서구	내발산동 723 도시철도공사5호선우장산역 내 1층 5호 	{}	{""weeklyClosingDays"":[],""monthlyClosingDayOfWeeks"":[],""yearlyClosingDays"":[]}	-1	-1	[]	0	1	0.0256	http://place.map.daum.net/25597316	
daum.10713436	정왕역 4호선	37.35182296	126.7429299		교통,수송	지하철,전철	수도권지하철4호선	대한민국	경기	시흥시	정왕동	{}	{""weeklyClosingDays"":[],""monthlyClosingDayOfWeeks"":[],""yearlyClosingDays"":[]}	-1	-1	[]	0	1	0.0256	http://place.map.daum.net/10713436	
daum.12354187	용연구름다리	33.51488321	126.5143922		여행	관광,명소	자연경관	대한민국	제주특별자치도	제주시	용담2동	{""weekDayOpen"":""5:30"",""weekDayClose"":""19:30"",""saturdayOpen"":""5:30"",""saturdayClose"":""19:30"",""sundayOpen"":""5:30"",""sundayClose"":""19:30""}	{""weeklyClosingDays"":[],""monthlyClosingDayOfWeeks"":[],""yearlyClosingDays"":[]}	-1	0	[]	10	0.25	0.083333333	http://place.map.daum.net/12354187	
daum.17110921	미로공원	33.53653188	126.7722353		여행	관광,명소	테마파크	대한민국	제주특별자치도	제주시	구좌읍 김녕리 산16 	{""weekDayOpen"":""8:30"",""weekDayClose"":""17:30"",""saturdayOpen"":""8:30"",""saturdayClose"":""17:30"",""sundayOpen"":""8:30"",""sundayClose"":""17:30""}	{""weeklyClosingDays"":[],""monthlyClosingDayOfWeeks"":[],""yearlyClosingDays"":[]}	-1	3300	[]	8.6	0.6	0.333333333	http://place.map.daum.net/17110921	
daum.26352406	대곡역 경의중앙선	37.63185249	126.8099055		교통,수송	지하철,전철	수도권지하철경의중앙선	대한민국	경기	고양시	덕양구 대장동 	{}	{""weeklyClosingDays"":[],""monthlyClosingDayOfWeeks"":[],""yearlyClosingDays"":[]}	-1	-1	[]	0	1	0.0256	http://place.map.daum.net/26352406	
daum.26352405	금촌역 경의중앙선	37.7662265	126.7746333		교통,수송	지하철,전철	수도권지하철경의중앙선	대한민국	경기	파주시	금촌동	{}	{""weeklyClosingDays"":[],""monthlyClosingDayOfWeeks"":[],""yearlyClosingDays"":[]}	-1	-1	[]	0	1	0.0256	http://place.map.daum.net/26352405	
daum.11792904	올레길 8코스월평대평올레	33.24341946	126.4584764		여행	관광,명소	도보여행	대한민국	제주특별자치도	서귀포시	월평동	{}	{""weeklyClosingDays"":[],""monthlyClosingDayOfWeeks"":[],""yearlyClosingDays"":[]}	-1	-1	[]	7	1	0.0256	http://place.map.daum.net/11792904	
daum.12818605	춘의역 7호선	37.50369919	126.7869966		교통,수송	지하철,전철	수도권지하철7호선	대한민국	경기	부천시	원미구 춘의동 	{}	{""weeklyClosingDays"":[],""monthlyClosingDayOfWeeks"":[],""yearlyClosingDays"":[]}	-1	-1	[]	0	1	0.0256	http://place.map.daum.net/12818605	
daum.17472428	원룸텔 그랜드하우스	37.54986601	126.8649445		교육,학문	학습시설	고시원	대한민국	서울	양천구	목3동 607-36 	{}	{""weeklyClosingDays"":[],""monthlyClosingDayOfWeeks"":[],""yearlyClosingDays"":[]}	-1	-1	[]	5.8	1	0.0256	http://place.map.daum.net/17472428	
daum.26052591	능동에있는광진소곱창	37.5557573	127.0813358		음식점	한식	육류,고기	대한민국	서울	광진구	능동 222-5 	{}	{""weeklyClosingDays"":[],""monthlyClosingDayOfWeeks"":[],""yearlyClosingDays"":[]}	-1	-1	[]	0	1	0.0256	http://place.map.daum.net/26052591	
daum.14563603	게스트하우스 원룸텔 구로디지털역점	37.48150682	126.899158		여행	숙박	게스트하우스	대한민국	서울	구로구	구로3동 1130-1 4층 	{}	{""weeklyClosingDays"":[],""monthlyClosingDayOfWeeks"":[],""yearlyClosingDays"":[]}	-1	-1	[]	0	1	0.0256	http://place.map.daum.net/14563603
daum.18234120	서울숲역 분당선	37.5436458	127.0447462		교통,수송	지하철,전철	수도권지하철분당선	대한민국	서울	성동구	성수동1가	{}	{""weeklyClosingDays"":[],""monthlyClosingDayOfWeeks"":[],""yearlyClosingDays"":[]}	-1	-1	[]	0	1	0.0256	http://place.map.daum.net/18234120	
daum.10191846	더노스페이스 강남대로점	37.50614508	127.0231536		가정,생활	패션	의류판매	대한민국	서울	서초구	반포동 737-8 1층 	{}	{""weeklyClosingDays"":[],""monthlyClosingDayOfWeeks"":[],""yearlyClosingDays"":[]}	-1	-1	[]	10	1	0.0256	http://place.map.daum.net/10191846	
daum.8004227	여미지식물원	33.25260678	126.4142595		여행	관광,명소	수목원,식물원	대한민국	제주특별자치도	서귀포시	색달동 2484-1 중문단지 내 	{""weekDayOpen"":""9:00"",""weekDayClose"":""18:00"",""saturdayOpen"":""9:00"",""saturdayClose"":""18:00"",""sundayOpen"":""9:00"",""sundayClose"":""18:00""}	{""weeklyClosingDays"":[],""monthlyClosingDayOfWeeks"":[],""yearlyClosingDays"":[]}	-1	9000	[]	3.3	1.5	0.25	http://place.map.daum.net/8004227	
daum.18234123	왕십리역 분당선	37.56064073	127.0387849		교통,수송	지하철,전철	수도권지하철분당선	대한민국	서울	성동구	행당동	{}	{""weeklyClosingDays"":[],""monthlyClosingDayOfWeeks"":[],""yearlyClosingDays"":[]}	-1	-1	[]	0	1	0.0256	http://place.map.daum.net/18234123	
daum.10779285	진위역 1호선	37.10970781	127.0623152		교통,수송	지하철,전철	수도권지하철1호선	대한민국	경기	평택시	진위면 하북리 	{}	{""weeklyClosingDays"":[],""monthlyClosingDayOfWeeks"":[],""yearlyClosingDays"":[]}	-1	-1	[]	0	1	0.0256	http://place.map.daum.net/10779285	
daum.23773741	켄싱턴제주호텔	33.25255546	126.4079929		여행	숙박	호텔	대한민국	제주특별자치도	서귀포시	색달동 2785 	{}	{""weeklyClosingDays"":[],""monthlyClosingDayOfWeeks"":[],""yearlyClosingDays"":[]}	-1	-1	[]	8	1	0.0256	http://place.map.daum.net/23773741	
daum.9912179	이매역 분당선	37.39620816	127.1282879		교통,수송	지하철,전철	수도권지하철분당선	대한민국	경기	성남시	분당구 이매동 	{}	{""weeklyClosingDays"":[],""monthlyClosingDayOfWeeks"":[],""yearlyClosingDays"":[]}	-1	-1	[]	0	1	0.0256	http://place.map.daum.net/9912179	
daum.11241859	청평역	37.73550918	127.4266274		교통,수송	기차,철도	기차역	대한민국	경기	가평군	청평면 청평리 174 	{}	{""weeklyClosingDays"":[],""monthlyClosingDayOfWeeks"":[],""yearlyClosingDays"":[]}	-1	-1	[]	0	1	0.0256	http://place.map.daum.net/11241859	
daum.8063699	선샤인호텔	33.54425326	126.661818		여행	숙박	호텔	대한민국	제주특별자치도	제주시	조천읍 함덕리 1040 	{}	{""weeklyClosingDays"":[],""monthlyClosingDayOfWeeks"":[],""yearlyClosingDays"":[]}	-1	-1	[]	9.5	1	0.0256	http://place.map.daum.net/8063699	
daum.20127314	교래자연휴양림	33.44030903	126.6589483		여행	관광,명소	자연휴양림	대한민국	제주특별자치도	제주시	조천읍 교래리 산119 	{}	{""weeklyClosingDays"":[],""monthlyClosingDayOfWeeks"":[],""yearlyClosingDays"":[]}	-1	-1	[]	10	1	0.0256	http://place.map.daum.net/20127314	
daum.13286823	돈거동낙 길동점	37.54272085	127.1458647		음식점	한식	육류,고기	대한민국	서울	강동구	길동 329-1 5호선 길동역 2번출구 훼밀리마트 골목- 	{}	{""weeklyClosingDays"":[],""monthlyClosingDayOfWeeks"":[],""yearlyClosingDays"":[]}	-1	-1	[]	0	1	0.0256	http://place.map.daum.net/13286823	
daum.7977875	신이문역 1호선	37.60178164	127.067398		교통,수송	지하철,전철	수도권지하철1호선	대한민국	서울	동대문구	이문동	{}	{""weeklyClosingDays"":[],""monthlyClosingDayOfWeeks"":[],""yearlyClosingDays"":[]}	-1	-1	[]	0	1	0.0256	http://place.map.daum.net/7977875	
daum.7862728	롯데호텔 제주	33.24866167	126.4105258		여행	숙박	호텔	대한민국	제주특별자치도	서귀포시	색달동 2812-4 중문관광단지 내 	{}	{""weeklyClosingDays"":[],""monthlyClosingDayOfWeeks"":[],""yearlyClosingDays"":[]}	-1	-1	[]	9.7	1	0.0256	http://place.map.daum.net/7862728	
daum.17122917	미샤 지하철5호선광화문역점	37.5716441	126.9763824		가정,생활	미용	화장품	대한민국	서울	종로구	도렴동 83 지하철5호선 광화문역 지하 1층 	{}	{""weeklyClosingDays"":[],""monthlyClosingDayOfWeeks"":[],""yearlyClosingDays"":[]}	-1	-1	[]	NaN	1	0.0256	http://place.map.daum.net/17122917	
daum.17606195	송도역 수인선	37.43015544	126.6543991		교통,수송	지하철,전철	수인선	대한민국	인천	연수구	옥련동	{}	{""weeklyClosingDays"":[],""monthlyClosingDayOfWeeks"":[],""yearlyClosingDays"":[]}	-1	-1	[]	0	1	0.0256	http://place.map.daum.net/17606195	
daum.17606196	연수역 수인선	37.41816061	126.6784753		교통,수송	지하철,전철	수인선	대한민국	인천	연수구	연수동	{}	{""weeklyClosingDays"":[],""monthlyClosingDayOfWeeks"":[],""yearlyClosingDays"":[]}	-1	-1	[]	0	1	0.0256	http://place.map.daum.net/17606196	
daum.22110383	매탄권선역 분당선	37.25250551	127.0408087		교통,수송	지하철,전철	수도권지하철분당선	대한민국	경기	수원시	권선구 권선동 	{}	{""weeklyClosingDays"":[],""monthlyClosingDayOfWeeks"":[],""yearlyClosingDays"":[]}	-1	-1	[]	0	1	0.0256	http://place.map.daum.net/22110383	
daum.17494023	역곡역 1호선	37.48531436	126.8120593		교통,수송	지하철,전철	수도권지하철1호선	대한민국	경기	부천시	원미구 역곡동 	{}	{""weeklyClosingDays"":[],""monthlyClosingDayOfWeeks"":[],""yearlyClosingDays"":[]}	-1	-1	[]	0	1	0.0256	http://place.map.daum.net/17494023	
daum.17122911	미샤 지하철3호선교대역점	37.49384596	127.0142255		가정,생활	미용	화장품	대한민국	서울	서초구	서초3동 1715-9 지하철3호선교대역내 상가8호 	{}	{""weeklyClosingDays"":[],""monthlyClosingDayOfWeeks"":[],""yearlyClosingDays"":[]}	-1	-1	[]	0	1	0.0256	http://place.map.daum.net/17122911	
daum.21160818	마두역 3호선	37.65224114	126.7776117		교통,수송	지하철,전철	수도권지하철3호선	대한민국	경기	고양시	일산동구 마두동 	{}	{""weeklyClosingDays"":[],""monthlyClosingDayOfWeeks"":[],""yearlyClosingDays"":[]}	-1	-1	[]	0	1	0.0256	http://place.map.daum.net/21160818	
daum.19138583	에듀윌주택관리사 대방학원	37.5129484	126.9289629		교육,학문	학원	주택관리사학원	대한민국	서울	동작구	대방동 339-1 솔표빌딩 10층 	{}	{""weeklyClosingDays"":[],""monthlyClosingDayOfWeeks"":[],""yearlyClosingDays"":[]}	-1	-1	[]	9.3	1	0.0256	http://place.map.daum.net/19138583	
daum.21160819	고속터미널역 3호선	37.50454705	127.005121		교통,수송	지하철,전철	수도권지하철3호선	대한민국	서울	서초구	반포동	{}	{""weeklyClosingDays"":[],""monthlyClosingDayOfWeeks"":[],""yearlyClosingDays"":[]}	-1	-1	[]	0	1	0.0256	http://place.map.daum.net/21160819	
daum.21160816	매봉역 3호선	37.48693947	127.0467114		교통,수송	지하철,전철	수도권지하철3호선	대한민국	서울	강남구	도곡동	{}	{""weeklyClosingDays"":[],""monthlyClosingDayOfWeeks"":[],""yearlyClosingDays"":[]}	-1	-1	[]	0	1	0.0256	http://place.map.daum.net/21160816	
daum.10706726	외대앞역 1호선	37.59627324	127.0636925		교통,수송	지하철,전철	수도권지하철1호선	대한민국	서울	동대문구	이문동	{}	{""weeklyClosingDays"":[],""monthlyClosingDayOfWeeks"":[],""yearlyClosingDays"":[]}	-1	-1	[]	0	1	0.0256	http://place.map.daum.net/10706726	
daum.21160817	대곡역 3호선	37.63169556	126.81093		교통,수송	지하철,전철	수도권지하철3호선	대한민국	경기	고양시	덕양구 대장동 	{}	{""weeklyClosingDays"":[],""monthlyClosingDayOfWeeks"":[],""yearlyClosingDays"":[]}	-1	-1	[]	0	1	0.0256	http://place.map.daum.net/21160817	
daum.21160814	연신내역 3호선	37.61920325	126.9211007		교통,수송	지하철,전철	수도권지하철3호선	대한민국	서울	은평구	갈현동	{}	{""weeklyClosingDays"":[],""monthlyClosingDayOfWeeks"":[],""yearlyClosingDays"":[]}	-1	-1	[]	0	1	0.0256	http://place.map.daum.net/21160814	
daum.21160815	양재역 3호선	37.48457591	127.0341641		교통,수송	지하철,전철	수도권지하철3호선	대한민국	서울	서초구	서초동	{}	{""weeklyClosingDays"":[],""monthlyClosingDayOfWeeks"":[],""yearlyClosingDays"":[]}	-1	-1	[]	0	1	0.0256	http://place.map.daum.net/21160815	
daum.11881686	해피하우스 신논현점	37.50598574	127.0267591		교육,학문	학습시설	고시원	대한민국	서울	강남구	논현동 197-22 2,3층 	{}	{""weeklyClosingDays"":[],""monthlyClosingDayOfWeeks"":[],""yearlyClosingDays"":[]}	-1	-1	[]	0	1	0.0256	http://place.map.daum.net/11881686	
daum.21160812	종합운동장역 2호선	37.51114466	127.0738494		교통,수송	지하철,전철	수도권지하철2호선	대한민국	서울	송파구	잠실동	{}	{""weeklyClosingDays"":[],""monthlyClosingDayOfWeeks"":[],""yearlyClosingDays"":[]}	-1	-1	[]	0	1	0.0256	http://place.map.daum.net/21160812	
daum.21160813	약수역 3호선	37.5545054	127.0108917		교통,수송	지하철,전철	수도권지하철3호선	대한민국	서울	중구	신당동	{}	{""weeklyClosingDays"":[],""monthlyClosingDayOfWeeks"":[],""yearlyClosingDays"":[]}	-1	-1	[]	0	1	0.0256	http://place.map.daum.net/21160813	
daum.26352421	공덕역 경의중앙선	37.54247351	126.9527198		교통,수송	지하철,전철	수도권지하철경의중앙선	대한민국	서울	마포구	공덕동	{}	{""weeklyClosingDays"":[],""monthlyClosingDayOfWeeks"":[],""yearlyClosingDays"":[]}	-1	-1	[]	0	1	0.0256	http://place.map.daum.net/26352421	
daum.21160810	봉천역 2호선	37.48247252	126.9416865		교통,수송	지하철,전철	수도권지하철2호선	대한민국	서울	관악구	봉천동	{}	{""weeklyClosingDays"":[],""monthlyClosingDayOfWeeks"":[],""yearlyClosingDays"":[]}	-1	-1	[]	0	1	0.0256	http://place.map.daum.net/21160810	
daum.18605918	쌍용건설 경의선복선전철 제2공구노반신설현장	37.57212189	126.9073764		서비스,산업	건설,건축	종합건설사	대한민국	서울	마포구	중동 18 	{}	{""weeklyClosingDays"":[],""monthlyClosingDayOfWeeks"":[],""yearlyClosingDays"":[]}	-1	-1	[]	0	1	0.0256	http://place.map.daum.net/18605918	
daum.21160811	사당역 2호선	37.47656043	126.9815586		교통,수송	지하철,전철	수도권지하철2호선	대한민국	서울	동작구	사당동	{}	{""weeklyClosingDays"":[],""monthlyClosingDayOfWeeks"":[],""yearlyClosingDays"":[]}	-1	-1	[]	0	1	0.0256	http://place.map.daum.net/21160811	
daum.11298518	범계역 4호선	37.38978375	126.9507833		교통,수송	지하철,전철	수도권지하철4호선	대한민국	경기	안양시	동안구 호계동 	{}	{""weeklyClosingDays"":[],""monthlyClosingDayOfWeeks"":[],""yearlyClosingDays"":[]}	-1	-1	[]	0	1	0.0256	http://place.map.daum.net/11298518	
daum.15141544	양재역교차로	37.48445343	127.0339832		교통,수송	도로시설	교차로	대한민국	서울	강남구	도곡동	{}	{""weeklyClosingDays"":[],""monthlyClosingDayOfWeeks"":[],""yearlyClosingDays"":[]}	-1	-1	[]	0	1	0.0256	http://place.map.daum.net/15141544	
daum.26352427	수색역 경의중앙선	37.58086257	126.8956595		교통,수송	지하철,전철	수도권지하철경의중앙선	대한민국	서울	은평구	수색동	{}	{""weeklyClosingDays"":[],""monthlyClosingDayOfWeeks"":[],""yearlyClosingDays"":[]}	-1	-1	[]	0	1	0.0256	http://place.map.daum.net/26352427	
daum.8350843	따라비오름	33.38870699	126.7528584		여행	관광,명소	산봉우리/등산로	대한민국	제주특별자치도	서귀포시	표선면 가시리 62 	{""weekDayOpen"":""8:00"",""weekDayClose"":""18:00"",""saturdayOpen"":""8:00"",""saturdayClose"":""18:00"",""sundayOpen"":""8:00"",""sundayClose"":""18:00""}	{""weeklyClosingDays"":[],""monthlyClosingDayOfWeeks"":[],""yearlyClosingDays"":[]}	-1	0	[]	0	0.666666667	0.25	http://place.map.daum.net/8350843	
daum.14493485	사려니숲길	33.42213658	126.6265184		여행	관광,명소	휴양림/숲길걷기	대한민국	제주특별자치도	제주시	조천읍 교래리 	{""weekDayOpen"":""8:00"",""weekDayClose"":""18:30"",""saturdayOpen"":""8:00"",""saturdayClose"":""18:30"",""sundayOpen"":""8:00"",""sundayClose"":""18:30""}	{""weeklyClosingDays"":[],""monthlyClosingDayOfWeeks"":[],""yearlyClosingDays"":[]}	-1	0	[]	8.3	3	1	http://place.map.daum.net/14493485	
daum.26520051	아일랜드레지던스	37.57339215	127.0230159		교육,학문	학습시설	고시원	대한민국	서울	종로구	숭인동 1395 	{}	{""weeklyClosingDays"":[],""monthlyClosingDayOfWeeks"":[],""yearlyClosingDays"":[]}	-1	-1	[]	10	1	0.0256	http://place.map.daum.net/26520051	
daum.21160829	사당역 4호선	37.47759121	126.9816985		교통,수송	지하철,전철	수도권지하철4호선	대한민국	서울	동작구	사당동	{}	{""weeklyClosingDays"":[],""monthlyClosingDayOfWeeks"":[],""yearlyClosingDays"":[]}	-1	-1	[]	0	1	0.0256	http://place.map.daum.net/21160829	
daum.15292731	라마다프라자제주호텔	33.51878088	126.5178794		여행	숙박	호텔	대한민국	제주특별자치도	제주시	삼도2동 1254 	{}	{""weeklyClosingDays"":[],""monthlyClosingDayOfWeeks"":[],""yearlyClosingDays"":[]}	-1	-1	[]	8.6	1	0.0256	http://place.map.daum.net/15292731	
daum.12553333	동작복싱클럽	37.48469608	126.9704354		스포츠,레저	복싱,권투	복싱,권투장	대한민국	서울	동작구	사당4동 249-84 은화빌딩 4층 	{""weekDayOpen"":""10:00"",""weekDayClose"":""23:00"",""saturdayOpen"":""10:00"",""saturdayClose"":""23:00"",""sundayOpen"":""10:00"",""sundayClose"":""23:00""}	{""weeklyClosingDays"":[""Sunday""],""monthlyClosingDayOfWeeks"":[],""yearlyClosingDays"":[]}	-1	-1	[]	0	1	0.0256	http://place.map.daum.net/12553333	
daum.25737915	케이호스텔 종로점	37.574045	127.0200638		여행	숙박	게스트하우스	대한민국	서울	종로구	숭인동 200-25 	{}	{""weeklyClosingDays"":[],""monthlyClosingDayOfWeeks"":[],""yearlyClosingDays"":[]}	-1	-1	[]	10	1	0.0256	http://place.map.daum.net/25737915	
daum.21160827	서울역 4호선	37.5530287	126.9726446		교통,수송	지하철,전철	수도권지하철4호선	대한민국	서울	용산구	동자동	{}	{""weeklyClosingDays"":[],""monthlyClosingDayOfWeeks"":[],""yearlyClosingDays"":[]}	-1	-1	[]	0	1	0.0256	http://place.map.daum.net/21160827	
daum.9377733	제일고시원	37.47899065	126.9577706		교육,학문	학습시설	고시원	대한민국	서울	관악구	봉천동 1663-5 	{}	{""weeklyClosingDays"":[],""monthlyClosingDayOfWeeks"":[],""yearlyClosingDays"":[]}	-1	-1	[]	10	1	0.0256	http://place.map.daum.net/9377733	
daum.21160828	이촌역 4호선	37.52237348	126.9745201		교통,수송	지하철,전철	수도권지하철4호선	대한민국	서울	용산구	용산동5가	{}	{""weeklyClosingDays"":[],""monthlyClosingDayOfWeeks"":[],""yearlyClosingDays"":[]}	-1	-1	[]	0	1	0.0256	http://place.map.daum.net/21160828	
daum.21160825	노원역 4호선	37.65634035	127.0634491		교통,수송	지하철,전철	수도권지하철4호선	대한민국	서울	노원구	상계동	{}	{""weeklyClosingDays"":[],""monthlyClosingDayOfWeeks"":[],""yearlyClosingDays"":[]}	-1	-1	[]	0	1	0.0256	http://place.map.daum.net/21160825	
daum.15951176	한국전자통신연구원노동조합소비조합	36.37980695	127.368329		서비스,산업	식품		대한민국	대전	유성구	가정동 161 	{}	{""weeklyClosingDays"":[],""monthlyClosingDayOfWeeks"":[],""yearlyClosingDays"":[]}	-1	-1	[]	0	1	0.0256	http://place.map.daum.net/15951176	
daum.21160826	한성대입구역 4호선	37.58842281	127.0060189		교통,수송	지하철,전철	수도권지하철4호선	대한민국	서울	성북구	삼선동1가	{}	{""weeklyClosingDays"":[],""monthlyClosingDayOfWeeks"":[],""yearlyClosingDays"":[]}	-1	-1	[]	0	1	0.0256	http://place.map.daum.net/21160826	
daum.21160823	경복궁역 3호선	37.57580612	126.9736914		교통,수송	지하철,전철	수도권지하철3호선	대한민국	서울	종로구	적선동	{}	{""weeklyClosingDays"":[],""monthlyClosingDayOfWeeks"":[],""yearlyClosingDays"":[]}	-1	-1	[]	0	1	0.0256	http://place.map.daum.net/21160823	
daum.21160824	당고개역 4호선	37.67021684	127.0790666		교통,수송	지하철,전철	수도권지하철4호선	대한민국	서울	노원구	상계동	{}	{""weeklyClosingDays"":[],""monthlyClosingDayOfWeeks"":[],""yearlyClosingDays"":[]}	-1	-1	[]	0	1	0.0256	http://place.map.daum.net/21160824	
daum.11810010	허브레지던스 노량진점	37.50472931	126.9457271		교육,학문	학습시설	고시원	대한민국	서울	동작구	상도동 32-10 일강빌딩 4층 	{}	{""weeklyClosingDays"":[],""monthlyClosingDayOfWeeks"":[],""yearlyClosingDays"":[]}	-1	-1	[]	5.5	1	0.0256	http://place.map.daum.net/11810010	
daum.26352410	곡산역 경의중앙선	37.64575755	126.8018069		교통,수송	지하철,전철	수도권지하철경의중앙선	대한민국	경기	고양시	일산동구 백석동 	{}	{""weeklyClosingDays"":[],""monthlyClosingDayOfWeeks"":[],""yearlyClosingDays"":[]}	-1	-1	[]	0	1	0.0256	http://place.map.daum.net/26352410	
daum.21160821	잠원역 3호선	37.51288992	127.0114195		교통,수송	지하철,전철	수도권지하철3호선	대한민국	서울	서초구	잠원동	{}	{""weeklyClosingDays"":[],""monthlyClosingDayOfWeeks"":[],""yearlyClosingDays"":[]}	-1	-1	[]	0	1	0.0256	http://place.map.daum.net/21160821	
daum.26352413	풍산역 경의중앙선	37.67233819	126.7862752		교통,수송	지하철,전철	수도권지하철경의중앙선	대한민국	경기	고양시	일산동구 풍동 	{}	{""weeklyClosingDays"":[],""monthlyClosingDayOfWeeks"":[],""yearlyClosingDays"":[]}	-1	-1	[]	0	1	0.0256	http://place.map.daum.net/26352413	
daum.21160822	오금역 3호선	37.50232209	127.1284828		교통,수송	지하철,전철	수도권지하철3호선	대한민국	서울	송파구	오금동	{}	{""weeklyClosingDays"":[],""monthlyClosingDayOfWeeks"":[],""yearlyClosingDays"":[]}	-1	-1	[]	0	1	0.0256	http://place.map.daum.net/21160822	
daum.21160820	구파발역 3호선	37.63643579	126.9188528		교통,수송	지하철,전철	수도권지하철3호선	대한민국	서울	은평구	진관동	{}	{""weeklyClosingDays"":[],""monthlyClosingDayOfWeeks"":[],""yearlyClosingDays"":[]}	-1	-1	[]	0	1	0.0256	http://place.map.daum.net/21160820	
daum.8385723	새각단	35.47133618	129.36781		여행	관광,명소		대한민국	울산	남구	용연동	{}	{""weeklyClosingDays"":[],""monthlyClosingDayOfWeeks"":[],""yearlyClosingDays"":[]}	-1	-1	[]	0	1	0.0256	http://place.map.daum.net/8385723	
daum.26818253	싱글하우스 구로점	37.50121717	126.8871167		교육,학문	학습시설	고시원	대한민국	서울	구로구	구로동 112-1 	{}	{""weeklyClosingDays"":[],""monthlyClosingDayOfWeeks"":[],""yearlyClosingDays"":[]}	-1	-1	[]	0	1	0.0256	http://place.map.daum.net/26818253	
daum.21304567	롯데시네마 건대입구점	37.53852475	127.0731478		문화,예술	영화,영상	영화관	대한민국	서울	광진구	자양동 227-7 스타시티2층 	{}	{""weeklyClosingDays"":[],""monthlyClosingDayOfWeeks"":[],""yearlyClosingDays"":[]}	-1	-1	[]	6.7	1	0.0256	http://place.map.daum.net/21304567	
daum.14563811	심플하우스 국기원점	37.50066861	127.031602		교육,학문	학습시설	고시원	대한민국	서울	강남구	역삼동 636-21 	{}	{""weeklyClosingDays"":[],""monthlyClosingDayOfWeeks"":[],""yearlyClosingDays"":[]}	-1	-1	[]	10	1	0.0256	http://place.map.daum.net/14563811	
daum.23966650	오션스위츠제주호텔	33.5181519	126.5230883		여행	숙박	호텔	대한민국	제주특별자치도	제주시	삼도2동 1260-1 	{}	{""weeklyClosingDays"":[],""monthlyClosingDayOfWeeks"":[],""yearlyClosingDays"":[]}	-1	-1	[]	8.7	1	0.0256	http://place.map.daum.net/23966650	
daum.10474738	성산일출봉	33.46210092	126.9362026		여행	관광,명소	산봉우리/등산로	대한민국	제주특별자치도	서귀포시	성산읍 성산리 114 	{""weekDayOpen"":""5:30"",""weekDayClose"":""19:30"",""saturdayOpen"":""5:30"",""saturdayClose"":""19:30"",""sundayOpen"":""5:30"",""sundayClose"":""19:30""}	{""weeklyClosingDays"":[],""monthlyClosingDayOfWeeks"":[],""yearlyClosingDays"":[]}	-1	2000	[]	8.8	0.916666667	0.25	http://place.map.daum.net/10474738	
daum.9401924	제주공룡랜드	33.44177999	126.4339879		여행	관광,명소	테마파크	대한민국	제주특별자치도	제주시	애월읍 광령리 2677-1 	{""weekDayOpen"":""9:00"",""weekDayClose"":""17:00"",""saturdayOpen"":""9:00"",""saturdayClose"":""17:00"",""sundayOpen"":""9:00"",""sundayClose"":""17:00""}	{""weeklyClosingDays"":[],""monthlyClosingDayOfWeeks"":[],""yearlyClosingDays"":[]}	-1	9000	[]	7	1.5	0.25	http://place.map.daum.net/9401924	
daum.26588253	배곧신도시 로얄팰리스 모델하우스	37.51924974	126.9054419		부동산	모델하우스		대한민국	서울	영등포구	영등포동3가 6-7 	{}	{""weeklyClosingDays"":[],""monthlyClosingDayOfWeeks"":[],""yearlyClosingDays"":[]}	-1	-1	[]	10	1	0.0256	http://place.map.daum.net/26588253	
daum.26809543	카라반공인중개사	37.49330057	127.1187651		부동산	부동산서비스	부동산중개업소	대한민국	서울	송파구	가락동 99-3 제일오피스텔 1902호 	{}	{""weeklyClosingDays"":[],""monthlyClosingDayOfWeeks"":[],""yearlyClosingDays"":[]}	-1	-1	[]	0	1	0.0256	http://place.map.daum.net/26809543	
daum.19835275	북촌마루 한옥게스트하우스	37.58318934	126.9875237		여행	숙박	게스트하우스	대한민국	서울	종로구	계동 2-164 	{}	{""weeklyClosingDays"":[],""monthlyClosingDayOfWeeks"":[],""yearlyClosingDays"":[]}	-1	-1	[]	9.8	1	0.0256	http://place.map.daum.net/19835275	
daum.18384269	정자역 신분당선	37.36732672	127.1085191		교통,수송	지하철,전철	수도권지하철신분당선	대한민국	경기	성남시	분당구 정자동 	{}	{""weeklyClosingDays"":[],""monthlyClosingDayOfWeeks"":[],""yearlyClosingDays"":[]}	-1	-1	[]	0	1	0.0256	http://place.map.daum.net/18384269	
daum.11041351	건국대학교사범대학 부속고등학교	37.54001935	127.0803275		교육,학문	학교	고등학교	대한민국	서울	광진구	화양동 1 	{}	{""weeklyClosingDays"":[],""monthlyClosingDayOfWeeks"":[],""yearlyClosingDays"":[]}	-1	-1	[]	9	1	0.0256	http://place.map.daum.net/11041351	
daum.17573132	한국전자통신연구원 5동	36.38200095	127.3663913		서비스,산업	기업		대한민국	대전	유성구	가정동 161-1 	{}	{""weeklyClosingDays"":[],""monthlyClosingDayOfWeeks"":[],""yearlyClosingDays"":[]}	-1	-1	[]	0	1	0.0256	http://place.map.daum.net/17573132	
daum.11739480	경찰병원역 3호선	37.49600492	127.1244824		교통,수송	지하철,전철	수도권지하철3호선	대한민국	서울	송파구	가락동	{}	{""weeklyClosingDays"":[],""monthlyClosingDayOfWeeks"":[],""yearlyClosingDays"":[]}	-1	-1	[]	0	1	0.0256	http://place.map.daum.net/11739480	
daum.26352445	탄현역 경의중앙선	37.69398894	126.7610783		교통,수송	지하철,전철	수도권지하철경의중앙선	대한민국	경기	고양시	일산서구 덕이동 	{}	{""weeklyClosingDays"":[],""monthlyClosingDayOfWeeks"":[],""yearlyClosingDays"":[]}	-1	-1	[]	0	1	0.0256	http://place.map.daum.net/26352445	
daum.11891669	유한건축유하우스	37.65776219	126.7737376		서비스,산업	건설,건축	건축설계,컨설팅	대한민국	경기	고양시	일산동구 장항동 847 웅신아트 405호 	{}	{""weeklyClosingDays"":[],""monthlyClosingDayOfWeeks"":[],""yearlyClosingDays"":[]}	-1	-1	[]	0	1	0.0256	http://place.map.daum.net/11891669	
daum.10930074	한양사이버대학교	37.55718492	127.0475068		교육,학문	학교	사이버대학	대한민국	서울	성동구	행당동 17 	{}	{""weeklyClosingDays"":[],""monthlyClosingDayOfWeeks"":[],""yearlyClosingDays"":[]}	-1	-1	[]	0	1	0.0256	http://place.map.daum.net/10930074	
daum.18649129	몽쉘베베	37.47945421	126.8556332		음식점	뷔페		대한민국	경기	광명시	광명동 150-19 크로앙스 6층 	{}	{""weeklyClosingDays"":[],""monthlyClosingDayOfWeeks"":[],""yearlyClosingDays"":[]}	-1	-1	[]	8	1	0.0256	http://place.map.daum.net/18649129	
daum.13051012	동원공인중개사	37.48243443	127.0853808		부동산	부동산서비스	부동산중개업소	대한민국	서울	강남구	일원동 735 가람아파트상가 101호(3호선일원역5번출구) 	{}	{""weeklyClosingDays"":[],""monthlyClosingDayOfWeeks"":[],""yearlyClosingDays"":[]}	-1	-1	[]	10	1	0.0256	http://place.map.daum.net/13051012	
daum.18294418	홍대입구역 공항철도	37.55730527	126.9270104		교통,수송	지하철,전철	수도권지하철공항선	대한민국	서울	마포구	동교동	{}	{""weeklyClosingDays"":[],""monthlyClosingDayOfWeeks"":[],""yearlyClosingDays"":[]}	-1	-1	[]	0	1	0.0256	http://place.map.daum.net/18294418	
daum.10188645	노들역 9호선	37.51267212	126.9530961		교통,수송	지하철,전철	수도권지하철9호선	대한민국	서울	동작구	본동	{}	{""weeklyClosingDays"":[],""monthlyClosingDayOfWeeks"":[],""yearlyClosingDays"":[]}	-1	-1	[]	0	1	0.0256	http://place.map.daum.net/10188645	
daum.7967869	신논현역 9호선	37.50481111	127.025492		교통,수송	지하철,전철	수도권지하철9호선	대한민국	서울	강남구	논현동	{}	{""weeklyClosingDays"":[],""monthlyClosingDayOfWeeks"":[],""yearlyClosingDays"":[]}	-1	-1	[]	0	1	0.0256	http://place.map.daum.net/7967869	
daum.26588468	미쓰고로케 의왕역사점	37.32110997	126.9483821		음식점	간식		대한민국	경기	의왕시	삼동 191-2 의왕역 1호선 3층 	{}	{""weeklyClosingDays"":[],""monthlyClosingDayOfWeeks"":[],""yearlyClosingDays"":[]}	-1	-1	[]	0	1	0.0256	http://place.map.daum.net/26588468	
daum.21160809	잠실역 2호선	37.51331286	127.1002288		교통,수송	지하철,전철	수도권지하철2호선	대한민국	서울	송파구	신천동	{}	{""weeklyClosingDays"":[],""monthlyClosingDayOfWeeks"":[],""yearlyClosingDays"":[]}	-1	-1	[]	0	1	0.0256	http://place.map.daum.net/21160809	
daum.21228086	대하일식	37.44434738	127.158312		음식점	일식	일식집	대한민국	경기	성남시	중원구 금광1동 10 	{}	{""weeklyClosingDays"":[],""monthlyClosingDayOfWeeks"":[],""yearlyClosingDays"":[]}	-1	-1	[]	10	1	0.0256	http://place.map.daum.net/21228086	
daum.21160807	방배역 2호선	37.48145613	126.9975533		교통,수송	지하철,전철	수도권지하철2호선	대한민국	서울	서초구	방배동	{}	{""weeklyClosingDays"":[],""monthlyClosingDayOfWeeks"":[],""yearlyClosingDays"":[]}	-1	-1	[]	0	1	0.0256	http://place.map.daum.net/21160807	
daum.8025182	우도	33.50441997	126.9555823		여행	관광,명소	섬	대한민국	제주특별자치도	제주시	우도면 연평리 	{""weekDayOpen"":""8:00"",""weekDayClose"":""17:30"",""saturdayOpen"":""8:00"",""saturdayClose"":""17:30"",""sundayOpen"":""8:00"",""sundayClose"":""17:30""}	{""weeklyClosingDays"":[],""monthlyClosingDayOfWeeks"":[],""yearlyClosingDays"":[]}	-1	5500	[]	8.9	3	0.833333333	http://place.map.daum.net/8025182	
daum.12684289	제주서광다원	33.3083756	126.3067324		여행	관광,명소		대한민국	제주특별자치도	서귀포시	안덕면 서광리 1241 	{}	{""weeklyClosingDays"":[],""monthlyClosingDayOfWeeks"":[],""yearlyClosingDays"":[]}	-1	-1	[]	0	1	0.0256	http://place.map.daum.net/12684289	
daum.21160808	신답역 2호선	37.56983868	127.0470801		교통,수송	지하철,전철	수도권지하철2호선	대한민국	서울	성동구	용답동	{}	{""weeklyClosingDays"":[],""monthlyClosingDayOfWeeks"":[],""yearlyClosingDays"":[]}	-1	-1	[]	0	1	0.0256	http://place.map.daum.net/21160808	
daum.21160805	신설동역 2호선	37.57480452	127.0249182		교통,수송	지하철,전철	수도권지하철2호선	대한민국	서울	동대문구	신설동	{}	{""weeklyClosingDays"":[],""monthlyClosingDayOfWeeks"":[],""yearlyClosingDays"":[]}	-1	-1	[]	0	1	0.0256	http://place.map.daum.net/21160805	
daum.11796240	서동탄역 1호선	37.19573515	127.0518568		교통,수송	지하철,전철	수도권지하철1호선	대한민국	경기	오산시	외삼미동	{}	{""weeklyClosingDays"":[],""monthlyClosingDayOfWeeks"":[],""yearlyClosingDays"":[]}	-1	-1	[]	0	1	0.0256	http://place.map.daum.net/11796240	
daum.21160806	충정로역 2호선	37.55976239	126.9644932		교통,수송	지하철,전철	수도권지하철2호선	대한민국	서울	서대문구	충정로3가	{}	{""weeklyClosingDays"":[],""monthlyClosingDayOfWeeks"":[],""yearlyClosingDays"":[]}	-1	-1	[]	0	1	0.0256	http://place.map.daum.net/21160806	
daum.21160803	강남역 2호선	37.49808544	127.0280003		교통,수송	지하철,전철	수도권지하철2호선	대한민국	서울	강남구	역삼동	{}	{""weeklyClosingDays"":[],""monthlyClosingDayOfWeeks"":[],""yearlyClosingDays"":[]}	-1	-1	[]	0	1	0.0256	http://place.map.daum.net/21160803	
daum.21160804	선릉역 2호선	37.50449737	127.0489617		교통,수송	지하철,전철	수도권지하철2호선	대한민국	서울	강남구	삼성동	{}	{""weeklyClosingDays"":[],""monthlyClosingDayOfWeeks"":[],""yearlyClosingDays"":[]}	-1	-1	[]	0	1	0.0256	http://place.map.daum.net/21160804	
daum.21160801	신당역 2호선	37.56567305	127.0194775		교통,수송	지하철,전철	수도권지하철2호선	대한민국	서울	중구	신당동	{}	{""weeklyClosingDays"":[],""monthlyClosingDayOfWeeks"":[],""yearlyClosingDays"":[]}	-1	-1	[]	0	1	0.0256	http://place.map.daum.net/21160801	
daum.8025188	우도팔경유람선	33.47289056	126.9346541		여행	관광,명소	투어버스/유람선/관광열차	대한민국	제주특별자치도	서귀포시	성산읍 성산리 	{""weekDayOpen"":""14:40"",""weekDayClose"":""16:20"",""saturdayOpen"":""14:40"",""saturdayClose"":""16:20"",""sundayOpen"":""14:40"",""sundayClose"":""16:20""}	{""weeklyClosingDays"":[],""monthlyClosingDayOfWeeks"":[],""yearlyClosingDays"":[]}	-1	15000	[]	0	1	0.083333333	http://place.map.daum.net/8025188	
daum.21160802	양천구청역 2호선	37.51238887	126.8657224		교통,수송	지하철,전철	수도권지하철2호선	대한민국	서울	양천구	신정동	{}	{""weeklyClosingDays"":[],""monthlyClosingDayOfWeeks"":[],""yearlyClosingDays"":[]}	-1	-1	[]	0	1	0.0256	http://place.map.daum.net/21160802	
daum.17002622	신라명과 왕십리역점	37.5614376	127.0375766		음식점	간식	제과,베이커리	대한민국	서울	성동구	행당동 192 5호선 왕십리역 지하 2층 	{""weekDayOpen"":""07:00"",""weekDayClose"":""22:00"",""saturdayOpen"":""07:00"",""saturdayClose"":""22:00"",""sundayOpen"":""07:00"",""sundayClose"":""22:00""}	{""weeklyClosingDays"":[],""monthlyClosingDayOfWeeks"":[],""yearlyClosingDays"":[]}	-1	-1	[]	0	1	0.0256	http://place.map.daum.net/17002622	
daum.21160800	제물포역 1호선	37.46682113	126.657495		교통,수송	지하철,전철	수도권지하철1호선	대한민국	인천	남구	숭의동	{}	{""weeklyClosingDays"":[],""monthlyClosingDayOfWeeks"":[],""yearlyClosingDays"":[]}	-1	-1	[]	0	1	0.0256	http://place.map.daum.net/21160800	
daum.12538773	글로리아원룸텔	37.48059792	126.9574124		교육,학문	학습시설	고시원	대한민국	서울	관악구	봉천동 1671-35 3층 	{}	{""weeklyClosingDays"":[],""monthlyClosingDayOfWeeks"":[],""yearlyClosingDays"":[]}	-1	-1	[]	7	1	0.0256	http://place.map.daum.net/12538773	
daum.26352436	행신역 경의중앙선	37.61212161	126.8342883		교통,수송	지하철,전철	수도권지하철경의중앙선	대한민국	경기	고양시	덕양구 강매동 	{}	{""weeklyClosingDays"":[],""monthlyClosingDayOfWeeks"":[],""yearlyClosingDays"":[]}	-1	-1	[]	0	1	0.0256	http://place.map.daum.net/26352436	
daum.14971111	코쿤하우스 영등포역점	37.51800671	126.9105156		교육,학문	학습시설	고시원	대한민국	서울	영등포구	영등포동3가 12 코쿤하우스빌딩 3층 	{}	{""weeklyClosingDays"":[],""monthlyClosingDayOfWeeks"":[],""yearlyClosingDays"":[]}	-1	-1	[]	0	1	0.0256	http://place.map.daum.net/14971111	
daum.26352438	가좌역 경의중앙선	37.56874335	126.9148151		교통,수송	지하철,전철	수도권지하철경의중앙선	대한민국	서울	서대문구	남가좌동	{}	{""weeklyClosingDays"":[],""monthlyClosingDayOfWeeks"":[],""yearlyClosingDays"":[]}	-1	-1	[]	0	1	0.0256	http://place.map.daum.net/26352438	
daum.14919812	싱글 하우스	37.51892799	126.9087589		교육,학문	학습시설	고시원	대한민국	서울	영등포구	영등포동3가 3-4 대흥빌딩 3층 	{}	{""weeklyClosingDays"":[],""monthlyClosingDayOfWeeks"":[],""yearlyClosingDays"":[]}	-1	-1	[]	10	1	0.0256	http://place.map.daum.net/14919812	
daum.17382437	캐릭월드	33.47964355	126.7005695		교육,학문	교육단체	체험학습장	대한민국	제주특별자치도	제주시	조천읍 선흘리 2013-2 	{}	{""weeklyClosingDays"":[],""monthlyClosingDayOfWeeks"":[],""yearlyClosingDays"":[]}	-1	-1	[]	8	1	0.0256	http://place.map.daum.net/17382437	
daum.26352440	월롱역 경의중앙선	37.79621464	126.7925859		교통,수송	지하철,전철	수도권지하철경의중앙선	대한민국	경기	파주시	월롱면 위전리 	{}	{""weeklyClosingDays"":[],""monthlyClosingDayOfWeeks"":[],""yearlyClosingDays"":[]}	-1	-1	[]	0	1	0.0256	http://place.map.daum.net/26352440	
daum.23210421	곽호철 기타드럼학원	37.65675437	127.0642473		교육,학문	학원	음악학원	대한민국	서울	노원구	상계동 1305 동양상가 307호 	{}	{""weeklyClosingDays"":[],""monthlyClosingDayOfWeeks"":[],""yearlyClosingDays"":[]}	-1	-1	[]	10	1	0.0256	http://place.map.daum.net/23210421	
daum.17573114	한국전자통신연구원 7동	36.38131327	127.3649481		서비스,산업	기업		대한민국	대전	유성구	가정동 32 	{}	{""weeklyClosingDays"":[],""monthlyClosingDayOfWeeks"":[],""yearlyClosingDays"":[]}	-1	-1	[]	0	1	0.0256	http://place.map.daum.net/17573114	
daum.11674018	월드부동산	37.54930645	127.0478593		부동산	부동산서비스	부동산중개업소	대한민국	서울	성동구	성수동1가 706 쌍용아파트 상가(2호선 뚝섬역 3번출구) 	{}	{""weeklyClosingDays"":[],""monthlyClosingDayOfWeeks"":[],""yearlyClosingDays"":[]}	-1	-1	[]	0	1	0.0256	http://place.map.daum.net/11674018	
daum.12979413	붉은오름자연휴양림	33.401436	126.6753706		여행	관광,명소	휴양림/숲길걷기	대한민국	제주특별자치도	서귀포시	표선면 가시리 산158 	{""weekDayOpen"":""9:00"",""weekDayClose"":""18:00"",""saturdayOpen"":""9:00"",""saturdayClose"":""18:00"",""sundayOpen"":""9:00"",""sundayClose"":""18:00""}	{""weeklyClosingDays"":[],""monthlyClosingDayOfWeeks"":[],""yearlyClosingDays"":[]}	-1	1000	[]	0	0.833333333	0.166666667	http://place.map.daum.net/12979413	
daum.10524953	신목동역 9호선	37.54428837	126.8830958		교통,수송	지하철,전철	수도권지하철9호선	대한민국	서울	양천구	목동	{}	{""weeklyClosingDays"":[],""monthlyClosingDayOfWeeks"":[],""yearlyClosingDays"":[]}	-1	-1	[]	0	1	0.0256	http://place.map.daum.net/10524953	
daum.15563468	강남면옥 서현점	37.38426825	127.1311763		음식점	한식	냉면	대한민국	경기	성남시	분당구 서현동 77-6 	{}	{""weeklyClosingDays"":[],""monthlyClosingDayOfWeeks"":[],""yearlyClosingDays"":[]}	-1	-1	[]	7.3	1	0.0256	http://place.map.daum.net/15563468	
daum.11023307	금능석물원	33.38516946	126.2272094		여행	관광,명소	미술관/박물관	대한민국	제주특별자치도	제주시	한림읍 금능리 1282-9 	{""weekDayOpen"":""8:30"",""weekDayClose"":""18:00"",""saturdayOpen"":""8:30"",""saturdayClose"":""18:00"",""sundayOpen"":""8:30"",""sundayClose"":""18:00""}	{""weeklyClosingDays"":[],""monthlyClosingDayOfWeeks"":[],""yearlyClosingDays"":[]}	-1	4000	[]	10	1	0.166666667	http://place.map.daum.net/11023307	
daum.21160618	신도림역 2호선	37.50822039	126.8916121		교통,수송	지하철,전철	수도권지하철2호선	대한민국	서울	구로구	신도림동	{}	{""weeklyClosingDays"":[],""monthlyClosingDayOfWeeks"":[],""yearlyClosingDays"":[]}	-1	-1	[]	0	1	0.0256	http://place.map.daum.net/21160618	
daum.21160619	역삼역 2호선	37.50067442	127.0364695		교통,수송	지하철,전철	수도권지하철2호선	대한민국	서울	강남구	역삼동	{}	{""weeklyClosingDays"":[],""monthlyClosingDayOfWeeks"":[],""yearlyClosingDays"":[]}	-1	-1	[]	0	1	0.0256	http://place.map.daum.net/21160619	
daum.21160616	도원역 1호선	37.46856108	126.6426198		교통,수송	지하철,전철	수도권지하철1호선	대한민국	인천	동구	창영동	{}	{""weeklyClosingDays"":[],""monthlyClosingDayOfWeeks"":[],""yearlyClosingDays"":[]}	-1	-1	[]	0	1	0.0256	http://place.map.daum.net/21160616	
daum.21160858	중곡역 7호선	37.56592206	127.0843124		교통,수송	지하철,전철	수도권지하철7호선	대한민국	서울	광진구	중곡동	{}	{""weeklyClosingDays"":[],""monthlyClosingDayOfWeeks"":[],""yearlyClosingDays"":[]}	-1	-1	[]	0	1	0.0256	http://place.map.daum.net/21160858	
daum.21160617	동대문역사문화공원역 2호선	37.5656635	127.0090053		교통,수송	지하철,전철	수도권지하철2호선	대한민국	서울	중구	을지로7가	{}	{""weeklyClosingDays"":[],""monthlyClosingDayOfWeeks"":[],""yearlyClosingDays"":[]}	-1	-1	[]	0	1	0.0256	http://place.map.daum.net/21160617	
daum.21160859	수락산역 7호선	37.67788147	127.055351		교통,수송	지하철,전철	수도권지하철7호선	대한민국	서울	노원구	상계동	{}	{""weeklyClosingDays"":[],""monthlyClosingDayOfWeeks"":[],""yearlyClosingDays"":[]}	-1	-1	[]	0	1	0.0256	http://place.map.daum.net/21160859	
daum.21160614	금천구청역 1호선	37.45619437	126.8936086		교통,수송	지하철,전철	수도권지하철1호선	대한민국	서울	금천구	시흥동	{}	{""weeklyClosingDays"":[],""monthlyClosingDayOfWeeks"":[],""yearlyClosingDays"":[]}	-1	-1	[]	0	1	0.0256	http://place.map.daum.net/21160614	
daum.21160856	공덕역 6호선	37.54352915	126.9518954		교통,수송	지하철,전철	수도권지하철6호선	대한민국	서울	마포구	공덕동	{}	{""weeklyClosingDays"":[],""monthlyClosingDayOfWeeks"":[],""yearlyClosingDays"":[]}	-1	-1	[]	0	1	0.0256	http://place.map.daum.net/21160856	
daum.21160615	명학역 1호선	37.38446042	126.9355928		교통,수송	지하철,전철	수도권지하철1호선	대한민국	경기	안양시	만안구 안양동 	{}	{""weeklyClosingDays"":[],""monthlyClosingDayOfWeeks"":[],""yearlyClosingDays"":[]}	-1	-1	[]	0	1	0.0256	http://place.map.daum.net/21160615	
daum.21160857	사가정역 7호선	37.58094038	127.0885046		교통,수송	지하철,전철	수도권지하철7호선	대한민국	서울	중랑구	면목동	{}	{""weeklyClosingDays"":[],""monthlyClosingDayOfWeeks"":[],""yearlyClosingDays"":[]}	-1	-1	[]	0	1	0.0256	http://place.map.daum.net/21160857	
daum.21160612	남영역 1호선	37.54056577	126.9713321		교통,수송	지하철,전철	수도권지하철1호선	대한민국	서울	용산구	갈월동	{}	{""weeklyClosingDays"":[],""monthlyClosingDayOfWeeks"":[],""yearlyClosingDays"":[]}	-1	-1	[]	0	1	0.0256	http://place.map.daum.net/21160612	
daum.21160854	디지털미디어시티역 6호선	37.57601285	126.9012767		교통,수송	지하철,전철	수도권지하철6호선	대한민국	서울	은평구	증산동	{}	{""weeklyClosingDays"":[],""monthlyClosingDayOfWeeks"":[],""yearlyClosingDays"":[]}	-1	-1	[]	0	1	0.0256	http://place.map.daum.net/21160854	
daum.21160613	종각역 1호선	37.57022889	126.9831519		교통,수송	지하철,전철	수도권지하철1호선	대한민국	서울	종로구	종로1가	{}	{""weeklyClosingDays"":[],""monthlyClosingDayOfWeeks"":[],""yearlyClosingDays"":[]}	-1	-1	[]	0	1	0.0256	http://place.map.daum.net/21160613	
daum.21160855	상수역 6호선	37.54776618	126.9224299		교통,수송	지하철,전철	수도권지하철6호선	대한민국	서울	마포구	상수동	{}	{""weeklyClosingDays"":[],""monthlyClosingDayOfWeeks"":[],""yearlyClosingDays"":[]}	-1	-1	[]	0	1	0.0256	http://place.map.daum.net/21160855	
daum.12501247	더호텔 제주	33.49001087	126.4938542		여행	숙박	호텔	대한민국	제주특별자치도	제주시	연동 291-30 	{}	{""weeklyClosingDays"":[],""monthlyClosingDayOfWeeks"":[],""yearlyClosingDays"":[]}	-1	-1	[]	3	1	0.0256	http://place.map.daum.net/12501247	
daum.21160610	대방역 1호선	37.51335414	126.9264968		교통,수송	지하철,전철	수도권지하철1호선	대한민국	서울	영등포구	신길동	{}	{""weeklyClosingDays"":[],""monthlyClosingDayOfWeeks"":[],""yearlyClosingDays"":[]}	-1	-1	[]	0	1	0.0256	http://place.map.daum.net/21160610	
daum.21160852	한강진역 6호선	37.53979077	127.0017651		교통,수송	지하철,전철	수도권지하철6호선	대한민국	서울	용산구	한남동	{}	{""weeklyClosingDays"":[],""monthlyClosingDayOfWeeks"":[],""yearlyClosingDays"":[]}	-1	-1	[]	0	1	0.0256	http://place.map.daum.net/21160852	
daum.20867124	놀이터테마파크 청량리점	37.57981852	127.0460268		음식점	카페	테마카페	대한민국	서울	동대문구	전농동 620-69 롯데플라자 4층 	{""weekDayOpen"":""10:30"",""weekDayClose"":""20:00"",""saturdayOpen"":""10:30"",""saturdayClose"":""20:00"",""sundayOpen"":""10:30"",""sundayClose"":""20:00""}	{""weeklyClosingDays"":[],""monthlyClosingDayOfWeeks"":[],""yearlyClosingDays"":[]}	-1	-1	[]	10	1	0.0256	http://place.map.daum.net/20867124	
daum.21160611	회기역 1호선	37.59004827	127.058506		교통,수송	지하철,전철	수도권지하철1호선	대한민국	서울	동대문구	휘경동	{}	{""weeklyClosingDays"":[],""monthlyClosingDayOfWeeks"":[],""yearlyClosingDays"":[]}	-1	-1	[]	0	1	0.0256	http://place.map.daum.net/21160611	
daum.21160853	안암역 6호선	37.58630742	127.0292334		교통,수송	지하철,전철	수도권지하철6호선	대한민국	서울	성북구	안암동5가	{}	{""weeklyClosingDays"":[],""monthlyClosingDayOfWeeks"":[],""yearlyClosingDays"":[]}	-1	-1	[]	0	1	0.0256	http://place.map.daum.net/21160853	
daum.21160850	응암역 6호선	37.59849106	126.9155422		교통,수송	지하철,전철	수도권지하철6호선	대한민국	서울	은평구	신사동	{}	{""weeklyClosingDays"":[],""monthlyClosingDayOfWeeks"":[],""yearlyClosingDays"":[]}	-1	-1	[]	0	1	0.0256	http://place.map.daum.net/21160850	
daum.17578681	한국전자통신연구원 4동	36.38157234	127.3674502		교육,학문	연구소		대한민국	대전	유성구	가정동 181-2 	{}	{""weeklyClosingDays"":[],""monthlyClosingDayOfWeeks"":[],""yearlyClosingDays"":[]}	-1	-1	[]	0	1	0.0256	http://place.map.daum.net/17578681	
daum.21160851	화랑대역 6호선	37.61984155	127.0835441		교통,수송	지하철,전철	수도권지하철6호선	대한민국	서울	노원구	공릉동	{}	{""weeklyClosingDays"":[],""monthlyClosingDayOfWeeks"":[],""yearlyClosingDays"":[]}	-1	-1	[]	0	1	0.0256	http://place.map.daum.net/21160851	
daum.7939160	선유도역 9호선	37.53815685	126.8933339		교통,수송	지하철,전철	수도권지하철9호선	대한민국	서울	영등포구	양평동5가	{}	{""weeklyClosingDays"":[],""monthlyClosingDayOfWeeks"":[],""yearlyClosingDays"":[]}	-1	-1	[]	0	1	0.0256	http://place.map.daum.net/7939160	
daum.8427641	소호리빙텔 신사점	37.51399207	127.0170254		교육,학문	학습시설	고시원	대한민국	서울	서초구	잠원동 24-6 5층 	{}	{""weeklyClosingDays"":[],""monthlyClosingDayOfWeeks"":[],""yearlyClosingDays"":[]}	-1	-1	[]	10	1	0.0256	http://place.map.daum.net/8427641	
daum.21160860	양원역 경의중앙선	37.60660606	127.1079461		교통,수송	지하철,전철	수도권지하철경의중앙선	대한민국	서울	중랑구	망우동	{}	{""weeklyClosingDays"":[],""monthlyClosingDayOfWeeks"":[],""yearlyClosingDays"":[]}	-1	-1	[]	0	1	0.0256	http://place.map.daum.net/21160860	
daum.12630408	마이빌고시원	37.55485487	126.9336538		교육,학문	학습시설	고시원	대한민국	서울	마포구	노고산동 54-43 	{}	{""weeklyClosingDays"":[],""monthlyClosingDayOfWeeks"":[],""yearlyClosingDays"":[]}	-1	-1	[]	9.5	1	0.0256	http://place.map.daum.net/12630408	
daum.9853010	신원자동차운전전문학원	37.69476993	126.7211962		교육,학문	학원	자동차운전학원	대한민국	경기	고양시	일산서구 가좌동 495-4 	{}	{""weeklyClosingDays"":[],""monthlyClosingDayOfWeeks"":[],""yearlyClosingDays"":[]}	-1	-1	[]	9.7	1	0.0256	http://place.map.daum.net/9853010	
daum.11371252	한국 산업기술평가관리원 대전사무소	36.34461886	127.3840616		사회,공공기관	행정기관	산업통상자원부	대한민국	대전	서구	탄방동 647 계룡사옥 3층, 4층 	{}	{""weeklyClosingDays"":[],""monthlyClosingDayOfWeeks"":[],""yearlyClosingDays"":[]}	-1	-1	[]	0	1	0.0256	http://place.map.daum.net/11371252	
daum.17696726	더페이스샵 9호선노량진역직영점	37.51329723	126.9406536		가정,생활	미용	화장품	대한민국	서울	동작구	노량진동 44-1 9호선 노량진역사내 	{}	{""weeklyClosingDays"":[],""monthlyClosingDayOfWeeks"":[],""yearlyClosingDays"":[]}	-1	-1	[]	0	1	0.0256	http://place.map.daum.net/17696726	
daum.17696725	더페이스샵 9호선여의도역직영점	37.52395438	126.9278529		가정,생활	미용	화장품	대한민국	서울	영등포구	여의도동 3 여의도역사 내 	{}	{""weeklyClosingDays"":[],""monthlyClosingDayOfWeeks"":[],""yearlyClosingDays"":[]}	-1	-1	[]	0	1	0.0256	http://place.map.daum.net/17696725	
daum.17696724	더페이스샵 9호선가양역직영점	37.5612537	126.855059		가정,생활	미용	화장품	대한민국	서울	강서구	가양동 14-84 역사내 	{}	{""weeklyClosingDays"":[],""monthlyClosingDayOfWeeks"":[],""yearlyClosingDays"":[]}	-1	-1	[]	0	1	0.0256	http://place.map.daum.net/17696724	
daum.21160629	동대입구역 3호선	37.55905402	127.0053149		교통,수송	지하철,전철	수도권지하철3호선	대한민국	서울	중구	장충동2가	{}	{""weeklyClosingDays"":[],""monthlyClosingDayOfWeeks"":[],""yearlyClosingDays"":[]}	-1	-1	[]	0	1	0.0256	http://place.map.daum.net/21160629	
daum.13276385	평양면옥	37.5636148	126.9783272		음식점	한식	냉면	대한민국	서울	중구	북창동 14-5 	{}	{""weeklyClosingDays"":[],""monthlyClosingDayOfWeeks"":[],""yearlyClosingDays"":[]}	-1	-1	[]	4	1	0.0256	http://place.map.daum.net/13276385	
daum.21160627	뚝섬역 2호선	37.54724155	127.0473873		교통,수송	지하철,전철	수도권지하철2호선	대한민국	서울	성동구	성수동1가	{}	{""weeklyClosingDays"":[],""monthlyClosingDayOfWeeks"":[],""yearlyClosingDays"":[]}	-1	-1	[]	0	1	0.0256	http://place.map.daum.net/21160627	
daum.21160628	이대역 2호선	37.55681472	126.9464318		교통,수송	지하철,전철	수도권지하철2호선	대한민국	서울	마포구	대흥동	{}	{""weeklyClosingDays"":[],""monthlyClosingDayOfWeeks"":[],""yearlyClosingDays"":[]}	-1	-1	[]	0	1	0.0256	http://place.map.daum.net/21160628	
daum.12721319	노루생태관찰원	33.44435985	126.6266727		여행	관광,명소	테마파크	대한민국	제주특별자치도	제주시	봉개동 산51-2 	{""weekDayOpen"":""9:00"",""weekDayClose"":""17:00"",""saturdayOpen"":""9:00"",""saturdayClose"":""17:00"",""sundayOpen"":""9:00"",""sundayClose"":""17:00""}	{""weeklyClosingDays"":[],""monthlyClosingDayOfWeeks"":[],""yearlyClosingDays"":[]}	-1	0	[]	0	0.666666667	0.083333333	http://place.map.daum.net/12721319	
daum.21160625	건대입구역 2호선	37.54040842	127.0692029		교통,수송	지하철,전철	수도권지하철2호선	대한민국	서울	광진구	화양동	{}	{""weeklyClosingDays"":[],""monthlyClosingDayOfWeeks"":[],""yearlyClosingDays"":[]}	-1	-1	[]	0	1	0.0256	http://place.map.daum.net/21160625	
daum.21160626	성수역 2호선	37.54458882	127.056067		교통,수송	지하철,전철	수도권지하철2호선	대한민국	서울	성동구	성수동2가	{}	{""weeklyClosingDays"":[],""monthlyClosingDayOfWeeks"":[],""yearlyClosingDays"":[]}	-1	-1	[]	0	1	0.0256	http://place.map.daum.net/21160626	
daum.21160623	서초역 2호선	37.49184993	127.0076621		교통,수송	지하철,전철	수도권지하철2호선	대한민국	서울	서초구	서초동	{}	{""weeklyClosingDays"":[],""monthlyClosingDayOfWeeks"":[],""yearlyClosingDays"":[]}	-1	-1	[]	0	1	0.0256	http://place.map.daum.net/21160623	
daum.21160865	서현역 분당선	37.38501543	127.1234315		교통,수송	지하철,전철	수도권지하철분당선	대한민국	경기	성남시	분당구 서현동 	{}	{""weeklyClosingDays"":[],""monthlyClosingDayOfWeeks"":[],""yearlyClosingDays"":[]}	-1	-1	[]	0	1	0.0256	http://place.map.daum.net/21160865	
daum.24927319	분당면옥	37.41914199	127.1168224		음식점	한식	냉면	대한민국	경기	성남시	수정구 사송동 624-12 	{}	{""weeklyClosingDays"":[],""monthlyClosingDayOfWeeks"":[],""yearlyClosingDays"":[]}	-1	-1	[]	5.5	1	0.0256	http://place.map.daum.net/24927319	
daum.21160624	용답역 2호선	37.56184701	127.0510229		교통,수송	지하철,전철	수도권지하철2호선	대한민국	서울	성동구	용답동	{}	{""weeklyClosingDays"":[],""monthlyClosingDayOfWeeks"":[],""yearlyClosingDays"":[]}	-1	-1	[]	0	1	0.0256	http://place.map.daum.net/21160624	
daum.21160621	도림천역 2호선	37.51450804	126.8826491		교통,수송	지하철,전철	수도권지하철2호선	대한민국	서울	구로구	신도림동	{}	{""weeklyClosingDays"":[],""monthlyClosingDayOfWeeks"":[],""yearlyClosingDays"":[]}	-1	-1	[]	0	1	0.0256	http://place.map.daum.net/21160621	
daum.21160863	개포동역 분당선	37.48913947	127.0661207		교통,수송	지하철,전철	수도권지하철분당선	대한민국	서울	강남구	개포동	{}	{""weeklyClosingDays"":[],""monthlyClosingDayOfWeeks"":[],""yearlyClosingDays"":[]}	-1	-1	[]	0	1	0.0256	http://place.map.daum.net/21160863	
daum.21160622	을지로입구역 2호선	37.56603732	126.982193		교통,수송	지하철,전철	수도권지하철2호선	대한민국	서울	중구	을지로1가	{}	{""weeklyClosingDays"":[],""monthlyClosingDayOfWeeks"":[],""yearlyClosingDays"":[]}	-1	-1	[]	0	1	0.0256	http://place.map.daum.net/21160622	
daum.21160864	정자역 분당선	37.36617379	127.1080975		교통,수송	지하철,전철	수도권지하철분당선	대한민국	경기	성남시	분당구 정자동 	{}	{""weeklyClosingDays"":[],""monthlyClosingDayOfWeeks"":[],""yearlyClosingDays"":[]}	-1	-1	[]	0	1	0.0256	http://place.map.daum.net/21160864	
daum.21160861	중랑역 경의중앙선	37.59496477	127.0762376		교통,수송	지하철,전철	수도권지하철경의중앙선	대한민국	서울	중랑구	중화동	{}	{""weeklyClosingDays"":[],""monthlyClosingDayOfWeeks"":[],""yearlyClosingDays"":[]}	-1	-1	[]	0	1	0.0256	http://place.map.daum.net/21160861	
daum.21160620	삼성역 2호선	37.50882274	127.0630255		교통,수송	지하철,전철	수도권지하철2호선	대한민국	서울	강남구	삼성동	{}	{""weeklyClosingDays"":[],""monthlyClosingDayOfWeeks"":[],""yearlyClosingDays"":[]}	-1	-1	[]	0	1	0.0256	http://place.map.daum.net/21160620	
daum.21160862	서빙고역 경의중앙선	37.51956814	126.9884121		교통,수송	지하철,전철	수도권지하철경의중앙선	대한민국	서울	용산구	서빙고동	{}	{""weeklyClosingDays"":[],""monthlyClosingDayOfWeeks"":[],""yearlyClosingDays"":[]}	-1	-1	[]	0	1	0.0256	http://place.map.daum.net/21160862	
daum.17696727	더페이스샵 9호선구반포역직영점	37.50152628	126.9870487		가정,생활	미용	화장품	대한민국	서울	서초구	반포본동 1053 역사내 	{}	{""weeklyClosingDays"":[],""monthlyClosingDayOfWeeks"":[],""yearlyClosingDays"":[]}	-1	-1	[]	0	1	0.0256	http://place.map.daum.net/17696727	
daum.7918693	사평역 9호선	37.50423263	127.0152725		교통,수송	지하철,전철	수도권지하철9호선	대한민국	서울	서초구	반포동	{}	{""weeklyClosingDays"":[],""monthlyClosingDayOfWeeks"":[],""yearlyClosingDays"":[]}	-1	-1	[]	0	1	0.0256	http://place.map.daum.net/7918693	
daum.24941401	더페이스샵 서울메트로종로3가역점	37.57115592	126.9902605		가정,생활	미용	화장품	대한민국	서울	종로구	묘동 59 3호선 종로3가역 지하3층 복합상가 319-07호 	{}	{""weeklyClosingDays"":[],""monthlyClosingDayOfWeeks"":[],""yearlyClosingDays"":[]}	-1	-1	[]	0	1	0.0256	http://place.map.daum.net/24941401	
daum.21605774	그린하우스	37.57137254	127.0017749		교육,학문	학습시설	고시원	대한민국	서울	종로구	종로5가 85-3 	{}	{""weeklyClosingDays"":[],""monthlyClosingDayOfWeeks"":[],""yearlyClosingDays"":[]}	-1	-1	[]	10	1	0.0256	http://place.map.daum.net/21605774	
daum.8122340	평양면옥	36.34773443	127.3825931		음식점	한식	냉면	대한민국	대전	서구	둔산2동 1252 	{}	{""weeklyClosingDays"":[],""monthlyClosingDayOfWeeks"":[],""yearlyClosingDays"":[]}	-1	-1	[]	2	1	0.0256	http://place.map.daum.net/8122340	
daum.8577982	제주미니랜드	33.43341894	126.6743784		여행	관광,명소	테마파크	대한민국	제주특별자치도	제주시	조천읍 교래리 산56-4 	{}	{""weeklyClosingDays"":[],""monthlyClosingDayOfWeeks"":[],""yearlyClosingDays"":[]}	-1	-1	[]	8.2	1	0.0256	http://place.map.daum.net/8577982	
daum.8683474	개화역 9호선	37.57834451	126.7968914		교통,수송	지하철,전철	수도권지하철9호선	대한민국	서울	강서구	개화동	{}	{""weeklyClosingDays"":[],""monthlyClosingDayOfWeeks"":[],""yearlyClosingDays"":[]}	-1	-1	[]	0	1	0.0256	http://place.map.daum.net/8683474	
daum.14104121	다람골	37.39228824	127.0500585		음식점	한식	한정식	대한민국	경기	성남시	분당구 운중동 535-1 	{""weekDayOpen"":""11:30"",""weekDayClose"":""22:00"",""saturdayOpen"":""11:30"",""saturdayClose"":""22:00"",""sundayOpen"":""11:30"",""sundayClose"":""22:00""}	{""weeklyClosingDays"":[],""monthlyClosingDayOfWeeks"":[],""yearlyClosingDays"":[""* 매주 월요일은 휴무입니다""]}	-1	-1	[]	9	1	0.0256	http://place.map.daum.net/14104121	
daum.22905252	답십리래미안모델하우스	37.57051638	127.0550767		부동산	모델하우스		대한민국	서울	동대문구	답십리1동 178 	{""weekDayOpen"":""00:00"",""weekDayClose"":""21:00"",""saturdayOpen"":""00:00"",""saturdayClose"":""21:00"",""sundayOpen"":""00:00"",""sundayClose"":""21:00""}	{""weeklyClosingDays"":[],""monthlyClosingDayOfWeeks"":[],""yearlyClosingDays"":[]}	-1	-1	[]	10	1	0.0256	http://place.map.daum.net/22905252	
daum.21160838	신정역 5호선	37.52502761	126.8560975		교통,수송	지하철,전철	수도권지하철5호선	대한민국	서울	양천구	신정동	{}	{""weeklyClosingDays"":[],""monthlyClosingDayOfWeeks"":[],""yearlyClosingDays"":[]}	-1	-1	[]	0	1	0.0256	http://place.map.daum.net/21160838	
daum.19636014	이화 숯불갈비 본점	37.36453567	127.106167		음식점	한식	육류,고기	대한민국	경기	성남시	분당구 정자동 159-4 	{}	{""weeklyClosingDays"":[],""monthlyClosingDayOfWeeks"":[],""yearlyClosingDays"":[]}	-1	-1	[]	10	1	0.0256	http://place.map.daum.net/19636014	
daum.21160839	오목교역 5호선	37.52453408	126.8753073		교통,수송	지하철,전철	수도권지하철5호선	대한민국	서울	양천구	목동	{}	{""weeklyClosingDays"":[],""monthlyClosingDayOfWeeks"":[],""yearlyClosingDays"":[]}	-1	-1	[]	0	1	0.0256	http://place.map.daum.net/21160839	
daum.21160836	명일역 5호선	37.5513979	127.1440437		교통,수송	지하철,전철	수도권지하철5호선	대한민국	서울	강동구	명일동	{}	{""weeklyClosingDays"":[],""monthlyClosingDayOfWeeks"":[],""yearlyClosingDays"":[]}	-1	-1	[]	0	1	0.0256	http://place.map.daum.net/21160836	
daum.8092604	천제연폭포	33.25148486	126.4172673		여행	관광,명소	폭포/계곡	대한민국	제주특별자치도	서귀포시	색달동 3381-1 중문관광단지 내 	{""weekDayOpen"":""8:00"",""weekDayClose"":""18:00"",""saturdayOpen"":""8:00"",""saturdayClose"":""18:00"",""sundayOpen"":""8:00"",""sundayClose"":""18:00""}	{""weeklyClosingDays"":[],""monthlyClosingDayOfWeeks"":[],""yearlyClosingDays"":[]}	-1	2500	[]	7	0.666666667	0.2	http://place.map.daum.net/8092604	
daum.21160837	개화산역 5호선	37.57253715	126.8068143		교통,수송	지하철,전철	수도권지하철5호선	대한민국	서울	강서구	방화동	{}	{""weeklyClosingDays"":[],""monthlyClosingDayOfWeeks"":[],""yearlyClosingDays"":[]}	-1	-1	[]	0	1	0.0256	http://place.map.daum.net/21160837	
daum.11909444	싱글하우스	37.64450541	126.771072		교육,학문	학습시설	고시원	대한민국	경기	고양시	일산동구 장항동 857 	{}	{""weeklyClosingDays"":[],""monthlyClosingDayOfWeeks"":[],""yearlyClosingDays"":[]}	-1	-1	[]	10	1	0.0256	http://place.map.daum.net/11909444	
daum.21160834	인덕원역 4호선	37.40149417	126.9766799		교통,수송	지하철,전철	수도권지하철4호선	대한민국	경기	안양시	동안구 관양동 	{}	{""weeklyClosingDays"":[],""monthlyClosingDayOfWeeks"":[],""yearlyClosingDays"":[]}	-1	-1	[]	0	1	0.0256	http://place.map.daum.net/21160834	
daum.21160835	청구역 5호선	37.56021019	127.0139438		교통,수송	지하철,전철	수도권지하철5호선	대한민국	서울	중구	신당동	{}	{""weeklyClosingDays"":[],""monthlyClosingDayOfWeeks"":[],""yearlyClosingDays"":[]}	-1	-1	[]	0	1	0.0256	http://place.map.daum.net/21160835	
daum.14600047	SM음악입시전문학원	37.67033208	126.7588962		교육,학문	학원	음악학원	대한민국	경기	고양시	일산서구 주엽동 114 남수프라자 201호 	{}	{""weeklyClosingDays"":[],""monthlyClosingDayOfWeeks"":[],""yearlyClosingDays"":[]}	-1	-1	[]	10	1	0.0256	http://place.map.daum.net/14600047	
daum.21160832	고잔역 4호선	37.31687657	126.8230209		교통,수송	지하철,전철	수도권지하철4호선	대한민국	경기	안산시	단원구 고잔동 	{}	{""weeklyClosingDays"":[],""monthlyClosingDayOfWeeks"":[],""yearlyClosingDays"":[]}	-1	-1	[]	0	1	0.0256	http://place.map.daum.net/21160832	
daum.8086164	신산공원	33.50697814	126.5331758		여행	관광,명소	공원	대한민국	제주특별자치도	제주시	일도2동 879 	{""weekDayOpen"":""7:30"",""weekDayClose"":""18:00"",""saturdayOpen"":""7:30"",""saturdayClose"":""18:00"",""sundayOpen"":""7:30"",""sundayClose"":""18:00""}	{""weeklyClosingDays"":[],""monthlyClosingDayOfWeeks"":[],""yearlyClosingDays"":[]}	-1	0	[]	7.5	0.5	0.083333333	http://place.map.daum.net/8086164	
daum.21160833	산본역 4호선	37.35815634	126.9331862		교통,수송	지하철,전철	수도권지하철4호선	대한민국	경기	군포시	산본동	{}	{""weeklyClosingDays"":[],""monthlyClosingDayOfWeeks"":[],""yearlyClosingDays"":[]}	-1	-1	[]	0	1	0.0256	http://place.map.daum.net/21160833	
daum.21160830	경마공원역 4호선	37.44396299	127.007838		교통,수송	지하철,전철	수도권지하철4호선	대한민국	경기	과천시	과천동	{}	{""weeklyClosingDays"":[],""monthlyClosingDayOfWeeks"":[],""yearlyClosingDays"":[]}	-1	-1	[]	0	1	0.0256	http://place.map.daum.net/21160830	
daum.26784549	황학대림아크로타워스퀘어	37.56607983	127.0221489		부동산	부동산서비스	분양사무소	대한민국	서울	중구	황학동 2523 	{}	{""weeklyClosingDays"":[],""monthlyClosingDayOfWeeks"":[],""yearlyClosingDays"":[]}	-1	-1	[]	10	1	0.0256	http://place.map.daum.net/26784549	
daum.21160831	신길온천역 4호선	37.33763306	126.7670414		교통,수송	지하철,전철	수도권지하철4호선	대한민국	경기	안산시	단원구 신길동 	{}	{""weeklyClosingDays"":[],""monthlyClosingDayOfWeeks"":[],""yearlyClosingDays"":[]}	-1	-1	[]	0	1	0.0256	http://place.map.daum.net/21160831	
daum.14659154	청계산입구역 신분당선	37.44835474	127.0547203		교통,수송	지하철,전철	수도권지하철신분당선	대한민국	서울	서초구	신원동	{}	{""weeklyClosingDays"":[],""monthlyClosingDayOfWeeks"":[],""yearlyClosingDays"":[]}	-1	-1	[]	0	1	0.0256	http://place.map.daum.net/14659154	
daum.11255609	제주중문관광단지	33.24582086	126.4207385		여행	관광,명소	관광단지	대한민국	제주특별자치도	서귀포시	중문동 2571 	{}	{""weeklyClosingDays"":[],""monthlyClosingDayOfWeeks"":[],""yearlyClosingDays"":[]}	-1	-1	[]	0	1	0.0256	http://place.map.daum.net/11255609	
daum.8178347	휴애리	33.3093023	126.6354231		여행	관광,명소	테마파크	대한민국	제주특별자치도	서귀포시	남원읍 신례리 2081 	{""weekDayOpen"":""9:00"",""weekDayClose"":""16:00"",""saturdayOpen"":""9:00"",""saturdayClose"":""16:00"",""sundayOpen"":""9:00"",""sundayClose"":""16:00""}	{""weeklyClosingDays"":[],""monthlyClosingDayOfWeeks"":[],""yearlyClosingDays"":[]}	-1	11000	[]	7.6	1.5	0.25	http://place.map.daum.net/8178347	
daum.14659150	양재역 신분당선	37.48346558	127.0351541		교통,수송	지하철,전철	수도권지하철신분당선	대한민국	서울	서초구	양재동	{}	{""weeklyClosingDays"":[],""monthlyClosingDayOfWeeks"":[],""yearlyClosingDays"":[]}	-1	-1	[]	0	1	0.0256	http://place.map.daum.net/14659150	
daum.9007789	백궁일식	37.36698595	127.1067439		음식점	일식	일식집	대한민국	경기	성남시	분당구 정자1동 19-5 	{}	{""weeklyClosingDays"":[],""monthlyClosingDayOfWeeks"":[],""yearlyClosingDays"":[]}	-1	-1	[]	8.8	1	0.0256	http://place.map.daum.net/9007789	
daum.21160609	동두천역 1호선	37.92761327	127.054928		교통,수송	지하철,전철	수도권지하철1호선	대한민국	경기	동두천시	동두천동	{}	{""weeklyClosingDays"":[],""monthlyClosingDayOfWeeks"":[],""yearlyClosingDays"":[]}	-1	-1	[]	0	1	0.0256	http://place.map.daum.net/21160609	
daum.21160849	구산역 6호선	37.61124669	126.9172583		교통,수송	지하철,전철	수도권지하철6호선	대한민국	서울	은평구	구산동	{}	{""weeklyClosingDays"":[],""monthlyClosingDayOfWeeks"":[],""yearlyClosingDays"":[]}	-1	-1	[]	0	1	0.0256	http://place.map.daum.net/21160849	
daum.21160608	동묘앞역 1호선	37.57321666	127.0163642		교통,수송	지하철,전철	수도권지하철1호선	대한민국	서울	종로구	숭인동	{}	{""weeklyClosingDays"":[],""monthlyClosingDayOfWeeks"":[],""yearlyClosingDays"":[]}	-1	-1	[]	0	1	0.0256	http://place.map.daum.net/21160608	
daum.21160605	독산역 1호선	37.46647993	126.8892624		교통,수송	지하철,전철	수도권지하철1호선	대한민국	서울	금천구	가산동	{}	{""weeklyClosingDays"":[],""monthlyClosingDayOfWeeks"":[],""yearlyClosingDays"":[]}	-1	-1	[]	0	1	0.0256	http://place.map.daum.net/21160605	
daum.21160847	발산역 5호선	37.55880891	126.8374577		교통,수송	지하철,전철	수도권지하철5호선	대한민국	서울	강서구	가양동	{}	{""weeklyClosingDays"":[],""monthlyClosingDayOfWeeks"":[],""yearlyClosingDays"":[]}	-1	-1	[]	0	1	0.0256	http://place.map.daum.net/21160847	
daum.18294073	코레일공항철도 본사	37.56860789	126.6711106		서비스,산업	관리,운영	기차역관리운영	대한민국	인천	서구	검암동 399-29 	{}	{""weeklyClosingDays"":[],""monthlyClosingDayOfWeeks"":[],""yearlyClosingDays"":[]}	-1	-1	[]	0	1	0.0256	http://place.map.daum.net/18294073	
daum.21160606	송내역 1호선	37.48764231	126.7531617		교통,수송	지하철,전철	수도권지하철1호선	대한민국	경기	부천시	소사구 송내동 	{}	{""weeklyClosingDays"":[],""monthlyClosingDayOfWeeks"":[],""yearlyClosingDays"":[]}	-1	-1	[]	0	1	0.0256	http://place.map.daum.net/21160606	
daum.21160848	동묘앞역 6호선	37.57217159	127.0157256		교통,수송	지하철,전철	수도권지하철6호선	대한민국	서울	종로구	숭인동	{}	{""weeklyClosingDays"":[],""monthlyClosingDayOfWeeks"":[],""yearlyClosingDays"":[]}	-1	-1	[]	0	1	0.0256	http://place.map.daum.net/21160848	
daum.21160603	광명역 1호선	37.41673622	126.8849617		교통,수송	지하철,전철	수도권지하철1호선	대한민국	경기	광명시	일직동	{}	{""weeklyClosingDays"":[],""monthlyClosingDayOfWeeks"":[],""yearlyClosingDays"":[]}	-1	-1	[]	0	1	0.0256	http://place.map.daum.net/21160603	
daum.21160845	마천역 5호선	37.49503816	127.1528599		교통,수송	지하철,전철	수도권지하철5호선	대한민국	서울	송파구	마천동	{}	{""weeklyClosingDays"":[],""monthlyClosingDayOfWeeks"":[],""yearlyClosingDays"":[]}	-1	-1	[]	0	1	0.0256	http://place.map.daum.net/21160845	
daum.22424266	우와게스트하우스	37.56028326	126.9230643		여행	숙박	게스트하우스	대한민국	서울	마포구	동교동 197-16 	{}	{""weeklyClosingDays"":[],""monthlyClosingDayOfWeeks"":[],""yearlyClosingDays"":[]}	-1	-1	[]	10	1	0.0256	http://place.map.daum.net/22424266	
daum.21160604	창동역 1호선	37.65317635	127.0475996		교통,수송	지하철,전철	수도권지하철1호선	대한민국	서울	도봉구	창동	{}	{""weeklyClosingDays"":[],""monthlyClosingDayOfWeeks"":[],""yearlyClosingDays"":[]}	-1	-1	[]	0	1	0.0256	http://place.map.daum.net/21160604	
daum.21160846	오금역 5호선	37.50213886	127.1279532		교통,수송	지하철,전철	수도권지하철5호선	대한민국	서울	송파구	오금동	{}	{""weeklyClosingDays"":[],""monthlyClosingDayOfWeeks"":[],""yearlyClosingDays"":[]}	-1	-1	[]	0	1	0.0256	http://place.map.daum.net/21160846	
daum.12273266	건대통골뱅이	37.54225702	127.0696346		음식점	술집	호프,요리주점	대한민국	서울	광진구	화양동 9-76 4층 	{""weekDayOpen"":""18:00"",""weekDayClose"":""02:00"",""saturdayOpen"":""18:00"",""saturdayClose"":""02:00"",""sundayOpen"":""18:00"",""sundayClose"":""02:00""}	{""weeklyClosingDays"":[""Sunday""],""monthlyClosingDayOfWeeks"":[],""yearlyClosingDays"":[]}	-1	-1	[]	6.7	1	0.0256	http://place.map.daum.net/12273266	
daum.21160601	지제역 1호선	37.01890035	127.0705116		교통,수송	지하철,전철	수도권지하철1호선	대한민국	경기	평택시	지제동	{}	{""weeklyClosingDays"":[],""monthlyClosingDayOfWeeks"":[],""yearlyClosingDays"":[]}	-1	-1	[]	0	1	0.0256	http://place.map.daum.net/21160601	
daum.21160843	여의도역 5호선	37.52177539	126.924398		교통,수송	지하철,전철	수도권지하철5호선	대한민국	서울	영등포구	여의도동	{}	{""weeklyClosingDays"":[],""monthlyClosingDayOfWeeks"":[],""yearlyClosingDays"":[]}	-1	-1	[]	0	1	0.0256	http://place.map.daum.net/21160843	
daum.21160602	오산대역 1호선	37.16941536	127.0629992		교통,수송	지하철,전철	수도권지하철1호선	대한민국	경기	오산시	수청동	{}	{""weeklyClosingDays"":[],""monthlyClosingDayOfWeeks"":[],""yearlyClosingDays"":[]}	-1	-1	[]	0	1	0.0256	http://place.map.daum.net/21160602	
daum.21160844	굽은다리역 5호선	37.54551759	127.1428827		교통,수송	지하철,전철	수도권지하철5호선	대한민국	서울	강동구	명일동	{}	{""weeklyClosingDays"":[],""monthlyClosingDayOfWeeks"":[],""yearlyClosingDays"":[]}	-1	-1	[]	0	1	0.0256	http://place.map.daum.net/21160844	
daum.11318845	한양대학교 ERICA캠퍼스	37.29545737	126.8356576		교육,학문	학교	대학교	대한민국	경기	안산시	상록구 사1동 1271 	{}	{""weeklyClosingDays"":[],""monthlyClosingDayOfWeeks"":[],""yearlyClosingDays"":[]}	-1	-1	[]	10	1	0.0256	http://place.map.daum.net/11318845	
daum.21160841	왕십리역 5호선	37.56203954	127.0373324		교통,수송	지하철,전철	수도권지하철5호선	대한민국	서울	성동구	행당동	{}	{""weeklyClosingDays"":[],""monthlyClosingDayOfWeeks"":[],""yearlyClosingDays"":[]}	-1	-1	[]	0	1	0.0256	http://place.map.daum.net/21160841	
daum.21160600	성신여대입구역 4호선	37.59274655	127.0166538		교통,수송	지하철,전철	수도권지하철4호선	대한민국	서울	성북구	동선동4가	{}	{""weeklyClosingDays"":[],""monthlyClosingDayOfWeeks"":[],""yearlyClosingDays"":[]}	-1	-1	[]	0	1	0.0256	http://place.map.daum.net/21160600	
daum.21160842	우장산역 5호선	37.54881709	126.8363251		교통,수송	지하철,전철	수도권지하철5호선	대한민국	서울	강서구	화곡동	{}	{""weeklyClosingDays"":[],""monthlyClosingDayOfWeeks"":[],""yearlyClosingDays"":[]}	-1	-1	[]	0	1	0.0256	http://place.map.daum.net/21160842	
daum.10516904	색달해안갯깍 주상절리대	33.24143135	126.3978705		여행	관광,명소	바위	대한민국	제주특별자치도	서귀포시	색달동	{}	{""weeklyClosingDays"":[],""monthlyClosingDayOfWeeks"":[],""yearlyClosingDays"":[]}	-1	-1	[]	0	1	0.0256	http://place.map.daum.net/10516904	
daum.25049372	평양냉면	37.49639042	126.842225		음식점	한식	냉면	대한민국	서울	구로구	오류1동 13-55 	{}	{""weeklyClosingDays"":[],""monthlyClosingDayOfWeeks"":[],""yearlyClosingDays"":[]}	-1	-1	[]	0	1	0.0256	http://place.map.daum.net/25049372	
daum.21160840	광화문역 5호선	37.57164771	126.9764231		교통,수송	지하철,전철	수도권지하철5호선	대한민국	서울	종로구	세종로	{}	{""weeklyClosingDays"":[],""monthlyClosingDayOfWeeks"":[],""yearlyClosingDays"":[]}	-1	-1	[]	0	1	0.0256	http://place.map.daum.net/21160840	
daum.8428742	양천향교역 9호선	37.56808088	126.8419788		교통,수송	지하철,전철	수도권지하철9호선	대한민국	서울	강서구	가양동	{}	{""weeklyClosingDays"":[],""monthlyClosingDayOfWeeks"":[],""yearlyClosingDays"":[]}	-1	-1	[]	0	1	0.0256	http://place.map.daum.net/8428742	
daum.8018454	올리오디올리바 분당점	37.38833082	127.1237847		음식점	양식	이탈리안	대한민국	경기	성남시	분당구 서현동 251-3 엘지분당에크라트1차 208호 	{""weekDayOpen"":""17:30"",""weekDayClose"":""22:30"",""saturdayOpen"":""17:30"",""saturdayClose"":""22:30"",""sundayOpen"":""17:30"",""sundayClose"":""22:30""}	{""weeklyClosingDays"":[],""monthlyClosingDayOfWeeks"":[],""yearlyClosingDays"":[""명절""]}	-1	-1	[]	10	1	0.0256	http://place.map.daum.net/8018454	
daum.8228030	녹하지악	33.30446216	126.4308909		여행	관광,명소	오름	대한민국	제주특별자치도	서귀포시	중문동 산5 	{}	{""weeklyClosingDays"":[],""monthlyClosingDayOfWeeks"":[],""yearlyClosingDays"":[]}	-1	-1	[]	0	1	0.0256	http://place.map.daum.net/8228030	
daum.8335690	동백동산	33.5164508	126.7160285		여행	관광,명소	산봉우리/등산로	대한민국	제주특별자치도	제주시	조천읍 선흘리 산12 	{""weekDayOpen"":""9:00"",""weekDayClose"":""18:00"",""saturdayOpen"":""9:00"",""saturdayClose"":""18:00"",""sundayOpen"":""9:00"",""sundayClose"":""18:00""}	{""weeklyClosingDays"":[],""monthlyClosingDayOfWeeks"":[],""yearlyClosingDays"":[]}	-1	0	[]	10	2	0.333333333	http://place.map.daum.net/8335690	
daum.21160658	동대문역사문화공원역 5호선	37.56462215	127.0057907		교통,수송	지하철,전철	수도권지하철5호선	대한민국	서울	중구	을지로7가	{}	{""weeklyClosingDays"":[],""monthlyClosingDayOfWeeks"":[],""yearlyClosingDays"":[]}	-1	-1	[]	0	1	0.0256	http://place.map.daum.net/21160658	
daum.17758090	한화아쿠아플라넷 제주	33.43305363	126.9278792		문화,예술	문화시설	아쿠아리움	대한민국	제주특별자치도	서귀포시	성산읍 고성리 127-1 	{""weekDayOpen"":""10:00"",""weekDayClose"":""19:00"",""saturdayOpen"":""10:00"",""saturdayClose"":""19:00"",""sundayOpen"":""10:00"",""sundayClose"":""19:00""}	{""weeklyClosingDays"":[],""monthlyClosingDayOfWeeks"":[],""yearlyClosingDays"":[]}	-1	39200	[]	4.4	1	0.166666667	http://place.map.daum.net/17758090	
daum.21160659	애오개역 5호선	37.55341315	126.9566694		교통,수송	지하철,전철	수도권지하철5호선	대한민국	서울	마포구	아현동	{}	{""weeklyClosingDays"":[],""monthlyClosingDayOfWeeks"":[],""yearlyClosingDays"":[]}	-1	-1	[]	0	1	0.0256	http://place.map.daum.net/21160659	
daum.21160656	방화역 5호선	37.5776032	126.8128193		교통,수송	지하철,전철	수도권지하철5호선	대한민국	서울	강서구	방화동	{}	{""weeklyClosingDays"":[],""monthlyClosingDayOfWeeks"":[],""yearlyClosingDays"":[]}	-1	-1	[]	0	1	0.0256	http://place.map.daum.net/21160656	
daum.8064798	제주팔레스호텔	33.5168631	126.5236809		여행	숙박	호텔	대한민국	제주특별자치도	제주시	삼도2동 1192-18 	{}	{""weeklyClosingDays"":[],""monthlyClosingDayOfWeeks"":[],""yearlyClosingDays"":[]}	-1	-1	[]	0	1	0.0256	http://place.map.daum.net/8064798	
daum.21160657	화곡역 5호선	37.54165079	126.840455		교통,수송	지하철,전철	수도권지하철5호선	대한민국	서울	강서구	화곡동	{}	{""weeklyClosingDays"":[],""monthlyClosingDayOfWeeks"":[],""yearlyClosingDays"":[]}	-1	-1	[]	0	1	0.0256	http://place.map.daum.net/21160657	
daum.21160654	아차산역 5호선	37.55224827	127.0895661		교통,수송	지하철,전철	수도권지하철5호선	대한민국	서울	광진구	구의동	{}	{""weeklyClosingDays"":[],""monthlyClosingDayOfWeeks"":[],""yearlyClosingDays"":[]}	-1	-1	[]	0	1	0.0256	http://place.map.daum.net/21160654	
daum.21160655	목동역 5호선	37.52613331	126.8646253		교통,수송	지하철,전철	수도권지하철5호선	대한민국	서울	양천구	목동	{}	{""weeklyClosingDays"":[],""monthlyClosingDayOfWeeks"":[],""yearlyClosingDays"":[]}	-1	-1	[]	0	1	0.0256	http://place.map.daum.net/21160655	
daum.21160652	수리산역 4호선	37.3499415	126.9253742		교통,수송	지하철,전철	수도권지하철4호선	대한민국	경기	군포시	산본동	{}	{""weeklyClosingDays"":[],""monthlyClosingDayOfWeeks"":[],""yearlyClosingDays"":[]}	-1	-1	[]	0	1	0.0256	http://place.map.daum.net/21160652	
daum.8064310	유리의성	33.31466396	126.2736897		여행	관광,명소	테마파크	대한민국	제주특별자치도	제주시	한경면 저지리 3135-1 	{""weekDayOpen"":""9:00"",""weekDayClose"":""19:00"",""saturdayOpen"":""9:00"",""saturdayClose"":""19:00"",""sundayOpen"":""9:00"",""sundayClose"":""19:00""}	{""weeklyClosingDays"":[],""monthlyClosingDayOfWeeks"":[],""yearlyClosingDays"":[]}	-1	11000	[]	7	1.5	0.25	http://place.map.daum.net/8064310	
daum.21160653	평촌역 4호선	37.39423951	126.963808		교통,수송	지하철,전철	수도권지하철4호선	대한민국	경기	안양시	동안구 관양동 	{}	{""weeklyClosingDays"":[],""monthlyClosingDayOfWeeks"":[],""yearlyClosingDays"":[]}	-1	-1	[]	0	1	0.0256	http://place.map.daum.net/21160653	
daum.21160661	여의나루역 5호선	37.52714695	126.932986		교통,수송	지하철,전철	수도권지하철5호선	대한민국	서울	영등포구	여의도동	{}	{""weeklyClosingDays"":[],""monthlyClosingDayOfWeeks"":[],""yearlyClosingDays"":[]}	-1	-1	[]	0	1	0.0256	http://place.map.daum.net/21160661	
daum.21160662	장한평역 5호선	37.56160299	127.0637037		교통,수송	지하철,전철	수도권지하철5호선	대한민국	서울	동대문구	장안동	{}	{""weeklyClosingDays"":[],""monthlyClosingDayOfWeeks"":[],""yearlyClosingDays"":[]}	-1	-1	[]	0	1	0.0256	http://place.map.daum.net/21160662	
daum.26414561	미샤 지하철2호선 신림역점	37.47478843	126.9170879		가정,생활	미용	화장품	대한민국	서울	관악구	신림동 607-118 신림역사내 230-02호 	{}	{""weeklyClosingDays"":[],""monthlyClosingDayOfWeeks"":[],""yearlyClosingDays"":[]}	-1	-1	[]	0	1	0.0256	http://place.map.daum.net/26414561	
daum.17360816	한양대학교병원 장례식장	37.55963723	127.0433659		가정,생활	장례	장례식장	대한민국	서울	성동구	사근동 110 	{}	{""weeklyClosingDays"":[],""monthlyClosingDayOfWeeks"":[],""yearlyClosingDays"":[]}	-1	-1	[]	9	1	0.0256	http://place.map.daum.net/17360816	
daum.21160660	마장역 5호선	37.56613896	127.0429849		교통,수송	지하철,전철	수도권지하철5호선	대한민국	서울	성동구	마장동	{}	{""weeklyClosingDays"":[],""monthlyClosingDayOfWeeks"":[],""yearlyClosingDays"":[]}	-1	-1	[]	0	1	0.0256	http://place.map.daum.net/21160660	
daum.26427629	제주박기사 승합차여행	33.50418975	126.465205		교통,수송	택시	콜밴	대한민국	제주특별자치도	제주시	도두1동 2622-9 	{}	{""weeklyClosingDays"":[],""monthlyClosingDayOfWeeks"":[],""yearlyClosingDays"":[]}	-1	-1	[]	10	1	0.0256	http://place.map.daum.net/26427629	
daum.17809089	베릿네오름	33.24733194	126.4215055		여행	관광,명소	오름	대한민국	제주특별자치도	서귀포시	중문동 3712 	{}	{""weeklyClosingDays"":[],""monthlyClosingDayOfWeeks"":[],""yearlyClosingDays"":[]}	-1	-1	[]	0	1	0.0256	http://place.map.daum.net/17809089	
daum.11090570	도심역 경의중앙선	37.57963908	127.2226839		교통,수송	지하철,전철	수도권지하철경의중앙선	대한민국	경기	남양주시	와부읍 도곡리 	{}	{""weeklyClosingDays"":[],""monthlyClosingDayOfWeeks"":[],""yearlyClosingDays"":[]}	-1	-1	[]	0	1	0.0256	http://place.map.daum.net/11090570	
daum.11582884	진흥아트홀	37.57401897	127.0243338		문화,예술	문화시설	공연장,연극극장	대한민국	서울	동대문구	신설동 104-7 	{}	{""weeklyClosingDays"":[],""monthlyClosingDayOfWeeks"":[],""yearlyClosingDays"":[]}	-1	-1	[]	0	1	0.0256	http://place.map.daum.net/11582884	
daum.13723603	금능으뜸원해변	33.38991463	126.2352325		여행	관광,명소	해수욕장,해변	대한민국	제주특별자치도	제주시	한림읍 협재리 	{}	{""weeklyClosingDays"":[],""monthlyClosingDayOfWeeks"":[],""yearlyClosingDays"":[]}	-1	-1	[]	9.7	1	0.0256	http://place.map.daum.net/13723603	
daum.20673302	하나투어 더베스트투어 반포지점	37.50467969	127.0139878		서비스,산업	여행사	하나투어	대한민국	서울	서초구	반포동 128-7 9호선 사평역사내 지하1층 	{}	{""weeklyClosingDays"":[],""monthlyClosingDayOfWeeks"":[],""yearlyClosingDays"":[]}	-1	-1	[]	0	1	0.0256	http://place.map.daum.net/20673302	
daum.21160669	태릉입구역 6호선	37.61734991	127.0747518		교통,수송	지하철,전철	수도권지하철6호선	대한민국	서울	노원구	공릉동	{}	{""weeklyClosingDays"":[],""monthlyClosingDayOfWeeks"":[],""yearlyClosingDays"":[]}	-1	-1	[]	0	1	0.0256	http://place.map.daum.net/21160669	
daum.21344352	6호선 응암역	37.59928385	126.9154235		교통,수송	지하철,전철		대한민국	서울	은평구	역촌동 85-41 	{}	{""weeklyClosingDays"":[],""monthlyClosingDayOfWeeks"":[],""yearlyClosingDays"":[]}	-1	-1	[]	0	1	0.0256	http://place.map.daum.net/21344352	
daum.21160667	불광역 6호선	37.61087976	126.9293954		교통,수송	지하철,전철	수도권지하철6호선	대한민국	서울	은평구	대조동	{}	{""weeklyClosingDays"":[],""monthlyClosingDayOfWeeks"":[],""yearlyClosingDays"":[]}	-1	-1	[]	0	1	0.0256	http://place.map.daum.net/21160667	
daum.21160668	망원역 6호선	37.55608266	126.9100943		교통,수송	지하철,전철	수도권지하철6호선	대한민국	서울	마포구	망원동	{}	{""weeklyClosingDays"":[],""monthlyClosingDayOfWeeks"":[],""yearlyClosingDays"":[]}	-1	-1	[]	0	1	0.0256	http://place.map.daum.net/21160668	
daum.21160665	영등포시장역 5호선	37.52270938	126.9051796		교통,수송	지하철,전철	수도권지하철5호선	대한민국	서울	영등포구	영등포동5가	{}	{""weeklyClosingDays"":[],""monthlyClosingDayOfWeeks"":[],""yearlyClosingDays"":[]}	-1	-1	[]	0	1	0.0256	http://place.map.daum.net/21160665	
daum.21160666	독바위역 6호선	37.61841416	126.9330537		교통,수송	지하철,전철	수도권지하철6호선	대한민국	서울	은평구	불광동	{}	{""weeklyClosingDays"":[],""monthlyClosingDayOfWeeks"":[],""yearlyClosingDays"":[]}	-1	-1	[]	0	1	0.0256	http://place.map.daum.net/21160666	
daum.21160663	길동역 5호선	37.53782649	127.1400213		교통,수송	지하철,전철	수도권지하철5호선	대한민국	서울	강동구	길동	{}	{""weeklyClosingDays"":[],""monthlyClosingDayOfWeeks"":[],""yearlyClosingDays"":[]}	-1	-1	[]	0	1	0.0256	http://place.map.daum.net/21160663	
daum.10665947	이니스프리 숙대점	37.54391764	126.9719464		가정,생활	미용	화장품	대한민국	서울	용산구	갈월동 87-2 지하철4호선 숙대입구역 7번출구 앞 	{}	{""weeklyClosingDays"":[],""monthlyClosingDayOfWeeks"":[],""yearlyClosingDays"":[]}	-1	-1	[]	0	1	0.0256	http://place.map.daum.net/10665947	
daum.21160664	거여역 5호선	37.49333045	127.1437738		교통,수송	지하철,전철	수도권지하철5호선	대한민국	서울	송파구	거여동	{}	{""weeklyClosingDays"":[],""monthlyClosingDayOfWeeks"":[],""yearlyClosingDays"":[]}	-1	-1	[]	0	1	0.0256	http://place.map.daum.net/21160664	
daum.21160672	월드컵경기장역 6호선	37.56963557	126.8990981		교통,수송	지하철,전철	수도권지하철6호선	대한민국	서울	마포구	성산동	{}	{""weeklyClosingDays"":[],""monthlyClosingDayOfWeeks"":[],""yearlyClosingDays"":[]}	-1	-1	[]	0	1	0.0256	http://place.map.daum.net/21160672	
daum.21160673	녹사평역 6호선	37.5347228	126.9865497		교통,수송	지하철,전철	수도권지하철6호선	대한민국	서울	용산구	용산동4가	{}	{""weeklyClosingDays"":[],""monthlyClosingDayOfWeeks"":[],""yearlyClosingDays"":[]}	-1	-1	[]	0	1	0.0256	http://place.map.daum.net/21160673	
daum.12776450	패트펜 국제특허법률사무소	37.5036471	127.1081642		서비스,산업	법률,행정		대한민국	서울	송파구	석촌동 290-7 호정빌딩 202호 	{}	{""weeklyClosingDays"":[],""monthlyClosingDayOfWeeks"":[],""yearlyClosingDays"":[]}	-1	-1	[]	0	1	0.0256	http://place.map.daum.net/12776450	
daum.21160670	석계역 6호선	37.61514912	127.0667033		교통,수송	지하철,전철	수도권지하철6호선	대한민국	서울	노원구	월계동	{}	{""weeklyClosingDays"":[],""monthlyClosingDayOfWeeks"":[],""yearlyClosingDays"":[]}	-1	-1	[]	0	1	0.0256	http://place.map.daum.net/21160670	
daum.21160671	창신역 6호선	37.57941564	127.0152969		교통,수송	지하철,전철	수도권지하철6호선	대한민국	서울	종로구	창신동	{}	{""weeklyClosingDays"":[],""monthlyClosingDayOfWeeks"":[],""yearlyClosingDays"":[]}	-1	-1	[]	0	1	0.0256	http://place.map.daum.net/21160671	
daum.17056702	GS25 S금호역점	37.54811495	127.015897		가정,생활	슈퍼마켓	편의점	대한민국	서울	성동구	금호동4가 1470 지하철3호선 금호역 324-09 	{}	{""weeklyClosingDays"":[],""monthlyClosingDayOfWeeks"":[],""yearlyClosingDays"":[]}	-1	-1	[]	0	1	0.0256	http://place.map.daum.net/17056702	
daum.17600274	월정리해수욕장	33.55646939	126.7958051		여행	관광,명소	해수욕장/해변	대한민국	제주특별자치도	제주시	구좌읍 월정리 33-3 	{""weekDayOpen"":""7:30"",""weekDayClose"":""20:00"",""saturdayOpen"":""7:30"",""saturdayClose"":""20:00"",""sundayOpen"":""7:30"",""sundayClose"":""20:00""}	{""weeklyClosingDays"":[],""monthlyClosingDayOfWeeks"":[],""yearlyClosingDays"":[]}	-1	1000	[]	10	0.833333333	0.166666667	http://place.map.daum.net/17600274	
daum.24055712	인천용현SK스카이뷰분양사무실	37.44563354	126.6466525		부동산	부동산서비스	분양사무소	대한민국	인천	남구	용현동 604-7 	{}	{""weeklyClosingDays"":[],""monthlyClosingDayOfWeeks"":[],""yearlyClosingDays"":[]}	-1	-1	[]	0	1	0.0256	http://place.map.daum.net/24055712	
daum.8171999	건국대학교 글로컬캠퍼스	36.94952676	127.9075045		교육,학문	학교	대학교	대한민국	충북	충주시	단월동 322 	{}	{""weeklyClosingDays"":[],""monthlyClosingDayOfWeeks"":[],""yearlyClosingDays"":[]}	-1	-1	[]	9.3	1	0.0256	http://place.map.daum.net/8171999	
daum.21160638	독립문역 3호선	37.57446808	126.957916		교통,수송	지하철,전철	수도권지하철3호선	대한민국	서울	서대문구	현저동	{}	{""weeklyClosingDays"":[],""monthlyClosingDayOfWeeks"":[],""yearlyClosingDays"":[]}	-1	-1	[]	0	1	0.0256	http://place.map.daum.net/21160638	
daum.12721329	천제연난대림	33.25287509	126.4176358		여행	관광,명소	숲	대한민국	제주특별자치도	서귀포시	중문동 2785-1 	{}	{""weeklyClosingDays"":[],""monthlyClosingDayOfWeeks"":[],""yearlyClosingDays"":[]}	-1	-1	[]	0	1	0.0256	http://place.map.daum.net/12721329	
daum.21160639	충무로역 4호선	37.56151196	126.9952554		교통,수송	지하철,전철	수도권지하철4호선	대한민국	서울	중구	충무로4가	{}	{""weeklyClosingDays"":[],""monthlyClosingDayOfWeeks"":[],""yearlyClosingDays"":[]}	-1	-1	[]	0	1	0.0256	http://place.map.daum.net/21160639	
daum.11209679	드림타운고시원	37.48789113	126.7806326		교육,학문	학습시설	고시원	대한민국	경기	부천시	원미구 심곡2동 378-23 	{}	{""weeklyClosingDays"":[],""monthlyClosingDayOfWeeks"":[],""yearlyClosingDays"":[]}	-1	-1	[]	9.5	1	0.0256	http://place.map.daum.net/11209679	
daum.8067847	제주마방목지	33.42725344	126.6030774		여행	관광,명소	테마파크	대한민국	제주특별자치도	제주시	용강동	{""weekDayOpen"":""7:30"",""weekDayClose"":""18:00"",""saturdayOpen"":""7:30"",""saturdayClose"":""18:00"",""sundayOpen"":""7:30"",""sundayClose"":""18:00""}	{""weeklyClosingDays"":[],""monthlyClosingDayOfWeeks"":[],""yearlyClosingDays"":[]}	-1	0	[]	0	0.5	0.083333333	http://place.map.daum.net/8067847	
daum.21160636	교대역 3호선	37.49274317	127.013868		교통,수송	지하철,전철	수도권지하철3호선	대한민국	서울	서초구	서초동	{}	{""weeklyClosingDays"":[],""monthlyClosingDayOfWeeks"":[],""yearlyClosingDays"":[]}	-1	-1	[]	0	1	0.0256	http://place.map.daum.net/21160636	
daum.21160637	대청역 3호선	37.49370832	127.079527		교통,수송	지하철,전철	수도권지하철3호선	대한민국	서울	강남구	일원동	{}	{""weeklyClosingDays"":[],""monthlyClosingDayOfWeeks"":[],""yearlyClosingDays"":[]}	-1	-1	[]	0	1	0.0256	http://place.map.daum.net/21160637	
daum.8679392	화이트하우스	33.51236425	126.4845109		여행	숙박	호텔	대한민국	제주특별자치도	제주시	용담3동 2572-4 	{}	{""weeklyClosingDays"":[],""monthlyClosingDayOfWeeks"":[],""yearlyClosingDays"":[]}	-1	-1	[]	7.4	1	0.0256	http://place.map.daum.net/8679392	
daum.21160634	대치역 3호선	37.49449665	127.0632034		교통,수송	지하철,전철	수도권지하철3호선	대한민국	서울	강남구	대치동	{}	{""weeklyClosingDays"":[],""monthlyClosingDayOfWeeks"":[],""yearlyClosingDays"":[]}	-1	-1	[]	0	1	0.0256	http://place.map.daum.net/21160634	
daum.8344108	르네상스호텔	33.50340941	126.5194369		여행	숙박	호텔	대한민국	제주특별자치도	제주시	삼도1동 531 	{}	{""weeklyClosingDays"":[],""monthlyClosingDayOfWeeks"":[],""yearlyClosingDays"":[]}	-1	-1	[]	2	1	0.0256	http://place.map.daum.net/8344108	
daum.11322295	망월사역 1호선	37.71021916	127.0474183		교통,수송	지하철,전철	수도권지하철1호선	대한민국	경기	의정부시	호원동	{}	{""weeklyClosingDays"":[],""monthlyClosingDayOfWeeks"":[],""yearlyClosingDays"":[]}	-1	-1	[]	0	1	0.0256	http://place.map.daum.net/11322295	
daum.21160635	삼송역 3호선	37.65307495	126.8956718		교통,수송	지하철,전철	수도권지하철3호선	대한민국	경기	고양시	덕양구 삼송동 	{}	{""weeklyClosingDays"":[],""monthlyClosingDayOfWeeks"":[],""yearlyClosingDays"":[]}	-1	-1	[]	0	1	0.0256	http://place.map.daum.net/21160635	
daum.21160632	화정역 3호선	37.63464401	126.8326884		교통,수송	지하철,전철	수도권지하철3호선	대한민국	경기	고양시	덕양구 화정동 	{}	{""weeklyClosingDays"":[],""monthlyClosingDayOfWeeks"":[],""yearlyClosingDays"":[]}	-1	-1	[]	0	1	0.0256	http://place.map.daum.net/21160632	
daum.21160633	신사역 3호선	37.51643507	127.0203108		교통,수송	지하철,전철	수도권지하철3호선	대한민국	서울	강남구	신사동	{}	{""weeklyClosingDays"":[],""monthlyClosingDayOfWeeks"":[],""yearlyClosingDays"":[]}	-1	-1	[]	0	1	0.0256	http://place.map.daum.net/21160633	
daum.21160630	불광역 3호선	37.6100478	126.9303158		교통,수송	지하철,전철	수도권지하철3호선	대한민국	서울	은평구	대조동	{}	{""weeklyClosingDays"":[],""monthlyClosingDayOfWeeks"":[],""yearlyClosingDays"":[]}	-1	-1	[]	0	1	0.0256	http://place.map.daum.net/21160630	
daum.14757826	미스터도넛 정자역사점	37.36622064	127.108102		음식점	간식	도넛	대한민국	경기	성남시	분당구 정자동 95-1 신분당선 정자역사내 	{}	{""weeklyClosingDays"":[],""monthlyClosingDayOfWeeks"":[],""yearlyClosingDays"":[]}	-1	-1	[]	0	1	0.0256	http://place.map.daum.net/14757826	
daum.21160631	녹번역 3호선	37.60080677	126.935828		교통,수송	지하철,전철	수도권지하철3호선	대한민국	서울	은평구	녹번동	{}	{""weeklyClosingDays"":[],""monthlyClosingDayOfWeeks"":[],""yearlyClosingDays"":[]}	-1	-1	[]	0	1	0.0256	http://place.map.daum.net/21160631	
daum.21160640	창동역 4호선	37.65337064	127.0483884		교통,수송	지하철,전철	수도권지하철4호선	대한민국	서울	도봉구	창동	{}	{""weeklyClosingDays"":[],""monthlyClosingDayOfWeeks"":[],""yearlyClosingDays"":[]}	-1	-1	[]	0	1	0.0256	http://place.map.daum.net/21160640	
daum.17788763	강북고시원	37.64090396	127.0282759		교육,학문	학습시설	고시원	대한민국	서울	강북구	수유동 174-1 	{}	{""weeklyClosingDays"":[],""monthlyClosingDayOfWeeks"":[],""yearlyClosingDays"":[]}	-1	-1	[]	9.7	1	0.0256	http://place.map.daum.net/17788763	
daum.8221616	뉴타운공인중개사사무소	37.58150051	127.0864538		부동산	부동산서비스	부동산중개업소	대한민국	서울	중랑구	면목동 600-53 	{""weekDayOpen"":""09:00"",""weekDayClose"":""21:00"",""saturdayOpen"":""09:00"",""saturdayClose"":""21:00"",""sundayOpen"":""09:00"",""sundayClose"":""21:00""}	{""weeklyClosingDays"":[],""monthlyClosingDayOfWeeks"":[],""yearlyClosingDays"":[]}	-1	-1	[]	10	1	0.0256	http://place.map.daum.net/8221616	
daum.8199093	경의선공인중개사	37.76524648	126.7747497		부동산	부동산서비스	부동산중개업소	대한민국	경기	파주시	금촌동 329-19 	{}	{""weeklyClosingDays"":[],""monthlyClosingDayOfWeeks"":[],""yearlyClosingDays"":[]}	-1	-1	[]	0	1	0.0256	http://place.map.daum.net/8199093	
daum.13324581	네이처리퍼블릭 신도림역점	37.50873891	126.8911092		가정,생활	미용	화장품	대한민국	서울	구로구	신도림동 460-26 지하철2호선 신도림역내 네이처리퍼블릭 	{}	{""weeklyClosingDays"":[],""monthlyClosingDayOfWeeks"":[],""yearlyClosingDays"":[]}	-1	-1	[]	0	1	0.0256	http://place.map.daum.net/13324581	
daum.20245800	우드스탁게스트하우스	37.48965211	126.7279758		여행	숙박	게스트하우스	대한민국	인천	부평구	부평동 539-2 	{}	{""weeklyClosingDays"":[],""monthlyClosingDayOfWeeks"":[],""yearlyClosingDays"":[]}	-1	-1	[]	0	1	0.0256	http://place.map.daum.net/20245800	
daum.23114771	보떼 국회의사당역점	37.52827892	126.9165038		가정,생활	미용	화장품	대한민국	서울	영등포구	여의도동 17-1 지하철9호선 국회의사당역사내 	{}	{""weeklyClosingDays"":[],""monthlyClosingDayOfWeeks"":[],""yearlyClosingDays"":[]}	-1	-1	[]	0	1	0.0256	http://place.map.daum.net/23114771	
daum.12396806	디지털 전자신청전문법무사	37.6115713	126.9176204		서비스,산업	법률,행정	법무사	대한민국	서울	은평구	대조동 224-19 지하철6호선 구산역1번 출구 	{""weekDayOpen"":""08:00"",""weekDayClose"":""19:00"",""saturdayOpen"":""08:00"",""saturdayClose"":""19:00"",""sundayOpen"":""08:00"",""sundayClose"":""19:00""}	{""weeklyClosingDays"":[],""monthlyClosingDayOfWeeks"":[],""yearlyClosingDays"":[]}	-1	-1	[]	0	1	0.0256	http://place.map.daum.net/12396806	
daum.8089626	청량리역 경의중앙선	37.58055291	127.0480741		교통,수송	지하철,전철	수도권지하철경의중앙선	대한민국	서울	동대문구	전농동	{}	{""weeklyClosingDays"":[],""monthlyClosingDayOfWeeks"":[],""yearlyClosingDays"":[]}	-1	-1	[]	0	1	0.0256	http://place.map.daum.net/8089626	
daum.19763694	환상숲곶자왈공원	33.32290672	126.2630279		여행	관광,명소	공원	대한민국	제주특별자치도	제주시	한경면 저지리 2848-2 	{""weekDayOpen"":""9:00"",""weekDayClose"":""18:00"",""saturdayOpen"":""9:00"",""saturdayClose"":""18:00"",""sundayOpen"":""9:00"",""sundayClose"":""18:00""}	{""weeklyClosingDays"":[],""monthlyClosingDayOfWeeks"":[],""yearlyClosingDays"":[]}	-1	5000	[]	9.6	1	0.166666667	http://place.map.daum.net/19763694	
daum.24907984	청라국제도시역 공항철도	37.55646453	126.6246584		교통,수송	지하철,전철	수도권지하철공항선	대한민국	인천	서구	경서동	{}	{""weeklyClosingDays"":[],""monthlyClosingDayOfWeeks"":[],""yearlyClosingDays"":[]}	-1	-1	[]	2	1	0.0256	http://place.map.daum.net/24907984	
daum.21160649	과천역 4호선	37.4328771	126.9966194		교통,수송	지하철,전철	수도권지하철4호선	대한민국	경기	과천시	별양동	{}	{""weeklyClosingDays"":[],""monthlyClosingDayOfWeeks"":[],""yearlyClosingDays"":[]}	-1	-1	[]	0	1	0.0256	http://place.map.daum.net/21160649	
daum.11474357	아산역 1호선	36.79211657	127.1040767		교통,수송	지하철,전철	수도권지하철1호선	대한민국	충남	아산시	배방읍 장재리 	{}	{""weeklyClosingDays"":[],""monthlyClosingDayOfWeeks"":[],""yearlyClosingDays"":[]}	-1	-1	[]	0	1	0.0256	http://place.map.daum.net/11474357	
daum.8523750	이중섭거리	33.24565245	126.564181		여행	관광,명소	테마거리	대한민국	제주특별자치도	서귀포시	서귀동 512 일대 	{}	{""weeklyClosingDays"":[],""monthlyClosingDayOfWeeks"":[],""yearlyClosingDays"":[]}	-1	-1	[]	4	1	0.0256	http://place.map.daum.net/8523750	
daum.21160647	동작역 4호선	37.50297778	126.9803171		교통,수송	지하철,전철	수도권지하철4호선	대한민국	서울	동작구	동작동	{}	{""weeklyClosingDays"":[],""monthlyClosingDayOfWeeks"":[],""yearlyClosingDays"":[]}	-1	-1	[]	0	1	0.0256	http://place.map.daum.net/21160647	
daum.21160648	명동역 4호선	37.56096347	126.9864001		교통,수송	지하철,전철	수도권지하철4호선	대한민국	서울	중구	충무로2가	{}	{""weeklyClosingDays"":[],""monthlyClosingDayOfWeeks"":[],""yearlyClosingDays"":[]}	-1	-1	[]	0	1	0.0256	http://place.map.daum.net/21160648	
daum.21160645	선바위역 4호선	37.45174799	127.0022287		교통,수송	지하철,전철	수도권지하철4호선	대한민국	경기	과천시	과천동	{}	{""weeklyClosingDays"":[],""monthlyClosingDayOfWeeks"":[],""yearlyClosingDays"":[]}	-1	-1	[]	0	1	0.0256	http://place.map.daum.net/21160645	
daum.21160646	삼각지역 4호선	37.53443934	126.972923		교통,수송	지하철,전철	수도권지하철4호선	대한민국	서울	용산구	한강로1가	{}	{""weeklyClosingDays"":[],""monthlyClosingDayOfWeeks"":[],""yearlyClosingDays"":[]}	-1	-1	[]	0	1	0.0256	http://place.map.daum.net/21160646	
daum.21160643	숙대입구역 4호선	37.54459523	126.9721181		교통,수송	지하철,전철	수도권지하철4호선	대한민국	서울	용산구	갈월동	{}	{""weeklyClosingDays"":[],""monthlyClosingDayOfWeeks"":[],""yearlyClosingDays"":[]}	-1	-1	[]	0	1	0.0256	http://place.map.daum.net/21160643	
daum.21160644	총신대입구역 4호선	37.4867996	126.9822119		교통,수송	지하철,전철	수도권지하철4호선	대한민국	서울	동작구	사당동	{}	{""weeklyClosingDays"":[],""monthlyClosingDayOfWeeks"":[],""yearlyClosingDays"":[]}	-1	-1	[]	0	1	0.0256	http://place.map.daum.net/21160644	
daum.21160641	길음역 4호선	37.60339478	127.0250591		교통,수송	지하철,전철	수도권지하철4호선	대한민국	서울	성북구	길음동	{}	{""weeklyClosingDays"":[],""monthlyClosingDayOfWeeks"":[],""yearlyClosingDays"":[]}	-1	-1	[]	0	1	0.0256	http://place.map.daum.net/21160641	
daum.21160883	금곡역 경춘선	37.63735514	127.2075337		교통,수송	지하철,전철	수도권지하철경춘선	대한민국	경기	남양주시	금곡동	{}	{""weeklyClosingDays"":[],""monthlyClosingDayOfWeeks"":[],""yearlyClosingDays"":[]}	-1	-1	[]	0	1	0.0256	http://place.map.daum.net/21160883	
daum.25549072	토니모리 9호선당산역점	37.53382569	126.9026538		가정,생활	미용	화장품	대한민국	서울	영등포구	당산동6가 227 당산역 지하1층 	{}	{""weeklyClosingDays"":[],""monthlyClosingDayOfWeeks"":[],""yearlyClosingDays"":[]}	-1	-1	[]	0	1	0.0256	http://place.map.daum.net/25549072	
daum.21160642	회현역 4호선	37.55876024	126.9784373		교통,수송	지하철,전철	수도권지하철4호선	대한민국	서울	중구	남창동	{}	{""weeklyClosingDays"":[],""monthlyClosingDayOfWeeks"":[],""yearlyClosingDays"":[]}	-1	-1	[]	0	1	0.0256	http://place.map.daum.net/21160642	
daum.21160884	호구포역 수인선	37.40164217	126.7086832		교통,수송	지하철,전철	수인선	대한민국	인천	남동구	논현동	{}	{""weeklyClosingDays"":[],""monthlyClosingDayOfWeeks"":[],""yearlyClosingDays"":[]}	-1	-1	[]	0	1	0.0256	http://place.map.daum.net/21160884	
daum.21160650	초지역 4호선	37.32066661	126.8059671		교통,수송	지하철,전철	수도권지하철4호선	대한민국	경기	안산시	단원구 초지동 	{}	{""weeklyClosingDays"":[],""monthlyClosingDayOfWeeks"":[],""yearlyClosingDays"":[]}	-1	-1	[]	0	1	0.0256	http://place.map.daum.net/21160650	
daum.10806507	조이고시원 신대방삼거리역점	37.49816759	126.9277782		교육,학문	학습시설	고시원	대한민국	서울	동작구	신대방2동 350-9 	{}	{""weeklyClosingDays"":[],""monthlyClosingDayOfWeeks"":[],""yearlyClosingDays"":[]}	-1	-1	[]	8	1	0.0256	http://place.map.daum.net/10806507	
daum.21160651	중앙역 4호선	37.31606615	126.8385008		교통,수송	지하철,전철	수도권지하철4호선	대한민국	경기	안산시	단원구 고잔동 	{}	{""weeklyClosingDays"":[],""monthlyClosingDayOfWeeks"":[],""yearlyClosingDays"":[]}	-1	-1	[]	0	1	0.0256	http://place.map.daum.net/21160651	
daum.25549075	토니모리 6호선응암역점	37.599291	126.9153375		가정,생활	미용	화장품	대한민국	서울	은평구	역촌동 85-41 응암역사무소 	{}	{""weeklyClosingDays"":[],""monthlyClosingDayOfWeeks"":[],""yearlyClosingDays"":[]}	-1	-1	[]	0	1	0.0256	http://place.map.daum.net/25549075	
daum.18381853	강남역 신분당선	37.49677713	127.0281852		교통,수송	지하철,전철	수도권지하철신분당선	대한민국	서울	강남구	역삼동	{}	{""weeklyClosingDays"":[],""monthlyClosingDayOfWeeks"":[],""yearlyClosingDays"":[]}	-1	-1	[]	0	1	0.0256	http://place.map.daum.net/18381853	
daum.26352286	일산역 경의중앙선	37.68201294	126.7700226		교통,수송	지하철,전철	수도권지하철경의중앙선	대한민국	경기	고양시	일산서구 일산동 	{}	{""weeklyClosingDays"":[],""monthlyClosingDayOfWeeks"":[],""yearlyClosingDays"":[]}	-1	-1	[]	0	1	0.0256	http://place.map.daum.net/26352286	
daum.26414335	미샤 지하철2호선 을지로입구역점	37.52481437	126.8968734		가정,생활	미용	화장품	대한민국	서울	영등포구	당산동3가 270-1 을지로입구역 상가 8호 	{}	{""weeklyClosingDays"":[],""monthlyClosingDayOfWeeks"":[],""yearlyClosingDays"":[]}	-1	-1	[]	0	1	0.0256	http://place.map.daum.net/26414335	
daum.12285737	지정 법무사	37.54402993	127.0566188		서비스,산업	법률,행정	법무사	대한민국	서울	성동구	성수동2가 315-1 삼연빌딩 203호 	{}	{""weeklyClosingDays"":[],""monthlyClosingDayOfWeeks"":[],""yearlyClosingDays"":[]}	-1	-1	[]	0	1	0.0256	http://place.map.daum.net/12285737	
daum.18377390	벤처코리아	37.55297729	127.0111178		부동산	빌딩		대한민국	서울	중구	신당동 372-49 	{}	{""weeklyClosingDays"":[],""monthlyClosingDayOfWeeks"":[],""yearlyClosingDays"":[]}	-1	-1	[]	0	1	0.0256	http://place.map.daum.net/18377390	
daum.8448738	쉐르빌리빙텔	37.47791833	126.9627638		교육,학문	학습시설	고시원	대한민국	서울	관악구	행운동 1686-7 	{}	{""weeklyClosingDays"":[],""monthlyClosingDayOfWeeks"":[],""yearlyClosingDays"":[]}	-1	-1	[]	5.5	1	0.0256	http://place.map.daum.net/8448738	
daum.15996679	평양면옥	35.53845272	129.3383371		음식점	한식	냉면	대한민국	울산	남구	삼산동 1480-1 	{}	{""weeklyClosingDays"":[],""monthlyClosingDayOfWeeks"":[],""yearlyClosingDays"":[]}	-1	-1	[]	10	1	0.0256	http://place.map.daum.net/15996679	
daum.21160579	구로디지털단지역 2호선	37.48526058	126.9014731		교통,수송	지하철,전철	수도권지하철2호선	대한민국	서울	구로구	구로동	{}	{""weeklyClosingDays"":[],""monthlyClosingDayOfWeeks"":[],""yearlyClosingDays"":[]}	-1	-1	[]	0	1	0.0256	http://place.map.daum.net/21160579	
daum.21160577	부평역 1호선	37.48944904	126.7243311		교통,수송	지하철,전철	수도권지하철1호선	대한민국	인천	부평구	부평동	{}	{""weeklyClosingDays"":[],""monthlyClosingDayOfWeeks"":[],""yearlyClosingDays"":[]}	-1	-1	[]	0	1	0.0256	http://place.map.daum.net/21160577	
daum.21160578	을지로4가역 2호선	37.5666405	126.9976321		교통,수송	지하철,전철	수도권지하철2호선	대한민국	서울	중구	을지로4가	{}	{""weeklyClosingDays"":[],""monthlyClosingDayOfWeeks"":[],""yearlyClosingDays"":[]}	-1	-1	[]	0	1	0.0256	http://place.map.daum.net/21160578	
daum.21160575	의왕역 1호선	37.32034211	126.9479765		교통,수송	지하철,전철	수도권지하철1호선	대한민국	경기	의왕시	삼동	{}	{""weeklyClosingDays"":[],""monthlyClosingDayOfWeeks"":[],""yearlyClosingDays"":[]}	-1	-1	[]	0	1	0.0256	http://place.map.daum.net/21160575	
daum.21160576	주안역 1호선	37.46509129	126.6806935		교통,수송	지하철,전철	수도권지하철1호선	대한민국	인천	남구	주안동	{}	{""weeklyClosingDays"":[],""monthlyClosingDayOfWeeks"":[],""yearlyClosingDays"":[]}	-1	-1	[]	0	1	0.0256	http://place.map.daum.net/21160576	
daum.21160584	잠실나루역 2호선	37.52071241	127.1038087		교통,수송	지하철,전철	수도권지하철2호선	대한민국	서울	송파구	신천동	{}	{""weeklyClosingDays"":[],""monthlyClosingDayOfWeeks"":[],""yearlyClosingDays"":[]}	-1	-1	[]	0	1	0.0256	http://place.map.daum.net/21160584	
daum.21160585	한양대역 2호선	37.55571599	127.0436398		교통,수송	지하철,전철	수도권지하철2호선	대한민국	서울	성동구	행당동	{}	{""weeklyClosingDays"":[],""monthlyClosingDayOfWeeks"":[],""yearlyClosingDays"":[]}	-1	-1	[]	0	1	0.0256	http://place.map.daum.net/21160585	
daum.21160582	교대역 2호선	37.4939	127.0143838		교통,수송	지하철,전철	수도권지하철2호선	대한민국	서울	서초구	서초동	{}	{""weeklyClosingDays"":[],""monthlyClosingDayOfWeeks"":[],""yearlyClosingDays"":[]}	-1	-1	[]	0	1	0.0256	http://place.map.daum.net/21160582	
daum.8265854	동문재래시장	33.51180511	126.5260119		가정,생활	시장		대한민국	제주특별자치도	제주시	이도1동 1436-7 	{}	{""weeklyClosingDays"":[],""monthlyClosingDayOfWeeks"":[],""yearlyClosingDays"":[]}	-1	-1	[]	1	1	0.0256	http://place.map.daum.net/8265854	
daum.21160583	아현역 2호선	37.55740618	126.9561464		교통,수송	지하철,전철	수도권지하철2호선	대한민국	서울	서대문구	북아현동	{}	{""weeklyClosingDays"":[],""monthlyClosingDayOfWeeks"":[],""yearlyClosingDays"":[]}	-1	-1	[]	0	1	0.0256	http://place.map.daum.net/21160583	
daum.21160580	당산역 2호선	37.53478432	126.9026118		교통,수송	지하철,전철	수도권지하철2호선	대한민국	서울	영등포구	당산동6가	{}	{""weeklyClosingDays"":[],""monthlyClosingDayOfWeeks"":[],""yearlyClosingDays"":[]}	-1	-1	[]	0	1	0.0256	http://place.map.daum.net/21160580	
daum.21160581	문래역 2호선	37.51797572	126.8947788		교통,수송	지하철,전철	수도권지하철2호선	대한민국	서울	영등포구	문래동3가	{}	{""weeklyClosingDays"":[],""monthlyClosingDayOfWeeks"":[],""yearlyClosingDays"":[]}	-1	-1	[]	0	1	0.0256	http://place.map.daum.net/21160581	
daum.8237395	김포공항역 9호선	37.56196577	126.8019159		교통,수송	지하철,전철	수도권지하철9호선	대한민국	서울	강서구	방화동	{}	{""weeklyClosingDays"":[],""monthlyClosingDayOfWeeks"":[],""yearlyClosingDays"":[]}	-1	-1	[]	0	1	0.0256	http://place.map.daum.net/8237395	
daum.26414524	미샤 지하철6호선 월곡역점	37.60175037	127.0414154		가정,생활	미용	화장품	대한민국	서울	성북구	하월곡동 35-1 월곡역 지하1층 	{}	{""weeklyClosingDays"":[],""monthlyClosingDayOfWeeks"":[],""yearlyClosingDays"":[]}	-1	-1	[]	0	1	0.0256	http://place.map.daum.net/26414524	
daum.10931903	한양대동문회관 예식부	37.55951538	127.0414599		가정,생활	결혼	예식장	대한민국	서울	성동구	행당동 15-1 한양대학교 동문회관 예식부 	{}	{""weeklyClosingDays"":[],""monthlyClosingDayOfWeeks"":[],""yearlyClosingDays"":[]}	-1	-1	[]	7.7	1	0.0256	http://place.map.daum.net/10931903	
daum.26414520	미샤 지하철7호선 군자역점	37.55673093	127.0805355		가정,생활	미용	화장품	대한민국	서울	광진구	능동 275-5 군자역 지하1층 	{}	{""weeklyClosingDays"":[],""monthlyClosingDayOfWeeks"":[],""yearlyClosingDays"":[]}	-1	-1	[]	0	1	0.0256	http://place.map.daum.net/26414520	
daum.17696327	토니모리 신분당선정자점	37.36620983	127.108102		가정,생활	미용	화장품	대한민국	경기	성남시	분당구 정자동 95-1 정자역 B2층 2호 	{}	{""weeklyClosingDays"":[],""monthlyClosingDayOfWeeks"":[],""yearlyClosingDays"":[]}	-1	-1	[]	0	1	0.0256	http://place.map.daum.net/17696327	
daum.11293715	노량진역 9호선	37.51358567	126.9408932		교통,수송	지하철,전철	수도권지하철9호선	대한민국	서울	동작구	노량진동	{}	{""weeklyClosingDays"":[],""monthlyClosingDayOfWeeks"":[],""yearlyClosingDays"":[]}	-1	-1	[]	0	1	0.0256	http://place.map.daum.net/11293715	
daum.26100047	토니모리 7호선군자역점	37.55673093	127.0805355		가정,생활	미용	화장품	대한민국	서울	광진구	능동 275-5 7호선군자역 지하1층 	{}	{""weeklyClosingDays"":[],""monthlyClosingDayOfWeeks"":[],""yearlyClosingDays"":[]}	-1	-1	[]	0	1	0.0256	http://place.map.daum.net/26100047	
daum.11475621	용산 아이노리장난감나라	37.53562532	126.9740902		가정,생활	유아	장난감,완구	대한민국	서울	용산구	한강로1가 6호선 삼각지역 지하1층 	{}	{""weeklyClosingDays"":[],""monthlyClosingDayOfWeeks"":[],""yearlyClosingDays"":[]}	-1	-1	[]	0	1	0.0256	http://place.map.daum.net/11475621	
daum.18115442	세븐일레븐 M신도림역점	37.50873891	126.8911092		가정,생활	슈퍼마켓	편의점	대한민국	서울	구로구	신도림동 460-26 2호선 신도림역 1번 출구아래 	{}	{""weeklyClosingDays"":[],""monthlyClosingDayOfWeeks"":[],""yearlyClosingDays"":[]}	-1	-1	[]	0	1	0.0256	http://place.map.daum.net/18115442	
daum.23114997	보떼 흑석역점	37.50961237	126.9634674		가정,생활	미용	화장품	대한민국	서울	동작구	흑석동 115-1 지하철9호선 흑석역사내 	{}	{""weeklyClosingDays"":[],""monthlyClosingDayOfWeeks"":[],""yearlyClosingDays"":[]}	-1	-1	[]	0	1	0.0256	http://place.map.daum.net/23114997	
daum.21160588	낙성대역 2호선	37.47709324	126.9635239		교통,수송	지하철,전철	수도권지하철2호선	대한민국	서울	관악구	봉천동	{}	{""weeklyClosingDays"":[],""monthlyClosingDayOfWeeks"":[],""yearlyClosingDays"":[]}	-1	-1	[]	0	1	0.0256	http://place.map.daum.net/21160588	
daum.12443322	계룡철학원	37.54316126	126.8354911		가정,생활	운명감정	철학원	대한민국	서울	강서구	화곡3동 1037-18 	{}	{""weeklyClosingDays"":[],""monthlyClosingDayOfWeeks"":[],""yearlyClosingDays"":[]}	-1	-1	[]	0	1	0.0256	http://place.map.daum.net/12443322	
daum.7910693	산수화	37.38365119	127.1412246		음식점	한식	한정식	대한민국	경기	성남시	분당구 서현1동 52 	{""weekDayOpen"":""11:30"",""weekDayClose"":""21:00"",""saturdayOpen"":""11:30"",""saturdayClose"":""21:00"",""sundayOpen"":""11:30"",""sundayClose"":""21:00""}	{""weeklyClosingDays"":[],""monthlyClosingDayOfWeeks"":[],""yearlyClosingDays"":[]}	-1	-1	[]	10	1	0.0256	http://place.map.daum.net/7910693	
daum.7972954	신방화역 9호선	37.56750823	126.8172681		교통,수송	지하철,전철	수도권지하철9호선	대한민국	서울	강서구	방화동	{}	{""weeklyClosingDays"":[],""monthlyClosingDayOfWeeks"":[],""yearlyClosingDays"":[]}	-1	-1	[]	0	1	0.0256	http://place.map.daum.net/7972954	
daum.21160589	홍대입구역 2호선	37.55687074	126.9237786		교통,수송	지하철,전철	수도권지하철2호선	대한민국	서울	마포구	동교동	{}	{""weeklyClosingDays"":[],""monthlyClosingDayOfWeeks"":[],""yearlyClosingDays"":[]}	-1	-1	[]	0	1	0.0256	http://place.map.daum.net/21160589	
daum.21160586	구의역 2호선	37.53717527	127.0861808		교통,수송	지하철,전철	수도권지하철2호선	대한민국	서울	광진구	구의동	{}	{""weeklyClosingDays"":[],""monthlyClosingDayOfWeeks"":[],""yearlyClosingDays"":[]}	-1	-1	[]	0	1	0.0256	http://place.map.daum.net/21160586	
daum.21160587	신대방역 2호선	37.48765226	126.9135097		교통,수송	지하철,전철	수도권지하철2호선	대한민국	서울	동작구	신대방동	{}	{""weeklyClosingDays"":[],""monthlyClosingDayOfWeeks"":[],""yearlyClosingDays"":[]}	-1	-1	[]	0	1	0.0256	http://place.map.daum.net/21160587	
daum.21160595	무악재역 3호선	37.58256323	126.950231		교통,수송	지하철,전철	수도권지하철3호선	대한민국	서울	서대문구	홍제동	{}	{""weeklyClosingDays"":[],""monthlyClosingDayOfWeeks"":[],""yearlyClosingDays"":[]}	-1	-1	[]	0	1	0.0256	http://place.map.daum.net/21160595	
daum.17522114	노블레지던스 교대사거리점	37.48676739	127.0161825		교육,학문	학습시설	고시원	대한민국	서울	서초구	서초동 1622-19 	{}	{""weeklyClosingDays"":[],""monthlyClosingDayOfWeeks"":[],""yearlyClosingDays"":[]}	-1	-1	[]	10	1	0.0256	http://place.map.daum.net/17522114	
daum.21160596	지축역 3호선	37.64814864	126.9138543		교통,수송	지하철,전철	수도권지하철3호선	대한민국	경기	고양시	덕양구 지축동 	{}	{""weeklyClosingDays"":[],""monthlyClosingDayOfWeeks"":[],""yearlyClosingDays"":[]}	-1	-1	[]	0	1	0.0256	http://place.map.daum.net/21160596	
daum.21160593	도곡역 3호선	37.49097578	127.0554977		교통,수송	지하철,전철	수도권지하철3호선	대한민국	서울	강남구	도곡동	{}	{""weeklyClosingDays"":[],""monthlyClosingDayOfWeeks"":[],""yearlyClosingDays"":[]}	-1	-1	[]	0	1	0.0256	http://place.map.daum.net/21160593	
daum.21160594	백석역 3호선	37.64296237	126.7881315		교통,수송	지하철,전철	수도권지하철3호선	대한민국	경기	고양시	일산동구 백석동 	{}	{""weeklyClosingDays"":[],""monthlyClosingDayOfWeeks"":[],""yearlyClosingDays"":[]}	-1	-1	[]	0	1	0.0256	http://place.map.daum.net/21160594	
daum.21160591	금호역 3호선	37.54826272	127.0158292		교통,수송	지하철,전철	수도권지하철3호선	대한민국	서울	성동구	금호동4가	{}	{""weeklyClosingDays"":[],""monthlyClosingDayOfWeeks"":[],""yearlyClosingDays"":[]}	-1	-1	[]	0	1	0.0256	http://place.map.daum.net/21160591	
daum.21160592	압구정역 3호선	37.52649218	127.0285087		교통,수송	지하철,전철	수도권지하철3호선	대한민국	서울	강남구	신사동	{}	{""weeklyClosingDays"":[],""monthlyClosingDayOfWeeks"":[],""yearlyClosingDays"":[]}	-1	-1	[]	0	1	0.0256	http://place.map.daum.net/21160592	
daum.21160590	을지로3가역 3호선	37.56643127	126.9926155		교통,수송	지하철,전철	수도권지하철3호선	대한민국	서울	중구	을지로3가	{}	{""weeklyClosingDays"":[],""monthlyClosingDayOfWeeks"":[],""yearlyClosingDays"":[]}	-1	-1	[]	0	1	0.0256	http://place.map.daum.net/21160590	
daum.8559375	테디베어뮤지엄 제주점	33.25029595	126.4121631		여행	관광,명소	미술관/박물관	대한민국	제주특별자치도	서귀포시	색달동 2889 중문관광단지내 	{""weekDayOpen"":""9:00"",""weekDayClose"":""17:30"",""saturdayOpen"":""9:00"",""saturdayClose"":""17:30"",""sundayOpen"":""9:00"",""sundayClose"":""17:30""}	{""weeklyClosingDays"":[],""monthlyClosingDayOfWeeks"":[],""yearlyClosingDays"":[]}	-1	7500	[]	6	1	0.166666667	http://place.map.daum.net/8559375	
daum.14090839	사랑공인중개사사무소	37.57202834	126.9583566		부동산	부동산서비스	부동산중개업소	대한민국	서울	서대문구	현저동 200 독립문 극동아파트 상가 103호 	{}	{""weeklyClosingDays"":[],""monthlyClosingDayOfWeeks"":[],""yearlyClosingDays"":[]}	-1	-1	[]	0	1	0.0256	http://place.map.daum.net/14090839	
daum.21160559	대공원역 4호선	37.43605574	127.0067525		교통,수송	지하철,전철	수도권지하철4호선	대한민국	경기	과천시	과천동	{}	{""weeklyClosingDays"":[],""monthlyClosingDayOfWeeks"":[],""yearlyClosingDays"":[]}	-1	-1	[]	0	1	0.0256	http://place.map.daum.net/21160559	
daum.21160799	안양역 1호선	37.40168386	126.9227298		교통,수송	지하철,전철	수도권지하철1호선	대한민국	경기	안양시	만안구 안양동 	{}	{""weeklyClosingDays"":[],""monthlyClosingDayOfWeeks"":[],""yearlyClosingDays"":[]}	-1	-1	[]	0	1	0.0256	http://place.map.daum.net/21160799	
daum.21160557	신용산역 4호선	37.52925915	126.967965		교통,수송	지하철,전철	수도권지하철4호선	대한민국	서울	용산구	한강로2가	{}	{""weeklyClosingDays"":[],""monthlyClosingDayOfWeeks"":[],""yearlyClosingDays"":[]}	-1	-1	[]	0	1	0.0256	http://place.map.daum.net/21160557	
daum.21160558	남태령역 4호선	37.46424996	126.9890853		교통,수송	지하철,전철	수도권지하철4호선	대한민국	서울	서초구	방배동	{}	{""weeklyClosingDays"":[],""monthlyClosingDayOfWeeks"":[],""yearlyClosingDays"":[]}	-1	-1	[]	0	1	0.0256	http://place.map.daum.net/21160558	
daum.11793204	다이소 홍제역점	37.58868712	126.9438637		가정,생활	생활용품점	다이소	대한민국	서울	서대문구	홍제동 330-66 지하철3호선 홍제역 314-18호 	{}	{""weeklyClosingDays"":[],""monthlyClosingDayOfWeeks"":[],""yearlyClosingDays"":[]}	-1	-1	[]	0	1	0.0256	http://place.map.daum.net/11793204	
daum.8673131	가락시장역 3호선	37.49224932	127.1176417		교통,수송	지하철,전철	수도권지하철3호선	대한민국	서울	송파구	가락동	{}	{""weeklyClosingDays"":[],""monthlyClosingDayOfWeeks"":[],""yearlyClosingDays"":[]}	-1	-1	[]	0	1	0.0256	http://place.map.daum.net/8673131	
daum.21160797	석수역 1호선	37.43509294	126.9023208		교통,수송	지하철,전철	수도권지하철1호선	대한민국	경기	안양시	만안구 석수동 	{}	{""weeklyClosingDays"":[],""monthlyClosingDayOfWeeks"":[],""yearlyClosingDays"":[]}	-1	-1	[]	0	1	0.0256	http://place.map.daum.net/21160797	
daum.21160555	미아사거리역 4호선	37.61327926	127.0300866		교통,수송	지하철,전철	수도권지하철4호선	대한민국	서울	강북구	미아동	{}	{""weeklyClosingDays"":[],""monthlyClosingDayOfWeeks"":[],""yearlyClosingDays"":[]}	-1	-1	[]	0	1	0.0256	http://place.map.daum.net/21160555	
daum.21160798	성균관대역 1호선	37.30023549	126.9718431		교통,수송	지하철,전철	수도권지하철1호선	대한민국	경기	수원시	장안구 율전동 	{}	{""weeklyClosingDays"":[],""monthlyClosingDayOfWeeks"":[],""yearlyClosingDays"":[]}	-1	-1	[]	0	1	0.0256	http://place.map.daum.net/21160798	
daum.21160556	혜화역 4호선	37.58204392	127.0019427		교통,수송	지하철,전철	수도권지하철4호선	대한민국	서울	종로구	동숭동	{}	{""weeklyClosingDays"":[],""monthlyClosingDayOfWeeks"":[],""yearlyClosingDays"":[]}	-1	-1	[]	0	1	0.0256	http://place.map.daum.net/21160556	
daum.21160795	방학역 1호선	37.66743837	127.0443217		교통,수송	지하철,전철	수도권지하철1호선	대한민국	서울	도봉구	방학동	{}	{""weeklyClosingDays"":[],""monthlyClosingDayOfWeeks"":[],""yearlyClosingDays"":[]}	-1	-1	[]	0	1	0.0256	http://place.map.daum.net/21160795	
daum.21160553	동대문역 4호선	37.57090728	127.0093138		교통,수송	지하철,전철	수도권지하철4호선	대한민국	서울	종로구	종로6가	{}	{""weeklyClosingDays"":[],""monthlyClosingDayOfWeeks"":[],""yearlyClosingDays"":[]}	-1	-1	[]	0	1	0.0256	http://place.map.daum.net/21160553	
daum.21160796	세류역 1호선	37.24387252	127.0137997		교통,수송	지하철,전철	수도권지하철1호선	대한민국	경기	수원시	권선구 장지동 	{}	{""weeklyClosingDays"":[],""monthlyClosingDayOfWeeks"":[],""yearlyClosingDays"":[]}	-1	-1	[]	0	1	0.0256	http://place.map.daum.net/21160796	
daum.21160554	상계역 4호선	37.66072054	127.0734216		교통,수송	지하철,전철	수도권지하철4호선	대한민국	서울	노원구	상계동	{}	{""weeklyClosingDays"":[],""monthlyClosingDayOfWeeks"":[],""yearlyClosingDays"":[]}	-1	-1	[]	0	1	0.0256	http://place.map.daum.net/21160554	
daum.8008273	엉또폭포	33.26855019	126.4999654		여행	관광,명소	폭포/계곡	대한민국	제주특별자치도	서귀포시	강정동 1587 	{""weekDayOpen"":""9:00"",""weekDayClose"":""18:00"",""saturdayOpen"":""9:00"",""saturdayClose"":""18:00"",""sundayOpen"":""9:00"",""sundayClose"":""18:00""}	{""weeklyClosingDays"":[],""monthlyClosingDayOfWeeks"":[],""yearlyClosingDays"":[]}	-1	0	[]	9	0.333333333	0.083333333	http://place.map.daum.net/8008273	
daum.21160562	송탄역 1호선	37.07571266	127.0542805		교통,수송	지하철,전철	수도권지하철1호선	대한민국	경기	평택시	신장동	{}	{""weeklyClosingDays"":[],""monthlyClosingDayOfWeeks"":[],""yearlyClosingDays"":[]}	-1	-1	[]	0	1	0.0256	http://place.map.daum.net/21160562	
daum.21160563	동인천역 1호선	37.47540327	126.6326161		교통,수송	지하철,전철	수도권지하철1호선	대한민국	인천	중구	인현동	{}	{""weeklyClosingDays"":[],""monthlyClosingDayOfWeeks"":[],""yearlyClosingDays"":[]}	-1	-1	[]	0	1	0.0256	http://place.map.daum.net/21160563	
daum.11738874	미샤 지하철4호선사당역점	37.48043479	126.9816571		가정,생활	미용	화장품	대한민국	서울	동작구	사당1동 1112 	{}	{""weeklyClosingDays"":[],""monthlyClosingDayOfWeeks"":[],""yearlyClosingDays"":[]}	-1	-1	[]	0	1	0.0256	http://place.map.daum.net/11738874	
daum.21160560	쌍용역 1호선	36.79372578	127.1213783		교통,수송	지하철,전철	수도권지하철1호선	대한민국	충남	천안시	서북구 쌍용동 	{}	{""weeklyClosingDays"":[],""monthlyClosingDayOfWeeks"":[],""yearlyClosingDays"":[]}	-1	-1	[]	0	1	0.0256	http://place.map.daum.net/21160560	
daum.11738873	미샤 지하철6호선불광역점	37.61053733	126.9293006		가정,생활	미용	화장품	대한민국	서울	은평구	대조동 14-1 불광역지하 2층 	{}	{""weeklyClosingDays"":[],""monthlyClosingDayOfWeeks"":[],""yearlyClosingDays"":[]}	-1	-1	[]	NaN	1	0.0256	http://place.map.daum.net/11738873	
daum.21160561	직산역 1호선	36.87093284	127.1438237		교통,수송	지하철,전철	수도권지하철1호선	대한민국	충남	천안시	서북구 직산읍 모시리 	{}	{""weeklyClosingDays"":[],""monthlyClosingDayOfWeeks"":[],""yearlyClosingDays"":[]}	-1	-1	[]	0	1	0.0256	http://place.map.daum.net/21160561	
daum.9576250	한국전자통신연구원 서울사무소	37.48734786	127.0144776		서비스,산업	인터넷,IT	소프트웨어	대한민국	서울	서초구	서초동 1599-11 리더스오피스 6층 	{}	{""weeklyClosingDays"":[],""monthlyClosingDayOfWeeks"":[],""yearlyClosingDays"":[]}	-1	-1	[]	0	1	0.0256	http://place.map.daum.net/9576250	
daum.11738872	미샤 지하철6호선보문역점	37.58491464	127.0198222		가정,생활	미용	화장품	대한민국	서울	성북구	보문동1가 127-1 	{}	{""weeklyClosingDays"":[],""monthlyClosingDayOfWeeks"":[],""yearlyClosingDays"":[]}	-1	-1	[]	8	1	0.0256	http://place.map.daum.net/11738872	
daum.26425428	진진반상 분당점	37.40051109	127.1068999		음식점	한식		대한민국	경기	성남시	분당구 삼평동 670 유스페이스1 A동 지하1층 127호 	{}	{""weeklyClosingDays"":[],""monthlyClosingDayOfWeeks"":[],""yearlyClosingDays"":[]}	-1	-1	[]	7.3	1	0.0256	http://place.map.daum.net/26425428	
daum.9198563	와이즈넛	37.40027528	127.1124426		서비스,산업	인터넷,IT	소프트웨어	대한민국	경기	성남시	분당구 삼평동 676 코리아벤처타운 1관 DTC타워 5,6층 	{}	{""weeklyClosingDays"":[],""monthlyClosingDayOfWeeks"":[],""yearlyClosingDays"":[]}	-1	-1	[]	0	1	0.0256	http://place.map.daum.net/9198563	
