{"itemList":[{"phone":"02-2267-7784","newAddress":"서울 중구 장충단로 207","imageUrl":"http://cfile174.uf.daum.net/image/11726F1F4BC6D7542759FA","direction":"","zipcode":"","placeUrl":"http://place.map.daum.net/8616948","id":"8616948","title":"평양면옥","category":"음식점 \u003e 한식 \u003e 냉면","distance":"","address":"서울 중구 장충동1가 26-14","longitude":"127.00653303670937","latitude":"37.56312646163574","addressBCode":"1114014300"},{"phone":"02-2614-2263","newAddress":"서울 구로구 고척로10길 65","imageUrl":"","direction":"","zipcode":"152890","placeUrl":"http://place.map.daum.net/25049372","id":"25049372","title":"평양냉면","category":"음식점 \u003e 한식 \u003e 냉면","distance":"","address":"서울 구로구 오류1동 13-55","longitude":"126.84222500685044","latitude":"37.496390417847294","addressBCode":"1153010800"},{"phone":"031-904-7790","newAddress":"경기 고양시 일산동구 경의로 461","imageUrl":"http://cfile38.uf.daum.net/image/193E7B384FBC4FB60A6B3C","direction":"","zipcode":"","placeUrl":"http://place.map.daum.net/11831382","id":"11831382","title":"금왕평양면옥","category":"음식점 \u003e 한식 \u003e 냉면","distance":"","address":"경기 고양시 일산동구 정발산동 1271-7","longitude":"126.78635458012651","latitude":"37.669959746733504","addressBCode":"4128510300"},{"phone":"031-877-2282","newAddress":"경기 의정부시 평화로439번길 7","imageUrl":"http://cfile72.uf.daum.net/image/2019EE454F613C3E2C095A","direction":"","zipcode":"","placeUrl":"http://place.map.daum.net/10883976","id":"10883976","title":"평양면옥","category":"음식점 \u003e 한식 \u003e 냉면","distance":"","address":"경기 의정부시 의정부3동 385","longitude":"127.04752224836588","latitude":"37.73094148167589","addressBCode":"4115010100"},{"phone":"02-549-5378","newAddress":"서울 강남구 논현로150길 6","imageUrl":"http://cfile1.uf.daum.net/image/126DB9444F726A9717765D","direction":"","zipcode":"","placeUrl":"http://place.map.daum.net/8130016","id":"8130016","title":"평양면옥","category":"음식점 \u003e 한식 \u003e 냉면","distance":"","address":"서울 강남구 논현동 66-2","longitude":"127.02915282816164","latitude":"37.51895603200401","addressBCode":"1168010800"},{"phone":"031-701-7752","newAddress":"경기 성남시 분당구 안골로 27","imageUrl":"http://cfile175.uf.daum.net/image/14762A444F6FCCA006885D","direction":"","zipcode":"463820","placeUrl":"http://place.map.daum.net/16335389","id":"16335389","title":"평양면옥","category":"음식점 \u003e 한식 \u003e 냉면","distance":"","address":"경기 성남시 분당구 서현동 203-1","longitude":"127.13474607103801","latitude":"37.38520850943889","addressBCode":"4113510500"},{"phone":"031-826-4231","newAddress":"경기 양주시 장흥면 호국로 515","imageUrl":"http://cfile180.uf.daum.net/image/01062A0379C5EAB2C87D25","direction":"","zipcode":"","placeUrl":"http://place.map.daum.net/15305287","id":"15305287","title":"평양면옥","category":"음식점 \u003e 한식 \u003e 냉면","distance":"","address":"경기 양주시 장흥면 교현리 115-9","longitude":"126.9716135555428","latitude":"37.71706186510873","addressBCode":"4163034021"},{"phone":"02-547-6947","newAddress":"서울 서초구 강남대로93길 28","imageUrl":"http://cfile49.uf.daum.net/image/01062A03792432ED7233DC","direction":"","zipcode":"","placeUrl":"http://place.map.daum.net/10886792","id":"10886792","title":"평양면옥","category":"음식점 \u003e 한식 \u003e 냉면","distance":"","address":"서울 서초구 잠원동 29-23","longitude":"127.01896162196464","latitude":"37.512961027317644","addressBCode":"1165010600"},{"phone":"042-485-0351","newAddress":"대전 서구 둔산서로 13","imageUrl":"","direction":"","zipcode":"","placeUrl":"http://place.map.daum.net/8122340","id":"8122340","title":"평양면옥","category":"음식점 \u003e 한식 \u003e 냉면","distance":"","address":"대전 서구 둔산2동 1252","longitude":"127.3825930502414","latitude":"36.347734431678354","addressBCode":"3017011200"},{"phone":"031-925-6955","newAddress":"경기 고양시 일산동구 경의로 513-22","imageUrl":"http://cfile28.uf.daum.net/image/02062A03791F4A09279956","direction":"","zipcode":"","placeUrl":"http://place.map.daum.net/8117140","id":"8117140","title":"평양면옥","category":"음식점 \u003e 한식 \u003e 냉면","distance":"","address":"경기 고양시 일산서구 일산1동 1264","longitude":"126.78314878178979","latitude":"37.674754307712064","addressBCode":"4128510300"},{"phone":"031-945-1195","newAddress":"경기 파주시 탄현면 평화로 885-94","imageUrl":"http://cfile108.uf.daum.net/image/187EA7354F44A78120572B","direction":"","zipcode":"","placeUrl":"http://place.map.daum.net/11221826","id":"11221826","title":"평양면옥","category":"음식점 \u003e 한식 \u003e 냉면","distance":"","address":"경기 파주시 탄현면 성동리 665-3","longitude":"126.68752784278497","latitude":"37.7816720180164","addressBCode":"4148032021"},{"phone":"054-775-2777","newAddress":"경북 경주시 탈해로 35","imageUrl":"","direction":"","zipcode":"","placeUrl":"http://place.map.daum.net/10095144","id":"10095144","title":"평양면옥","category":"음식점 \u003e 한식 \u003e 냉면","distance":"","address":"경북 경주시 동천동 733-53","longitude":"129.2287628220334","latitude":"35.849138155149646","addressBCode":"4713012600"},{"phone":"032-821-4343","newAddress":"인천 연수구 학나래로118번길 33","imageUrl":"","direction":"","zipcode":"","placeUrl":"http://place.map.daum.net/9647974","id":"9647974","title":"평양면옥","category":"음식점 \u003e 한식 \u003e 냉면","distance":"","address":"인천 연수구 선학동 406-3","longitude":"126.69844917777729","latitude":"37.42681613016197","addressBCode":"2818510200"},{"phone":"052-960-5100","newAddress":"울산 남구 삼산로 282","imageUrl":"","direction":"","zipcode":"","placeUrl":"http://place.map.daum.net/15996679","id":"15996679","title":"평양면옥","category":"음식점 \u003e 한식 \u003e 냉면","distance":"","address":"울산 남구 삼산동 1480-1","longitude":"129.33833709781695","latitude":"35.538452718098476","addressBCode":"3114010600"},{"phone":"02-777-8411","newAddress":"서울 중구 세종대로18길 20-1","imageUrl":"","direction":"","zipcode":"","placeUrl":"http://place.map.daum.net/13276385","id":"13276385","title":"평양면옥","category":"음식점 \u003e 한식 \u003e 냉면","distance":"","address":"서울 중구 북창동 14-5","longitude":"126.97832719980251","latitude":"37.563614795222755","addressBCode":"1114011300"}]}